timestamp,TimeUS,ThI,ABst,ThO,ThH,DAlt,Alt,BAlt,DSAlt,SAlt,TAlt,DCRt,CRt
1686004225.59932685,7633612,0.0,0.0,0.0,0.5,0.0,-0.21273010969161987,-0.14580915868282318,0.0,0.0,0.0,0,13
1686004225.69928694,7733572,0.0,0.0,0.5,0.5,0.0,-0.18223653733730316,-0.35890623927116394,0.0,0.0,0.0,0,15
1686004225.79924703,7833532,0.0,0.0,0.5,0.5,0.0,-0.1632952094078064,-0.07447624206542969,0.0,0.0,0.0,0,16
1686004225.89920688,7933492,0.0,0.0,0.5,0.5,0.0,-0.14480064809322357,-0.33422353863716125,0.0,0.0,0.0,0,16
1686004226.00000000,8034285,0.0,0.0,0.5,0.5,0.0,-0.13835261762142181,-0.24581871926784515,0.0,0.0,0.0,0,5
1686004226.09995985,8134245,0.0,0.0,0.5,0.5,0.0,-0.14619198441505432,-0.09265545010566711,0.0,0.0,0.0,0,4
1686004226.19991994,8234205,0.0,0.0,0.35624998807907104,0.5,0.0,-0.14907333254814148,-0.06230548396706581,0.0,0.0,0.0,0,4
1686004226.29988003,8334165,0.0,0.0,0.25,0.5,0.0,-0.14932362735271454,-0.1795559674501419,0.0,0.0,0.0,0,-12
1686004226.39983988,8434125,0.0,0.0,0.25,0.5,0.0,-0.16798274219036102,-0.22473692893981934,0.0,0.0,0.0,0,-28
1686004226.49979997,8534085,0.0,0.0,0.25,0.5,0.0,-0.20483878254890442,-0.20978157222270966,0.0,0.0,0.0,0,-38
1686004226.59975982,8634045,0.0,0.0,0.25,0.5,0.0,-0.25105661153793335,-0.3096332848072052,0.0,0.0,0.0,0,-44
1686004226.69971991,8734005,0.0,0.0,0.25,0.5,0.0,-0.3036106526851654,-0.2623445391654968,0.0,0.0,0.0,0,-46
1686004226.79967999,8833965,0.0,0.0,0.25,0.5,0.0,-0.35654014348983765,-0.6589644551277161,0.0,0.0,0.0,0,-47
1686004226.89963984,8933925,0.0,0.0,0.25,0.5,0.0,-0.4231104552745819,-0.7410873770713806,0.0,0.0,0.0,0,-49
1686004226.99959993,9033885,0.0,0.0,0.25,0.5,0.0,-0.5089491605758667,-0.4053691029548645,0.0,0.0,0.0,0,-52
1686004227.09956002,9133845,0.0,0.0,0.25,0.5,0.0,-0.5894604921340942,-0.7619714736938477,0.0,0.0,0.0,0,-55
1686004227.19951987,9233805,0.0,0.0,0.25,0.5,0.0,-0.6686998009681702,-0.563080370426178,0.0,0.0,0.0,0,-56
1686004227.29947996,9333765,0.0,0.0,0.25,0.5,0.0,-0.7419739365577698,-0.634763240814209,0.0,0.0,0.0,0,-57
1686004227.39944005,9433725,0.0,0.0,0.25,0.5,0.0,-0.8045834898948669,-0.8758689165115356,0.0,0.0,0.0,0,-57
1686004227.49939990,9533685,0.0,0.0,0.25,0.5,0.0,-0.8679777979850769,-1.082060694694519,0.0,0.0,0.0,0,-57
1686004227.59935999,9633645,0.0,0.0,0.25,0.5,0.0,-0.9428123235702515,-0.9637850522994995,0.0,0.0,0.0,0,-59
1686004227.69931984,9733605,0.0,0.0,0.25,0.5,0.0,-1.0209981203079224,-0.8399441838264465,0.0,0.0,0.0,0,-60
1686004227.79927993,9833565,0.0,0.0,0.25,0.5,0.0,-1.088565707206726,-1.1985770463943481,0.0,0.0,0.0,0,-60
1686004227.89924002,9933525,0.0,0.0,0.25,0.5,0.0,-1.1567286252975464,-1.0457693338394165,0.0,0.0,0.0,0,-61
1686004227.99919987,10033485,0.0,0.0,0.25,0.5,0.0,-1.2229728698730469,-1.185124397277832,0.0,0.0,0.0,0,-61
1686004228.09999299,10134278,0.0,0.0,0.25,0.5,0.0,-1.2866653203964233,-1.4385849237442017,0.0,0.0,0.0,0,-61
1686004228.19995284,10234238,0.0,0.0,0.25,0.5,0.0,-1.3586989641189575,-1.4156297445297241,0.0,0.0,0.0,0,-62
1686004228.29991293,10334198,0.0,0.0,0.25,0.5,0.0,-1.4355666637420654,-1.5353538990020752,0.0,0.0,0.0,0,-63
1686004228.39987302,10434158,0.0,0.0,0.25,0.5,0.0,-1.5168458223342896,-1.3792577981948853,0.0,0.0,0.0,0,-65
1686004228.49983287,10534118,0.0,0.0,0.25,0.5,0.0,-1.5907033681869507,-1.422493577003479,0.0,0.0,0.0,0,-65
1686004228.59979296,10634078,0.0,0.0,0.25,0.5,0.0,-1.6546213626861572,-1.597685694694519,0.0,0.0,0.0,0,-65
1686004228.69975305,10734038,0.0,0.0,0.25,0.5,0.0,-1.7165309190750122,-1.8506361246109009,0.0,0.0,0.0,0,-65
1686004228.79971290,10833998,0.0,0.0,0.25,0.5,0.0,-1.787859559059143,-1.875603437423706,0.0,0.0,0.0,0,-65
1686004228.89967299,10933958,0.0,0.0,0.25,0.5,0.0,-1.8665566444396973,-1.80015230178833,0.0,0.0,0.0,0,-66
1686004228.99963284,11033918,0.0,0.0,0.25,0.5,0.0,-1.9427268505096436,-1.9083114862442017,0.0,0.0,0.0,0,-67
1686004229.09959292,11133878,0.0,0.0,0.25,0.5,0.0,-2.0166735649108887,-1.899041771888733,0.0,0.0,0.0,0,-68
1686004229.19955301,11233838,0.0,0.0,0.25,0.5,0.0,-2.0857746601104736,-1.99664306640625,0.0,0.0,0.0,0,-68
1686004229.29951286,11333798,0.0,0.0,0.25,0.5,0.0,-2.1517250537872314,-1.9345982074737549,0.0,0.0,0.0,0,-68
1686004229.39947295,11433758,0.0,0.0,0.25,0.5,0.0,-2.20988130569458,-2.174984931945801,0.0,0.0,0.0,0,-67
1686004229.49943304,11533718,0.0,0.0,0.25,0.5,0.0,-2.2691404819488525,-2.3361446857452393,0.0,0.0,0.0,0,-66
1686004229.59939289,11633678,0.0,0.0,0.25,0.5,0.0,-2.3364059925079346,-2.116121768951416,0.0,0.0,0.0,0,-67
1686004229.69935298,11733638,0.0,0.0,0.25,0.5,0.0,-2.397350311279297,-2.0933146476745605,0.0,0.0,0.0,0,-66
1686004229.79931283,11833598,0.0,0.0,0.25,0.5,0.0,-2.4457762241363525,-2.4351370334625244,0.0,0.0,0.0,0,-65
1686004229.89927292,11933558,0.0,0.0,0.25,0.5,0.0,-2.4974911212921143,-2.502575635910034,0.0,0.0,0.0,0,-64
1686004229.99923301,12033518,0.0,0.0,0.25,0.5,0.0,-2.556086540222168,-2.5192809104919434,0.0,0.0,0.0,0,-64
1686004230.09919286,12133478,0.0,0.0,0.25,0.5,0.0,-2.6176674365997314,-2.3855085372924805,0.0,0.0,0.0,0,-64
1686004230.19998598,12234271,0.0,0.0,0.25,0.5,0.0,-2.6721465587615967,-2.518286943435669,0.0,0.0,0.0,0,-63
1686004230.29994583,12334231,0.0,0.0,0.25,0.5,0.0,-2.721423864364624,-2.7164924144744873,0.0,0.0,0.0,0,-62
1686004230.39990592,12434191,0.0,0.0,0.25,0.5,0.0,-2.7750465869903564,-2.5683624744415283,0.0,0.0,0.0,0,-61
1686004230.49986601,12534151,0.0,0.0,0.25,0.5,0.0,-2.8242928981781006,-2.9655675888061523,0.0,0.0,0.0,0,-60
1686004230.59982586,12634111,0.0,0.0,0.25,0.5,0.0,-2.8833632469177246,-2.9306514263153076,0.0,0.0,0.0,0,-60
1686004230.69978595,12734071,0.0,0.0,0.25,0.5,0.0,-2.9497570991516113,-2.7790489196777344,0.0,0.0,0.0,0,-61
1686004230.79974604,12834031,0.0,0.0,0.25,0.5,0.0,-3.0100183486938477,-2.8451523780822754,0.0,0.0,0.0,0,-61
1686004230.89970589,12933991,0.0,0.0,0.25,0.5,0.0,-3.0630922317504883,-2.88702654838562,0.0,0.0,0.0,0,-60
1686004230.99966598,13033951,0.0,0.0,0.25,0.5,0.0,-3.1104495525360107,-2.9614412784576416,0.0,0.0,0.0,0,-59
1686004231.09962583,13133911,0.0,0.0,0.25,0.5,0.0,-3.1545703411102295,-3.195483922958374,0.0,0.0,0.0,0,-58
1686004231.19958591,13233871,0.0,0.0,0.25,0.5,0.0,-3.205178737640381,-3.2145512104034424,0.0,0.0,0.0,0,-57
1686004231.29954600,13333831,0.0,0.0,0.25,0.5,0.0,-3.2613394260406494,-3.16383695602417,0.0,0.0,0.0,0,-57
1686004231.39950585,13433791,0.0,0.0,0.25,0.5,0.0,-3.3159477710723877,-3.2886550426483154,0.0,0.0,0.0,0,-57
1686004231.49946594,13533751,0.0,0.0,0.25,0.5,0.0,-3.371046781539917,-3.4482054710388184,0.0,0.0,0.0,0,-57
1686004231.59942603,13633711,0.0,0.0,0.25,0.5,0.0,-3.432154417037964,-3.2665202617645264,0.0,0.0,0.0,0,-57
1686004231.69938588,13733671,0.0,0.0,0.25,0.5,0.0,-3.487779140472412,-3.710789918899536,0.0,0.0,0.0,0,-57
1686004231.79934597,13833631,0.0,0.0,0.25,0.5,0.0,-3.553986072540283,-3.4180173873901367,0.0,0.0,0.0,0,-58
1686004231.89930582,13933591,0.0,0.0,0.25,0.5,0.0,-3.6166374683380127,-3.7453134059906006,0.0,0.0,0.0,0,-58
1686004231.99926591,14033551,0.0,0.0,0.25,0.5,0.0,-3.6840693950653076,-3.5534956455230713,0.0,0.0,0.0,0,-59
1686004232.09922600,14133511,0.0,0.0,0.25,0.5,0.0,-3.7467427253723145,-3.7261502742767334,0.0,0.0,0.0,0,-59
1686004232.20001888,14234304,0.0,0.0,0.25,0.5,0.0,-3.8081090450286865,-3.677551746368408,0.0,0.0,0.0,0,-59
1686004232.29997897,14334264,0.0,0.0,0.25,0.5,0.0,-3.864220380783081,-3.8296549320220947,0.0,0.0,0.0,0,-58
1686004232.39993882,14434224,0.0,0.0,0.25,0.5,0.0,-3.919818639755249,-3.9882023334503174,0.0,0.0,0.0,0,-58
1686004232.49989891,14534184,0.0,0.0,0.25,0.5,0.0,-3.9811034202575684,-4.019984722137451,0.0,0.0,0.0,0,-58
1686004232.59985900,14634144,0.0,0.0,0.25,0.5,0.0,-4.046530723571777,-4.023975372314453,0.0,0.0,0.0,0,-59
1686004232.69981885,14734104,0.0,0.0,0.25,0.5,0.0,-4.111754417419434,-4.044965744018555,0.0,0.0,0.0,0,-59
1686004232.79977894,14834064,0.0,0.0,0.25,0.5,0.0,-4.174036026000977,-4.367231369018555,0.0,0.0,0.0,0,-59
1686004232.89973903,14934024,0.0,0.0,0.25,0.5,0.0,-4.24570369720459,-4.246585845947266,0.0,0.0,0.0,0,-60
1686004232.99969888,15033984,0.0,0.0,0.25,0.5,0.0,-4.318986415863037,-4.248683929443359,0.0,0.0,0.0,0,-61
1686004233.09965897,15133944,0.0,0.0,0.25,0.5,0.0,-4.3877105712890625,-4.3850884437561035,0.0,0.0,0.0,0,-62
1686004233.19961882,15233904,0.0,0.0,0.25,0.5,0.0,-4.455521106719971,-4.445319652557373,0.0,0.0,0.0,0,-62
1686004233.29957891,15333864,0.0,0.0,0.25,0.5,0.0,-4.523453712463379,-4.548227787017822,0.0,0.0,0.0,0,-62
1686004233.39953899,15433824,0.0,0.0,0.25,0.5,0.0,-4.593160629272461,-4.728420734405518,0.0,0.0,0.0,0,-63
1686004233.49949884,15533784,0.0,0.0,0.25,0.5,0.0,-4.66991662979126,-4.531944274902344,0.0,0.0,0.0,0,-64
1686004233.59945893,15633744,0.0,0.0,0.25,0.5,0.0,-4.74088191986084,-4.855268478393555,0.0,0.0,0.0,0,-64
1686004233.69941902,15733704,0.0,0.0,0.25,0.5,0.0,-4.8158063888549805,-4.563030242919922,0.0,0.0,0.0,0,-65
1686004233.79937887,15833664,0.0,0.0,0.25,0.5,0.0,-4.88032865524292,-4.885783672332764,0.0,0.0,0.0,0,-65
1686004233.89933896,15933624,0.0,0.0,0.25,0.5,0.0,-4.944396018981934,-4.990228652954102,0.0,0.0,0.0,0,-65
1686004233.99929905,16033584,0.0,0.0,0.25,0.5,0.0,-5.013649940490723,-4.844131946563721,0.0,0.0,0.0,0,-65
1686004234.09925890,16133544,0.0,0.0,0.25,0.5,0.0,-5.077321529388428,-5.030984401702881,0.0,0.0,0.0,0,-65
1686004234.19921899,16233504,0.0,0.0,0.25,0.5,0.0,-5.139747142791748,-5.221406936645508,0.0,0.0,0.0,0,-65
1686004234.30001187,16334297,0.0,0.0,0.25,0.5,0.0,-5.209447383880615,-5.25236701965332,0.0,0.0,0.0,0,-65
1686004234.39997196,16434257,0.0,0.0,0.25,0.5,0.0,-5.283481121063232,-5.234463691711426,0.0,0.0,0.0,0,-66
1686004234.49993181,16534217,0.0,0.0,0.25,0.5,0.0,-5.356215000152588,-5.386172771453857,0.0,0.0,0.0,0,-67
1686004234.59989190,16634177,0.0,0.0,0.25,0.5,0.0,-5.429686069488525,-5.45840311050415,0.0,0.0,0.0,0,-67
1686004234.69985199,16734137,0.0,0.0,0.25,0.5,0.0,-5.5054850578308105,-5.2417449951171875,0.0,0.0,0.0,0,-68
1686004234.79981184,16834097,0.0,0.0,0.25,0.5,0.0,-5.571600437164307,-5.526813507080078,0.0,0.0,0.0,0,-68
1686004234.89977193,16934057,0.0,0.0,0.25,0.5,0.0,-5.633312702178955,-5.375173091888428,0.0,0.0,0.0,0,-67
1686004234.99973202,17034017,0.0,0.0,0.25,0.5,0.0,-5.6882147789001465,-5.4275946617126465,0.0,0.0,0.0,0,-66
1686004235.09969187,17133977,0.0,0.0,0.25,0.5,0.0,-5.733527660369873,-5.684627532958984,0.0,0.0,0.0,0,-65
1686004235.19965196,17233937,0.0,0.0,0.25,0.5,0.0,-5.77999210357666,-5.694005966186523,0.0,0.0,0.0,0,-63
1686004235.29961205,17333897,0.0,0.0,0.25,0.5,0.0,-5.829951763153076,-5.605754852294922,0.0,0.0,0.0,0,-62
1686004235.39957190,17433857,0.0,0.0,0.25,0.5,0.0,-5.875834941864014,-5.868940353393555,0.0,0.0,0.0,0,-61
1686004235.49953198,17533817,0.0,0.0,0.25,0.5,0.0,-5.923984050750732,-6.024594306945801,0.0,0.0,0.0,0,-60
1686004235.59949183,17633777,0.0,0.0,0.25,0.5,0.0,-5.982166767120361,-6.062964916229248,0.0,0.0,0.0,0,-60
1686004235.69945192,17733737,0.0,0.0,0.25,0.5,0.0,-6.04872465133667,-6.168345928192139,0.0,0.0,0.0,0,-61
1686004235.79941201,17833697,0.0,0.0,0.25,0.5,0.0,-6.122234344482422,-5.914664268493652,0.0,0.0,0.0,0,-62
1686004235.89937186,17933657,0.0,0.0,0.25,0.5,0.0,-6.188802242279053,-6.146030902862549,0.0,0.0,0.0,0,-62
1686004235.99933195,18033617,0.0,0.0,0.25,0.5,0.0,-6.250027179718018,-6.039755344390869,0.0,0.0,0.0,0,-62
1686004236.09929204,18133577,0.0,0.0,0.25,0.5,0.0,-6.244446754455566,-6.148752212524414,0.0,0.0,0.0,0,-61
1686004236.19925189,18233537,0.0,0.0,0.25,0.5,0.0,-6.292539119720459,-6.49013614654541,0.0,0.0,0.0,0,-60
1686004236.29921198,18333497,0.0,0.0,0.25,0.5,0.0,-6.3485541343688965,-6.383747577667236,0.0,0.0,0.0,0,-60
1686004236.40000486,18434290,0.0,0.0,0.25,0.5,0.0,-6.410416603088379,-6.25044584274292,0.0,0.0,0.0,0,-60
1686004236.49996495,18534250,0.0,0.0,0.25,0.5,0.0,-6.464444637298584,-6.30507230758667,0.0,0.0,0.0,0,-59
1686004236.59992504,18634210,0.0,0.0,0.25,0.5,0.0,-6.509082317352295,-6.659332752227783,0.0,0.0,0.0,0,-58
1686004236.69988489,18734170,0.0,0.0,0.25,0.5,0.0,-6.558897495269775,-6.782293319702148,0.0,0.0,0.0,0,-57
1686004236.79984498,18834130,0.0,0.0,0.25,0.5,0.0,-6.621553897857666,-6.61668586730957,0.0,0.0,0.0,0,-58
1686004236.89980483,18934090,0.0,0.0,0.25,0.5,0.0,-6.685876846313477,-6.681853294372559,0.0,0.0,0.0,0,-58
1686004236.99976492,19034050,0.0,0.0,0.25,0.5,0.0,-6.746576309204102,-6.7167863845825195,0.0,0.0,0.0,0,-59
1686004237.09972501,19134010,0.0,0.0,0.25,0.5,0.0,-6.8037238121032715,-6.977073669433594,0.0,0.0,0.0,0,-58
1686004237.19968486,19233970,0.0,0.0,0.25,0.5,0.0,-6.865708351135254,-7.067044734954834,0.0,0.0,0.0,0,-58
1686004237.29964495,19333930,0.0,0.0,0.25,0.5,0.0,-6.936547756195068,-7.111914157867432,0.0,0.0,0.0,0,-59
1686004237.39960504,19433890,0.0,0.0,0.25,0.5,0.0,-7.013401508331299,-6.907918453216553,0.0,0.0,0.0,0,-61
1686004237.49956489,19533850,0.0,0.0,0.25,0.5,0.0,-7.083283424377441,-7.061853408813477,0.0,0.0,0.0,0,-61
1686004237.59952497,19633810,0.0,0.0,0.25,0.5,0.0,-7.145772457122803,-7.093008041381836,0.0,0.0,0.0,0,-61
1686004237.69948483,19733770,0.0,0.0,0.25,0.5,0.0,-7.20372200012207,-7.2665696144104,0.0,0.0,0.0,0,-61
1686004237.79944491,19833730,0.0,0.0,0.25,0.5,0.0,-7.262325763702393,-7.403846263885498,0.0,0.0,0.0,0,-60
1686004237.89940500,19933690,0.0,0.0,0.25,0.5,0.0,-7.3269195556640625,-7.514375686645508,0.0,0.0,0.0,0,-61
1686004237.99936485,20033650,0.0,0.0,0.25,0.5,0.0,-7.399277210235596,-7.539015293121338,0.0,0.0,0.0,0,-62
1686004238.09932494,20133610,0.0,0.0,0.25,0.5,0.0,-7.4763946533203125,-7.472921848297119,0.0,0.0,0.0,0,-63
1686004238.19928503,20233570,0.0,0.0,0.25,0.5,0.0,-7.550520896911621,-7.633957862854004,0.0,0.0,0.0,0,-64
1686004238.29924488,20333530,0.0,0.0,0.25,0.5,0.0,-7.623148441314697,-7.7657694816589355,0.0,0.0,0.0,0,-64
1686004238.39920497,20433490,0.0,0.0,0.25,0.5,0.0,-7.69912576675415,-7.733839988708496,0.0,0.0,0.0,0,-65
1686004238.49999785,20534283,0.0,0.0,0.25,0.5,0.0,-7.77533483505249,-7.52310848236084,0.0,0.0,0.0,0,-66
1686004238.59995794,20634243,0.0,0.0,0.25,0.5,0.0,-7.837562084197998,-7.666805744171143,0.0,0.0,0.0,0,-65
1686004238.69991803,20734203,0.0,0.0,0.25,0.5,0.0,-7.8875412940979,-7.7674689292907715,0.0,0.0,0.0,0,-64
1686004238.79987788,20834163,0.0,0.0,0.25,0.5,0.0,-7.932458400726318,-7.9074225425720215,0.0,0.0,0.0,0,-62
1686004238.89983797,20934123,0.0,0.0,0.25,0.5,0.0,-7.97830057144165,-8.127562522888184,0.0,0.0,0.0,0,-61
1686004238.99979782,21034083,0.0,0.0,0.25,0.5,0.0,-8.033299446105957,-8.210174560546875,0.0,0.0,0.0,0,-61
1686004239.09975791,21134043,0.0,0.0,0.25,0.5,0.0,-8.099321365356445,-8.232274055480957,0.0,0.0,0.0,0,-61
1686004239.19971800,21234003,0.0,0.0,0.25,0.5,0.0,-8.1719331741333,-7.951642990112305,0.0,0.0,0.0,0,-62
1686004239.29967785,21333963,0.0,0.0,0.25,0.5,0.0,-8.234515190124512,-8.279678344726562,0.0,0.0,0.0,0,-62
1686004239.39963794,21433923,0.0,0.0,0.25,0.5,0.0,-8.292891502380371,-8.238202095031738,0.0,0.0,0.0,0,-62
1686004239.49959803,21533883,0.0,0.0,0.25,0.5,0.0,-8.349982261657715,-8.409564018249512,0.0,0.0,0.0,0,-62
1686004239.59955788,21633843,0.0,0.0,0.25,0.5,0.0,-8.408430099487305,-8.469700813293457,0.0,0.0,0.0,0,-61
1686004239.69951797,21733803,0.0,0.0,0.25,0.5,0.0,-8.470253944396973,-8.51446533203125,0.0,0.0,0.0,0,-61
1686004239.79947782,21833763,0.0,0.0,0.25,0.5,0.0,-8.533793449401855,-8.603428840637207,0.0,0.0,0.0,0,-62
1686004239.89943790,21933723,0.0,0.0,0.25,0.5,0.0,-8.599176406860352,-8.647443771362305,0.0,0.0,0.0,0,-62
1686004239.99939799,22033683,0.0,0.0,0.25,0.5,0.0,-8.66560173034668,-8.701286315917969,0.0,0.0,0.0,0,-62
1686004240.09935784,22133643,0.0,0.0,0.25,0.5,0.0,-8.731879234313965,-8.514660835266113,0.0,0.0,0.0,0,-62
1686004240.19931793,22233603,0.0,0.0,0.25,0.5,0.0,-8.787945747375488,-8.664277076721191,0.0,0.0,0.0,0,-62
1686004240.29927802,22333563,0.0,0.0,0.25,0.5,0.0,-8.835020065307617,-8.817015647888184,0.0,0.0,0.0,0,-60
1686004240.39923787,22433523,0.0,0.0,0.25,0.5,0.0,-8.88166332244873,-8.826066970825195,0.0,0.0,0.0,0,-59
1686004240.49919796,22533483,0.0,0.0,0.25,0.5,0.0,-8.92850399017334,-9.088484764099121,0.0,0.0,0.0,0,-58
1686004240.59999084,22634276,0.0,0.0,0.25,0.5,0.0,-8.98332405090332,-9.043447494506836,0.0,0.0,0.0,0,-58
1686004240.69995093,22734236,0.0,0.0,0.25,0.5,0.0,-9.043423652648926,-8.974069595336914,0.0,0.0,0.0,0,-58
1686004240.79991102,22834196,0.0,0.0,0.25,0.5,0.0,-9.100275039672852,-8.95762825012207,0.0,0.0,0.0,0,-58
1686004240.89987087,22934156,0.0,0.0,0.25,0.5,0.0,-9.149081230163574,-9.379508018493652,0.0,0.0,0.0,0,-57
1686004240.99983096,23034116,0.0,0.0,0.25,0.5,0.0,-9.205086708068848,-9.336430549621582,0.0,0.0,0.0,0,-57
1686004241.09979105,23134076,0.0,0.0,0.25,0.5,0.0,-9.270124435424805,-9.222151756286621,0.0,0.0,0.0,0,-58
1686004241.19975090,23234036,0.0,0.0,0.25,0.5,0.0,-9.33241081237793,-9.239871978759766,0.0,0.0,0.0,0,-58
1686004241.29971099,23333996,0.0,0.0,0.25,0.5,0.0,-9.387211799621582,-9.250487327575684,0.0,0.0,0.0,0,-58
1686004241.39967084,23433956,0.0,0.0,0.25,0.5,0.0,-9.433993339538574,-9.654804229736328,0.0,0.0,0.0,0,-57
1686004241.49963093,23533916,0.0,0.0,0.25,0.5,0.0,-9.48801326751709,-9.732073783874512,0.0,0.0,0.0,0,-56
1686004241.59959102,23633876,0.0,0.0,0.25,0.5,0.0,-9.55555248260498,-9.73468017578125,0.0,0.0,0.0,0,-57
1686004241.69955087,23733836,0.0,0.0,0.25,0.5,0.0,-9.630664825439453,-9.657464027404785,0.0,0.0,0.0,0,-59
1686004241.79951096,23833796,0.0,0.0,0.25,0.5,0.0,-9.704001426696777,-9.797542572021484,0.0,0.0,0.0,0,-60
1686004241.89947104,23933756,0.0,0.0,0.25,0.5,0.0,-9.775720596313477,-9.848984718322754,0.0,0.0,0.0,0,-60
1686004241.99943089,24033716,0.0,0.0,0.25,0.5,0.0,-9.847196578979492,-9.903956413269043,0.0,0.0,0.0,0,-61
1686004242.09939098,24133676,0.0,0.0,0.25,0.5,0.0,-9.917692184448242,-9.820769309997559,0.0,0.0,0.0,0,-62
1686004242.19935083,24233636,0.0,0.0,0.25,0.5,0.0,-9.98137378692627,-9.940204620361328,0.0,0.0,0.0,0,-62
1686004242.29931092,24333596,0.0,0.0,0.25,0.5,0.0,-10.039304733276367,-10.26432991027832,0.0,0.0,0.0,0,-61
1686004242.39927101,24433556,0.0,0.0,0.25,0.5,0.0,-10.104838371276855,-10.013687133789062,0.0,0.0,0.0,0,-62
1686004242.49923086,24533516,0.0,0.0,0.25,0.5,0.0,-10.169109344482422,-10.200050354003906,0.0,0.0,0.0,0,-62
1686004242.59919095,24633476,0.0,0.0,0.25,0.5,0.0,-10.230612754821777,-10.121849060058594,0.0,0.0,0.0,0,-62
1686004242.69998384,24734269,0.0,0.0,0.25,0.5,0.0,-10.286911010742188,-10.399528503417969,0.0,0.0,0.0,0,-61
1686004242.79994392,24834229,0.0,0.0,0.25,0.5,0.0,-10.346851348876953,-10.334750175476074,0.0,0.0,0.0,0,-61
1686004242.89990401,24934189,0.0,0.0,0.5,0.5,0.0,-10.406084060668945,-10.328742980957031,0.0,0.0,0.0,0,-55
1686004242.99986386,25034149,0.0,0.0,0.5,0.5,0.0,-10.447942733764648,-10.678241729736328,0.0,0.0,0.0,0,-40
1686004243.09982395,25134109,0.0,0.0,0.5,0.5,0.0,-10.487740516662598,-10.655797958374023,0.0,0.0,0.0,0,-32
1686004243.19978404,25234069,0.0,0.0,0.5,0.5,0.0,-10.528135299682617,-10.463216781616211,0.0,0.0,0.0,0,-27
1686004243.29974389,25334029,0.0,0.0,0.5,0.5,0.0,-10.557435989379883,-10.685790061950684,0.0,0.0,0.0,0,-23
1686004243.39970398,25433989,0.0,0.0,0.5,0.5,0.0,-10.584307670593262,-10.63370132446289,0.0,0.0,0.0,0,-20
1686004243.49966383,25533949,0.0,0.0,0.5,0.5,0.0,-10.60825252532959,-10.716719627380371,0.0,0.0,0.0,0,-18
1686004243.59962392,25633909,0.0,0.0,0.5,0.5,0.0,-10.631531715393066,-10.777669906616211,0.0,0.0,0.0,0,-17
1686004243.69958401,25733869,0.0,0.0,0.5,0.5,0.0,-10.656704902648926,-10.479387283325195,0.0,0.0,0.0,0,-16
1686004243.79954386,25833829,0.0,0.0,0.5,0.5,0.0,-10.66872787475586,-10.518094062805176,0.0,0.0,0.0,0,-14
1686004243.89950395,25933789,0.0,0.0,0.5,0.5,0.0,-10.667864799499512,-10.84731388092041,0.0,0.0,0.0,0,-11
1686004243.99946404,26033749,0.0,0.0,0.5,0.5,0.0,-10.672966003417969,-10.739022254943848,0.0,0.0,0.0,0,-10
1686004244.09942389,26133709,0.0,0.0,0.5,0.5,0.0,-10.681302070617676,-10.687512397766113,0.0,0.0,0.0,0,-9
1686004244.19938397,26233669,0.0,0.0,0.5,0.5,0.0,-10.687322616577148,-10.620954513549805,0.0,0.0,0.0,0,-8
1686004244.29934382,26333629,0.0,0.0,0.5,0.5,0.0,-10.687200546264648,-10.522395133972168,0.0,0.0,0.0,0,-6
1686004244.39930391,26433589,0.0,0.0,0.5,0.5,0.0,-10.676780700683594,-10.755191802978516,0.0,0.0,0.0,0,-4
1686004244.49926400,26533549,0.0,0.0,0.5,0.5,0.0,-10.668371200561523,-10.549304008483887,0.0,0.0,0.0,0,-3
1686004244.59922385,26633509,0.0,0.0,0.5,0.5,0.0,-10.655160903930664,-10.858963012695312,0.0,0.0,0.0,0,-1
1686004244.70001698,26734302,0.0,0.0,0.5,0.5,0.0,-10.650141716003418,-10.712445259094238,0.0,0.0,0.0,0,0
1686004244.79997683,26834262,0.0,0.0,0.5,0.5,0.0,-10.648469924926758,-10.737876892089844,0.0,0.0,0.0,0,0
1686004244.89993691,26934222,0.0,0.0,0.5,0.5,0.0,-10.648122787475586,-10.58287525177002,0.0,0.0,0.0,0,1
1686004244.99989700,27034182,0.0,0.0,0.5,0.5,0.0,-10.641677856445312,-10.599141120910645,0.0,0.0,0.0,0,2
1686004245.09985685,27134142,0.0,0.0,0.5,0.5,0.0,-10.629446029663086,-10.582038879394531,0.0,0.0,0.0,0,3
1686004245.19981694,27234102,0.0,0.0,0.5,0.5,0.0,-10.612759590148926,-10.78580093383789,0.0,0.0,0.0,0,5
1686004245.29977703,27334062,0.0,0.0,0.5,0.5,0.0,-10.60252571105957,-10.884259223937988,0.0,0.0,0.0,0,6
1686004245.39973688,27434022,0.0,0.0,0.5,0.5,0.0,-10.604598999023438,-10.654444694519043,0.0,0.0,0.0,0,5
1686004245.49969697,27533982,0.0,0.0,0.5,0.5,0.0,-10.606080055236816,-10.56525707244873,0.0,0.0,0.0,0,5
1686004245.59965682,27633942,0.0,0.0,0.5,0.5,0.0,-10.599615097045898,-10.794954299926758,0.0,0.0,0.0,0,6
1686004245.69961691,27733902,0.0,0.0,0.5,0.5,0.0,-10.59694766998291,-10.722966194152832,0.0,0.0,0.0,0,6
1686004245.79957700,27833862,0.0,0.0,0.5,0.5,0.0,-10.596946716308594,-10.638504981994629,0.0,0.0,0.0,0,7
1686004245.89953685,27933822,0.0,0.0,0.5,0.5,0.0,-10.593954086303711,-10.564447402954102,0.0,0.0,0.0,0,7
1686004245.99949694,28033782,0.0,0.0,0.5,0.5,0.0,-10.584321022033691,-10.57501220703125,0.0,0.0,0.0,0,8
1686004246.09945703,28133742,0.0,0.0,0.5,0.5,0.0,-10.569761276245117,-10.521072387695312,0.0,0.0,0.0,0,9
1686004246.19941688,28233702,0.0,0.0,0.5,0.5,0.0,-10.549948692321777,-10.520467758178711,0.0,0.0,0.0,0,10
1686004246.29937696,28333662,0.0,0.0,0.5,0.5,0.0,-10.52644157409668,-10.494367599487305,0.0,0.0,0.0,0,12
1686004246.39933681,28433622,0.0,0.0,0.5,0.5,0.0,-10.50008487701416,-10.52077579498291,0.0,0.0,0.0,0,13
1686004246.49929690,28533582,0.0,0.0,0.5,0.5,0.0,-10.473698616027832,-10.562862396240234,0.0,0.0,0.0,0,14
1686004246.59925699,28633542,0.0,0.0,0.5,0.5,0.0,-10.450773239135742,-10.563433647155762,0.0,0.0,0.0,0,15
1686004246.69921684,28733502,0.0,0.0,0.5,0.5,0.0,-10.432002067565918,-10.828109741210938,0.0,0.0,0.0,0,16
1686004246.80000997,28834295,0.0,0.0,0.5,0.5,0.0,-10.429230690002441,-10.545461654663086,0.0,0.0,0.0,0,15
1686004246.89996982,28934255,0.0,0.0,0.5,0.5,0.0,-10.429075241088867,-10.663020133972168,0.0,0.0,0.0,0,14
1686004246.99992990,29034215,0.0,0.0,0.5,0.5,0.0,-10.431568145751953,-10.74605941772461,0.0,0.0,0.0,0,13
1686004247.09988999,29134175,0.0,0.0,0.5,0.5,0.0,-10.44188117980957,-10.46703052520752,0.0,0.0,0.0,0,11
1686004247.19984984,29234135,0.0,0.0,0.5,0.5,0.0,-10.448391914367676,-10.787236213684082,0.0,0.0,0.0,0,10
1686004247.29980993,29334095,0.0,0.0,0.5,0.5,0.0,-10.45873737335205,-10.480171203613281,0.0,0.0,0.0,0,9
1686004247.39977002,29434055,0.0,0.0,0.5,0.5,0.0,-10.466473579406738,-10.691874504089355,0.0,0.0,0.0,0,8
1686004247.49972987,29534015,0.0,0.0,0.5,0.5,0.0,-10.474014282226562,-10.416958808898926,0.0,0.0,0.0,0,7
1686004247.59968996,29633975,0.0,0.0,0.5,0.5,0.0,-10.475125312805176,-10.742931365966797,0.0,0.0,0.0,0,7
1686004247.69965005,29733935,0.0,0.0,0.5,0.5,0.0,-10.47870922088623,-10.59777545928955,0.0,0.0,0.0,0,6
1686004247.79960990,29833895,0.0,0.0,0.5,0.5,0.0,-10.485452651977539,-10.696414947509766,0.0,0.0,0.0,0,5
1686004247.89956999,29933855,0.0,0.0,0.5,0.5,0.0,-10.495193481445312,-10.463380813598633,0.0,0.0,0.0,0,4
1686004247.99952984,30033815,0.0,0.0,0.5,0.5,0.0,-10.499897003173828,-10.589531898498535,0.0,0.0,0.0,0,3
1686004248.09948993,30133775,0.0,0.0,0.5,0.5,0.0,-10.500938415527344,-10.512149810791016,0.0,0.0,0.0,0,3
1686004248.19945002,30233735,0.0,0.0,0.5,0.5,0.0,-10.499138832092285,-10.489659309387207,0.0,0.0,0.0,0,3
1686004248.29940987,30333695,0.0,0.0,0.5,0.5,0.0,-10.493023872375488,-10.340520858764648,0.0,0.0,0.0,0,3
1686004248.39936996,30433655,0.0,0.0,0.5,0.5,0.0,-10.477909088134766,-10.608739852905273,0.0,0.0,0.0,0,4
1686004248.49933004,30533615,0.0,0.0,0.5,0.5,0.0,-10.46436882019043,-10.401461601257324,0.0,0.0,0.0,0,5
1686004248.59928989,30633575,0.0,0.0,0.5,0.5,0.0,-10.450265884399414,-10.561030387878418,0.0,0.0,0.0,0,5
1686004248.69924998,30733535,0.0,0.0,0.5,0.5,0.0,-10.438277244567871,-10.292899131774902,0.0,0.0,0.0,0,6
1686004248.79920983,30833495,0.0,0.0,0.5,0.5,0.0,-10.4213228225708,-10.628836631774902,0.0,0.0,0.0,0,7
1686004248.90000296,30934288,0.0,0.0,0.5,0.5,0.0,-10.408927917480469,-10.545769691467285,0.0,0.0,0.0,0,7
1686004248.99996305,31034248,0.0,0.0,0.5,0.5,0.0,-10.404427528381348,-10.567309379577637,0.0,0.0,0.0,0,6
1686004249.09992290,31134208,0.0,0.0,0.5,0.5,0.0,-10.404943466186523,-10.30626392364502,0.0,0.0,0.0,0,6
1686004249.19988298,31234168,0.0,0.0,0.5,0.5,0.0,-10.399392127990723,-10.579340934753418,0.0,0.0,0.0,0,6
1686004249.29984283,31334128,0.0,0.0,0.5,0.5,0.0,-10.394911766052246,-10.312237739562988,0.0,0.0,0.0,0,5
1686004249.39980292,31434088,0.0,0.0,0.5,0.5,0.0,-10.386883735656738,-10.565752029418945,0.0,0.0,0.0,0,6
1686004249.49976301,31534048,0.0,0.0,0.5,0.5,0.0,-10.380990982055664,-10.420756340026855,0.0,0.0,0.0,0,5
1686004249.59972286,31634008,0.0,0.0,0.5,0.5,0.0,-10.37674331665039,-10.395064353942871,0.0,0.0,0.0,0,5
1686004249.69968295,31733968,0.0,0.0,0.5,0.5,0.0,-10.36990737915039,-10.504095077514648,0.0,0.0,0.0,0,5
1686004249.79964304,31833928,0.0,0.0,0.5,0.5,0.0,-10.365323066711426,-10.527817726135254,0.0,0.0,0.0,0,5
1686004249.89960289,31933888,0.0,0.0,0.5,0.5,0.0,-10.365924835205078,-10.44859790802002,0.0,0.0,0.0,0,5
1686004249.99956298,32033848,0.0,0.0,0.5,0.5,0.0,-10.367785453796387,-10.424970626831055,0.0,0.0,0.0,0,4
1686004250.09952283,32133808,0.0,0.0,0.5,0.5,0.0,-10.36799144744873,-10.410968780517578,0.0,0.0,0.0,0,4
1686004250.19948292,32233768,0.0,0.0,0.5,0.5,0.0,-10.366071701049805,-10.158531188964844,0.0,0.0,0.0,0,3
1686004250.29944301,32333728,0.0,0.0,0.5,0.5,0.0,-10.352663040161133,-10.389662742614746,0.0,0.0,0.0,0,4
1686004250.39940286,32433688,0.0,0.0,0.5,0.5,0.0,-10.335307121276855,-10.372663497924805,0.0,0.0,0.0,0,5
1686004250.49936295,32533648,0.0,0.0,0.5,0.5,0.0,-10.32020092010498,-10.451883316040039,0.0,0.0,0.0,0,6
1686004250.59932303,32633608,0.0,0.0,0.5,0.5,0.0,-10.310208320617676,-10.214144706726074,0.0,0.0,0.0,0,6
1686004250.69928288,32733568,0.0,0.0,0.5,0.5,0.0,-10.296812057495117,-10.14826488494873,0.0,0.0,0.0,0,6
1686004250.79924297,32833528,0.0,0.0,0.5,0.5,0.0,-10.273970603942871,-10.13630199432373,0.0,0.0,0.0,0,8
1686004250.89920282,32933488,0.0,0.0,0.5,0.5,0.0,-10.243474960327148,-10.245598793029785,0.0,0.0,0.0,0,9
1686004250.99999595,33034281,0.0,0.0,0.5,0.5,0.0,-10.212759971618652,-10.367971420288086,0.0,0.0,0.0,0,11
1686004251.09995604,33134241,0.0,0.0,0.5,0.5,0.0,-10.190491676330566,-10.208342552185059,0.0,0.0,0.0,0,12
1686004251.19991589,33234201,0.0,0.0,0.5,0.5,0.0,-10.171646118164062,-10.423476219177246,0.0,0.0,0.0,0,12
1686004251.29987597,33334161,0.0,0.0,0.5,0.5,0.0,-10.16113567352295,-10.38344669342041,0.0,0.0,0.0,0,12
1686004251.39983582,33434121,0.0,0.0,0.5,0.5,0.0,-10.160188674926758,-10.365201950073242,0.0,0.0,0.0,0,11
1686004251.49979591,33534081,0.0,0.0,0.5,0.5,0.0,-10.164752960205078,-10.006600379943848,0.0,0.0,0.0,0,9
1686004251.59975600,33634041,0.0,0.0,0.5,0.5,0.0,-10.158855438232422,-10.229043960571289,0.0,0.0,0.0,0,9
1686004251.69971585,33734001,0.0,0.0,0.5,0.5,0.0,-10.146881103515625,-10.223455429077148,0.0,0.0,0.0,0,10
1686004251.79967594,33833961,0.0,0.0,0.5,0.5,0.0,-10.135735511779785,-10.121732711791992,0.0,0.0,0.0,0,10
1686004251.89963603,33933921,0.0,0.0,0.5,0.5,0.0,-10.121789932250977,-9.997281074523926,0.0,0.0,0.0,0,10
1686004251.99959588,34033881,0.0,0.0,0.5,0.5,0.0,-10.09958267211914,-10.265088081359863,0.0,0.0,0.0,0,11
1686004252.09955597,34133841,0.0,0.0,0.5,0.5,0.0,-10.08033561706543,-10.123594284057617,0.0,0.0,0.0,0,12
1686004252.19951582,34233801,0.0,0.0,0.5,0.5,0.0,-10.064395904541016,-10.037637710571289,0.0,0.0,0.0,0,12
1686004252.29947591,34333761,0.0,0.0,0.5,0.5,0.0,-10.045318603515625,-10.127205848693848,0.0,0.0,0.0,0,13
1686004252.39943600,34433721,0.0,0.0,0.5,0.5,0.0,-10.026619911193848,-9.931836128234863,0.0,0.0,0.0,0,13
1686004252.49939585,34533681,0.0,0.0,0.5,0.5,0.0,-10.003414154052734,-10.129249572753906,0.0,0.0,0.0,0,14
1686004252.59935594,34633641,0.0,0.0,0.5,0.5,0.0,-9.981672286987305,-9.907797813415527,0.0,0.0,0.0,0,14
1686004252.69931602,34733601,0.0,0.0,0.5,0.5,0.0,-9.957629203796387,-10.061209678649902,0.0,0.0,0.0,0,15
1686004252.79927588,34833561,0.0,0.0,0.5,0.5,0.0,-9.93441104888916,-9.978727340698242,0.0,0.0,0.0,0,16
1686004252.89923596,34933521,0.0,0.0,0.5,0.5,0.0,-9.912992477416992,-9.922457695007324,0.0,0.0,0.0,0,16
1686004252.99919581,35033481,0.0,0.0,0.5,0.5,0.0,-9.890021324157715,-10.198159217834473,0.0,0.0,0.0,0,17
1686004253.09998894,35134274,0.0,0.0,0.5,0.5,0.0,-9.876553535461426,-10.101333618164062,0.0,0.0,0.0,0,16
1686004253.19994903,35234234,0.0,0.0,0.5,0.5,0.0,-9.873029708862305,-10.11637020111084,0.0,0.0,0.0,0,15
1686004253.29990888,35334194,0.0,0.0,0.5,0.5,0.0,-9.875499725341797,-10.174766540527344,0.0,0.0,0.0,0,14
1686004253.39986897,35434154,0.0,0.0,0.5,0.5,0.0,-9.885048866271973,-10.025548934936523,0.0,0.0,0.0,0,12
1686004253.49982882,35534114,0.0,0.0,0.5,0.5,0.0,-9.894999504089355,-9.804890632629395,0.0,0.0,0.0,0,11
1686004253.59978890,35634074,0.0,0.0,0.5,0.5,0.0,-9.893308639526367,-9.902963638305664,0.0,0.0,0.0,0,10
1686004253.69974899,35734034,0.0,0.0,0.5,0.5,0.0,-9.882723808288574,-10.117587089538574,0.0,0.0,0.0,0,10
1686004253.79970884,35833994,0.0,0.0,0.5,0.5,0.0,-9.876977920532227,-9.837671279907227,0.0,0.0,0.0,0,10
1686004253.89966893,35933954,0.0,0.0,0.5,0.5,0.0,-9.868903160095215,-9.807717323303223,0.0,0.0,0.0,0,10
1686004253.99962902,36033914,0.0,0.0,0.5,0.5,0.0,-9.852628707885742,-10.067527770996094,0.0,0.0,0.0,0,11
1686004254.09958887,36133874,0.0,0.0,0.5,0.5,0.0,-9.840904235839844,-9.995002746582031,0.0,0.0,0.0,0,11
1686004254.19954896,36233834,0.0,0.0,0.5,0.5,0.0,-9.835899353027344,-10.02578067779541,0.0,0.0,0.0,0,10
1686004254.29950905,36333794,0.0,0.0,0.5,0.5,0.0,-9.83584976196289,-9.991738319396973,0.0,0.0,0.0,0,9
1686004254.39946890,36433754,0.0,0.0,0.5,0.5,0.0,-9.838907241821289,-9.766630172729492,0.0,0.0,0.0,0,8
1686004254.49942899,36533714,0.0,0.0,0.5,0.5,0.0,-9.834733009338379,-10.004195213317871,0.0,0.0,0.0,0,8
1686004254.59938884,36633674,0.0,0.0,0.5,0.5,0.0,-9.830239295959473,-9.865324020385742,0.0,0.0,0.0,0,8
1686004254.69934893,36733634,0.0,0.0,0.5,0.5,0.0,-9.825551986694336,-10.051852226257324,0.0,0.0,0.0,0,8
1686004254.79930902,36833594,0.0,0.0,0.5,0.5,0.0,-9.825502395629883,-9.94682788848877,0.0,0.0,0.0,0,7
1686004254.89926887,36933554,0.0,0.0,0.5,0.5,0.0,-9.828873634338379,-9.747366905212402,0.0,0.0,0.0,0,6
1686004254.99922895,37033514,0.0,0.0,0.5,0.5,0.0,-9.824705123901367,-9.897603988647461,0.0,0.0,0.0,0,6
1686004255.09918904,37133474,0.0,0.0,0.5,0.5,0.0,-9.817147254943848,-9.683357238769531,0.0,0.0,0.0,0,6
1686004255.19998193,37234267,0.0,0.0,0.5,0.5,0.0,-9.800848007202148,-9.711954116821289,0.0,0.0,0.0,0,7
1686004255.29994202,37334227,0.0,0.0,0.5,0.5,0.0,-9.777729034423828,-9.806086540222168,0.0,0.0,0.0,0,8
1686004255.39990187,37434187,0.0,0.0,0.5,0.5,0.0,-9.75536823272705,-9.978699684143066,0.0,0.0,0.0,0,9
1686004255.49986196,37534147,0.0,0.0,0.5,0.5,0.0,-9.743887901306152,-9.714675903320312,0.0,0.0,0.0,0,9
1686004255.59982204,37634107,0.0,0.0,0.5,0.5,0.0,-9.731125831604004,-9.96679401397705,0.0,0.0,0.0,0,9
1686004255.69978189,37734067,0.0,0.0,0.5,0.5,0.0,-9.726033210754395,-9.758820533752441,0.0,0.0,0.0,0,9
1686004255.79974198,37834027,0.0,0.0,0.5,0.5,0.0,-9.72072696685791,-9.874405860900879,0.0,0.0,0.0,0,8
1686004255.89970183,37933987,0.0,0.0,0.5,0.5,0.0,-9.718066215515137,-9.870183944702148,0.0,0.0,0.0,0,8
1686004255.99966192,38033947,0.0,0.0,0.5,0.5,0.0,-9.718982696533203,-9.593801498413086,0.0,0.0,0.0,0,7
1686004256.09962201,38133907,0.0,0.0,0.5,0.5,0.0,-9.709819793701172,-9.761150360107422,0.0,0.0,0.0,0,7
1686004256.19958186,38233867,0.0,0.0,0.5,0.5,0.0,-9.697794914245605,-9.70418643951416,0.0,0.0,0.0,0,8
1686004256.29954195,38333827,0.0,0.0,0.5,0.5,0.0,-9.684078216552734,-9.699041366577148,0.0,0.0,0.0,0,8
1686004256.39950204,38433787,0.0,0.0,0.5,0.5,0.0,-9.668865203857422,-9.831690788269043,0.0,0.0,0.0,0,9
1686004256.49946189,38533747,0.0,0.0,0.5,0.5,0.0,-9.65941333770752,-9.788166999816895,0.0,0.0,0.0,0,9
1686004256.59942198,38633707,0.0,0.0,0.5,0.5,0.0,-9.65451717376709,-9.866923332214355,0.0,0.0,0.0,0,8
1686004256.69938183,38733667,0.0,0.0,0.5,0.5,0.0,-9.65629768371582,-9.756446838378906,0.0,0.0,0.0,0,7
1686004256.79934192,38833627,0.0,0.0,0.5,0.5,0.0,-9.658964157104492,-9.484785079956055,0.0,0.0,0.0,0,6
1686004256.89930201,38933587,0.35839444398880005,0.0,0.47381392121315,0.5,-9.650136947631836,-9.648234367370605,-9.668743133544922,0.0,0.0,0.0,6,7
1686004256.99926186,39033547,0.3711918890476227,0.0,0.3826706111431122,0.5,-9.644449234008789,-9.63414478302002,-9.807785987854004,0.0,0.0,0.0,1,4
1686004257.09922194,39133507,0.42054319381713867,0.0,0.39310508966445923,0.5,-9.640641212463379,-9.63109016418457,-9.714128494262695,0.0,0.0,0.0,0,0
1686004257.20001483,39234300,0.46873125433921814,0.0,0.4336552917957306,0.5,-9.638076782226562,-9.634632110595703,-9.800132751464844,0.0,0.0,0.0,1,-2
1686004257.29997492,39334260,0.5212570428848267,0.0,0.4787415564060211,0.5,-9.636378288269043,-9.64415454864502,-9.840206146240234,0.0,0.0,0.0,3,-3
1686004257.39993501,39434220,0.6275897026062012,0.0,0.5508036613464355,0.5,-9.635242462158203,-9.659415245056152,-9.68463134765625,0.0,0.0,0.0,8,-3
1686004257.49989486,39534180,0.6220740675926208,0.0,0.6120457053184509,0.5,-9.634483337402344,-9.669785499572754,-9.596269607543945,0.0,0.0,0.0,11,0
1686004257.59985495,39634140,0.55975341796875,0.0,0.5951557159423828,0.5,-9.6339750289917,-9.666363716125488,-9.655363082885742,0.0,0.0,0.0,10,4
1686004257.69981503,39734100,0.491874098777771,0.0,0.5425552129745483,0.5,-9.633633613586426,-9.654388427734375,-9.691813468933105,0.0,0.0,0.0,6,7
1686004257.79977489,39834060,0.4038683772087097,0.0,0.4728889763355255,0.5,-9.633404731750488,-9.64108943939209,-9.48196029663086,0.0,0.0,0.0,2,7
1686004257.89973497,39934020,0.3384397029876709,0.0,0.3946542739868164,0.5,-9.63325309753418,-9.619621276855469,-9.79690933227539,0.0,0.0,0.0,-3,6
1686004257.99969482,40033980,0.37704795598983765,0.0,0.363368958234787,0.5,-9.633150100708008,-9.608561515808105,-9.623516082763672,0.0,0.0,0.0,-7,1
1686004258.09965491,40133940,0.4159240126609802,0.0,0.3917136788368225,0.5,-9.63308334350586,-9.605341911315918,-9.572969436645508,0.0,0.0,0.0,-8,-3
1686004258.19961500,40233900,0.42626744508743286,0.0,0.41543707251548767,0.5,-9.633033752441406,-9.60294246673584,-9.707711219787598,0.0,0.0,0.0,-8,-6
1686004258.29957485,40333860,0.44430625438690186,0.0,0.4280005395412445,0.5,-9.63300895690918,-9.605999946594238,-9.425312042236328,0.0,0.0,0.0,-8,-7
1686004258.39953494,40433820,0.42966848611831665,0.0,0.4406623840332031,0.5,-9.632984161376953,-9.601190567016602,-9.562596321105957,0.0,0.0,0.0,-9,-7
1686004258.49949503,40533780,0.3854106664657593,0.0,0.4123972952365875,0.5,-9.632966041564941,-9.592982292175293,-9.542412757873535,0.0,0.0,0.0,-11,-6
1686004258.59945488,40633740,0.37669849395751953,0.0,0.3891592025756836,0.5,-9.632966041564941,-9.584880828857422,-9.6670560836792,0.0,0.0,0.0,-14,-8
1686004258.69941497,40733700,0.39836931228637695,0.0,0.3869728147983551,0.5,-9.632966041564941,-9.584394454956055,-9.494851112365723,0.0,0.0,0.0,-14,-10
1686004258.79937482,40833660,0.4029397964477539,0.0,0.4007567763328552,0.5,-9.632966041564941,-9.583608627319336,-9.816545486450195,0.0,0.0,0.0,-14,-12
1686004258.89933491,40933620,0.43925195932388306,0.0,0.41046711802482605,0.5,-9.632966041564941,-9.594358444213867,-9.739900588989258,0.0,0.0,0.0,-11,-13
1686004258.99929500,41033580,0.5106907486915588,0.0,0.4594416320323944,0.5,-9.632966041564941,-9.61285400390625,-9.655844688415527,0.0,0.0,0.0,-6,-12
1686004259.09925485,41133540,0.596665620803833,0.0,0.5302590131759644,0.5,-9.632966041564941,-9.628990173339844,-9.86856460571289,0.0,0.0,0.0,-1,-10
1686004259.19921494,41233500,0.6405143737792969,0.0,0.5964567065238953,0.5,-9.632966041564941,-9.649581909179688,-9.772071838378906,0.0,0.0,0.0,4,-8
1686004259.30000782,41334293,0.6364737749099731,0.0,0.6286607384681702,0.5,-9.632966041564941,-9.667550086975098,-9.951602935791016,0.0,0.0,0.0,10,-2
1686004259.39996791,41434253,0.6353356838226318,0.0,0.6302808523178101,0.5,-9.632966041564941,-9.685938835144043,-9.675874710083008,0.0,0.0,0.0,15,3
1686004259.49992800,41534213,0.598750114440918,0.0,0.6226201057434082,0.5,-9.632966041564941,-9.691269874572754,-9.647561073303223,0.0,0.0,0.0,17,9
1686004259.59988785,41634173,0.5345857739448547,0.0,0.5814686417579651,0.5,-9.632966041564941,-9.681100845336914,-9.867219924926758,0.0,0.0,0.0,14,13
1686004259.69984794,41734133,0.48883381485939026,0.0,0.525091290473938,0.5,-9.632966041564941,-9.67182445526123,-9.673850059509277,0.0,0.0,0.0,11,13
1686004259.79980803,41834093,0.43450844287872314,0.0,0.48127633333206177,0.5,-9.632966041564941,-9.659844398498535,-9.778106689453125,0.0,0.0,0.0,8,13
1686004259.89976788,41934053,0.39730218052864075,0.0,0.4262901842594147,0.5,-9.632966041564941,-9.649470329284668,-9.771454811096191,0.0,0.0,0.0,4,11
1686004259.99972796,42034013,0.4176241457462311,0.0,0.41264721751213074,0.5,-9.632966041564941,-9.64381217956543,-9.65369987487793,0.0,0.0,0.0,3,8
1686004260.09968781,42133973,0.42317283153533936,0.0,0.42087846994400024,0.5,-9.632966041564941,-9.637788772583008,-9.615446090698242,0.0,10.22,0.0,1,5
1686004260.19964790,42233933,0.4057912826538086,0.0,0.41672563552856445,0.5,-9.632966041564941,-9.628865242004395,-9.745100021362305,0.0,10.21,0.0,-1,4
1686004260.29960799,42333893,0.41393834352493286,0.0,0.4085994064807892,0.5,-9.632966041564941,-9.624542236328125,-9.855415344238281,0.0,10.200000000000001,0.0,-2,1
1686004260.39956784,42433853,0.4690827429294586,0.0,0.43131330609321594,0.5,-9.632966041564941,-9.631622314453125,-9.699058532714844,0.0,10.200000000000001,0.0,0,-1
1686004260.49952793,42533813,0.5250518321990967,0.0,0.4838234782218933,0.5,-9.632966041564941,-9.640515327453613,-9.522449493408203,0.0,10.21,0.0,2,-1
1686004260.59948802,42633773,0.5447797775268555,0.0,0.5284830331802368,0.5,-9.632966041564941,-9.638934135437012,-9.6444730758667,0.0,10.22,0.0,1,0
1686004260.69944787,42733733,0.489161878824234,0.0,0.5177661776542664,0.5,-9.632966041564941,-9.632591247558594,-9.704512596130371,0.0,10.24,0.0,0,0
1686004260.79940796,42833693,0.4225347936153412,0.0,0.46897751092910767,0.5,-9.632966041564941,-9.627350807189941,-9.632732391357422,0.0,10.24,0.0,-1,1
1686004260.89936805,42933653,0.4028550982475281,0.0,0.4265308380126953,0.5,-9.632966041564941,-9.620975494384766,-9.59809684753418,0.0,10.25,0.0,-3,1
1686004260.99932790,43033613,0.39742082357406616,0.0,0.40789180994033813,0.5,-9.632966041564941,-9.612991333007812,-9.866094589233398,0.0,10.25,0.0,-5,0
1686004261.09928799,43133573,0.5067199468612671,0.0,0.4345684349536896,0.5,-9.613497734069824,-9.617533683776855,-9.507955551147461,10.22,10.25,0.0,0,-3
1686004261.19924784,43233533,0.4881880581378937,0.0,0.47818267345428467,0.5,-9.615301132202148,-9.617647171020508,-9.482634544372559,10.22,10.26,0.0,0,-2
1686004261.29920793,43333493,0.4129306674003601,0.0,0.45418721437454224,0.5,-9.616901397705078,-9.607040405273438,-9.515408515930176,10.22,10.25,0.0,-4,-1
1686004261.40000105,43434286,0.3458843231201172,0.0,0.39036455750465393,0.5,-9.618443489074707,-9.59091854095459,-9.70396900177002,10.22,10.25,0.0,-9,-1
1686004261.49996090,43534246,0.3817598521709442,0.0,0.36816540360450745,0.5,-9.6199312210083,-9.584024429321289,-9.694029808044434,10.22,10.25,0.0,-12,-6
1686004261.59992099,43634206,0.4214489758014679,0.0,0.3916507363319397,0.5,-9.621426582336426,-9.588229179382324,-9.550416946411133,10.22,10.25,0.0,-11,-10
1686004261.69988084,43734166,0.4413261115550995,0.0,0.4229939877986908,0.5,-9.622962951660156,-9.594050407409668,-9.685123443603516,10.22,10.25,0.0,-10,-10
1686004261.79984093,43834126,0.4491193890571594,0.0,0.4360746443271637,0.5,-9.624549865722656,-9.601204872131348,-9.832381248474121,10.22,10.25,0.0,-8,-10
1686004261.89980102,43934086,0.49566763639450073,0.0,0.4576214551925659,0.5,-9.626206398010254,-9.616604804992676,-9.734138488769531,10.22,10.26,0.0,-4,-10
1686004261.99976087,44034046,0.583975076675415,0.0,0.5153718590736389,0.5,-9.628033638000488,-9.635384559631348,-9.93111515045166,10.22,10.27,0.0,0,-9
1686004262.09972095,44134006,0.6623436212539673,0.0,0.5960296392440796,0.5,-9.63010311126709,-9.66001033782959,-9.694644927978516,10.22,10.27,0.0,6,-7
1686004262.19968104,44233966,0.6386668682098389,0.0,0.6374297142028809,0.5,-9.632404327392578,-9.679078102111816,-9.615306854248047,10.22,10.27,0.0,11,-1
1686004262.29964089,44333926,0.5682545900344849,0.0,0.6067457795143127,0.5,-9.634937286376953,-9.680953979492188,-9.808077812194824,10.22,10.290000000000001,0.0,11,5
1686004262.39960098,44433886,0.5075329542160034,0.0,0.5472326874732971,0.5,-9.637825965881348,-9.676304817199707,-9.639328002929688,10.22,10.290000000000001,0.0,8,7
1686004262.49956083,44533846,0.43300339579582214,0.0,0.4903584420681,0.5,-9.641058921813965,-9.666830062866211,-9.616067886352539,10.22,10.290000000000001,0.0,4,8
1686004262.59952092,44633806,0.3414161801338196,0.0,0.40179136395454407,0.5,-9.644601821899414,-9.650968551635742,-9.790362358093262,10.22,10.290000000000001,0.0,-1,8
1686004262.69948101,44733766,0.3734172284603119,0.0,0.36337757110595703,0.5,-9.648416519165039,-9.640941619873047,-9.615962028503418,10.22,10.290000000000001,0.0,-6,2
1686004262.79944086,44833726,0.3961898386478424,0.0,0.38377007842063904,0.5,-9.652430534362793,-9.636476516723633,-9.78631591796875,10.22,10.27,0.0,-8,-2
1686004262.89940095,44933686,0.4203002452850342,0.0,0.40186169743537903,0.5,-9.656423568725586,-9.639616012573242,-9.654547691345215,10.22,10.25,0.0,-8,-5
1686004262.99936104,45033646,0.44694069027900696,0.0,0.43233707547187805,0.5,-9.660196304321289,-9.646024703979492,-9.803836822509766,10.22,10.24,0.0,-7,-7
1686004263.09932089,45133606,0.4761579930782318,0.0,0.4569210708141327,0.5,-9.663649559020996,-9.656248092651367,-9.613396644592285,10.22,10.22,0.0,-5,-7
1686004263.19928098,45233566,0.5060044527053833,0.0,0.4912046194076538,0.5,-9.666655540466309,-9.663434982299805,-9.908310890197754,10.22,10.21,0.0,-3,-6
1686004263.29924083,45333526,0.5439148545265198,0.0,0.5172992944717407,0.5,-9.669151306152344,-9.674660682678223,-9.647892951965332,10.22,10.200000000000001,0.0,0,-5
1686004263.39920092,45433486,0.5852268934249878,0.0,0.5668606162071228,0.5,-9.671106338500977,-9.68386459350586,-9.829055786132812,10.22,10.21,0.0,2,-4
1686004263.49999404,45534279,0.570851743221283,0.0,0.5729997754096985,0.5,-9.672677993774414,-9.691033363342285,-9.855694770812988,10.22,10.24,0.0,4,-1
1686004263.59995389,45634239,0.579961895942688,0.0,0.5740693211555481,0.5,-9.674137115478516,-9.699986457824707,-10.016088485717773,10.22,10.24,0.0,6,0
1686004263.69991398,45734199,0.6146841049194336,0.0,0.5869580507278442,0.5,-9.67557144165039,-9.71568489074707,-9.894975662231445,10.22,10.25,0.0,10,1
1686004263.79987383,45834159,0.6363481283187866,0.0,0.6175545454025269,0.5,-9.677074432373047,-9.732563018798828,-9.620992660522461,10.22,10.25,0.0,15,4
1686004263.89983392,45934119,0.5829070806503296,0.0,0.6148971915245056,0.5,-9.678633689880371,-9.73359489440918,-9.841005325317383,10.22,10.24,0.0,14,10
1686004263.99979401,46034079,0.5277494788169861,0.0,0.5667516589164734,0.5,-9.680170059204102,-9.725333213806152,-9.59618854522705,10.22,10.24,0.0,12,12
1686004264.09975386,46134039,0.45593351125717163,0.0,0.5173577666282654,0.5,-9.68163013458252,-9.708125114440918,-9.722755432128906,10.22,10.21,0.0,6,12
1686004264.19971395,46233999,0.3285127580165863,0.0,0.41991618275642395,0.5,-9.682775497436523,-9.686704635620117,-9.611427307128906,10.22,10.200000000000001,0.0,0,12
1686004264.29967403,46333959,0.3329819440841675,0.0,0.36012178659439087,0.5,-9.68353271484375,-9.664578437805176,-9.907798767089844,10.22,10.200000000000001,0.0,-6,7
1686004264.39963388,46433919,0.3899767994880676,0.0,0.362305223941803,0.5,-9.683923721313477,-9.657034873962402,-9.788363456726074,10.22,10.200000000000001,0.0,-8,0
1686004264.49959397,46533879,0.4589071571826935,0.0,0.4164735972881317,0.5,-9.683964729309082,-9.663678169250488,-9.752341270446777,10.22,10.18,0.0,-5,-4
1686004264.59955382,46633839,0.5240454077720642,0.0,0.48019668459892273,0.5,-9.683544158935547,-9.674304962158203,-9.934470176696777,10.22,10.16,0.0,-2,-5
1686004264.69951391,46733799,0.6402418613433838,0.0,0.5639359951019287,0.5,-9.682535171508789,-9.691594123840332,-9.608906745910645,10.22,10.14,0.0,4,-5
1686004264.79947400,46833759,0.6129963994026184,0.0,0.6263905763626099,0.5,-9.68085765838623,-9.701753616333008,-9.745012283325195,10.22,10.16,0.0,8,-1
1686004264.89943385,46933719,0.5630311369895935,0.0,0.5986984968185425,0.5,-9.678642272949219,-9.700387954711914,-9.774547576904297,10.22,10.16,0.0,8,4
1686004264.99939394,47033679,0.5342322587966919,0.0,0.5638533234596252,0.5,-9.67599105834961,-9.694769859313965,-9.834466934204102,10.22,10.17,0.0,8,7
1686004265.09935403,47133639,0.5267021059989929,0.0,0.54000324010849,0.5,-9.673036575317383,-9.690546989440918,-9.749680519104004,10.22,10.200000000000001,0.0,8,7
1686004265.19931388,47233599,0.5345115661621094,0.0,0.5302429795265198,0.5,-9.670025825500488,-9.68635082244873,-9.85216236114502,10.22,10.22,0.0,7,7
1686004265.29927397,47333559,0.5423998236656189,0.0,0.5292386412620544,0.5,-9.667232513427734,-9.6851224899292,-9.704621315002441,10.22,10.22,0.0,8,6
1686004265.39923382,47433519,0.5471251606941223,0.0,0.5394416451454163,0.5,-9.664739608764648,-9.682703018188477,-9.88477897644043,10.22,10.21,0.0,7,6
1686004265.49919391,47533479,0.5543549060821533,0.0,0.5420126914978027,0.5,-9.662464141845703,-9.683136940002441,-9.789852142333984,10.22,10.21,0.0,8,6
1686004265.59998703,47634272,0.5813122987747192,0.0,0.561335563659668,0.5,-9.660323143005371,-9.68565845489502,-9.846760749816895,10.22,10.200000000000001,0.0,9,6
1686004265.69994688,47734232,0.5953283309936523,0.0,0.5807054042816162,0.5,-9.658271789550781,-9.689214706420898,-9.556183815002441,10.22,10.18,0.0,11,6
1686004265.79990697,47834192,0.5612991452217102,0.0,0.5876652002334595,0.5,-9.656105995178223,-9.68234634399414,-9.647320747375488,10.22,10.18,0.0,10,9
1686004265.89986682,47934152,0.48969629406929016,0.0,0.5425208210945129,0.5,-9.653741836547852,-9.665409088134766,-9.694639205932617,10.22,10.200000000000001,0.0,5,10
1686004265.99982691,48034112,0.39257746934890747,0.0,0.46667417883872986,0.5,-9.651327133178711,-9.647491455078125,-9.791051864624023,10.22,10.200000000000001,0.0,1,9
1686004266.09978700,48134072,0.3887689411640167,0.0,0.4021320044994354,0.5,-9.64896297454834,-9.636055946350098,-9.568242073059082,10.22,10.200000000000001,0.0,-1,7
1686004266.19974685,48234032,0.4055030941963196,0.0,0.40428364276885986,0.5,-9.646645545959473,-9.625992774963379,-9.73682975769043,10.22,10.200000000000001,0.0,-3,3
1686004266.29970694,48333992,0.41801267862319946,0.0,0.4064518213272095,0.5,-9.644366264343262,-9.620292663574219,-9.538055419921875,10.22,10.200000000000001,0.0,-4,0
1686004266.39966702,48433952,0.42450931668281555,0.0,0.4213450849056244,0.5,-9.64212417602539,-9.614439010620117,-9.48617935180664,10.22,10.200000000000001,0.0,-6,-1
1686004266.49962687,48533912,0.39249563217163086,0.0,0.41256585717201233,0.5,-9.639911651611328,-9.602560043334961,-9.57777214050293,10.22,10.200000000000001,0.0,-9,-2
1686004266.59958696,48633872,0.3797953128814697,0.0,0.3898507058620453,0.5,-9.637726783752441,-9.590398788452148,-9.51180362701416,10.22,10.200000000000001,0.0,-12,-4
1686004266.69954681,48733832,0.38463085889816284,0.0,0.38597816228866577,0.5,-9.635565757751465,-9.580048561096191,-9.750388145446777,10.22,10.200000000000001,0.0,-14,-7
1686004266.79950690,48833792,0.4222891926765442,0.0,0.3953232765197754,0.5,-9.63342571258545,-9.58061408996582,-9.438607215881348,10.22,10.22,0.0,-13,-10
1686004266.89946699,48933752,0.4413253664970398,0.0,0.42565566301345825,0.5,-9.631425857543945,-9.58187198638916,-9.700302124023438,10.22,10.24,0.0,-12,-11
1686004266.99942684,49033712,0.4458898901939392,0.0,0.42896145582199097,0.5,-9.629743576049805,-9.58580493927002,-9.520258903503418,10.22,10.25,0.0,-11,-11
1686004267.09938693,49133672,0.4562293291091919,0.0,0.44349387288093567,0.5,-9.628488540649414,-9.589438438415527,-9.773906707763672,10.22,10.25,0.0,-10,-11
1686004267.19934702,49233632,0.4727669656276703,0.0,0.4492115378379822,0.5,-9.627671241760254,-9.597953796386719,-9.552268028259277,10.22,10.26,0.0,-8,-10
1686004267.29930687,49333592,0.49546200037002563,0.0,0.47554323077201843,0.5,-9.627296447753906,-9.60567855834961,-9.723661422729492,10.22,10.27,0.0,-6,-9
1686004267.39926696,49433552,0.5046072006225586,0.0,0.48589080572128296,0.5,-9.62740707397461,-9.613372802734375,-9.723628044128418,10.22,10.290000000000001,0.0,-4,-8
1686004267.49922705,49533512,0.5363880395889282,0.0,0.5039405226707458,0.5,-9.628079414367676,-9.62371826171875,-9.75976848602295,10.22,10.290000000000001,0.0,-2,-7
1686004267.60001993,49634305,0.5880964994430542,0.0,0.5428234934806824,0.5,-9.62936782836914,-9.636528968811035,-9.6509370803833,10.22,10.290000000000001,0.0,0,-6
1686004267.69998002,49734265,0.5897927284240723,0.0,0.5744892358779907,0.5,-9.631207466125488,-9.645904541015625,-9.657231330871582,10.22,10.3,0.0,2,-4
1686004267.79993987,49834225,0.5482023358345032,0.0,0.5632835030555725,0.5,-9.633590698242188,-9.648693084716797,-9.736212730407715,10.22,10.3,0.0,1,-1
1686004267.89989996,49934185,0.5084885358810425,0.0,0.5295785069465637,0.5,-9.636505126953125,-9.64937686920166,-9.773151397705078,10.22,10.290000000000001,0.0,0,0
1686004267.99986005,50034145,0.48628365993499756,0.0,0.5022478699684143,0.5,-9.639847755432129,-9.652095794677734,-9.706360816955566,10.22,10.290000000000001,0.0,0,0
1686004268.09981990,50134105,0.46296197175979614,0.0,0.479327529668808,0.5,-9.643514633178711,-9.654399871826172,-9.515064239501953,10.22,10.290000000000001,0.0,0,0
1686004268.19977999,50234065,0.4029761552810669,0.0,0.4441991448402405,0.5,-9.64745807647705,-9.64742374420166,-9.795686721801758,10.22,10.27,0.0,-4,1
1686004268.29973984,50334025,0.38192296028137207,0.0,0.3974255621433258,0.5,-9.651511192321777,-9.64199447631836,-9.56502914428711,10.22,10.26,0.0,-6,0
1686004268.39969993,50433985,0.39195242524147034,0.0,0.3975871205329895,0.5,-9.655489921569824,-9.63739013671875,-9.571212768554688,10.22,10.26,0.0,-9,-3
1686004268.49966002,50533945,0.37626928091049194,0.0,0.3896394968032837,0.5,-9.659353256225586,-9.630311965942383,-9.558094024658203,10.22,10.25,0.0,-12,-5
1686004268.59961987,50633905,0.36361798644065857,0.0,0.37843695282936096,0.5,-9.663047790527344,-9.62259292602539,-9.860877990722656,10.22,10.25,0.0,-15,-8
1686004268.69957995,50733865,0.4051603674888611,0.0,0.381272554397583,0.5,-9.666543006896973,-9.627680778503418,-9.806753158569336,10.22,10.24,0.0,-15,-11
1686004268.79954004,50833825,0.47320079803466797,0.0,0.42868298292160034,0.5,-9.669805526733398,-9.645926475524902,-9.779191970825195,10.22,10.24,0.0,-10,-13
1686004268.89949989,50933785,0.5586647391319275,0.0,0.4968985617160797,0.5,-9.672812461853027,-9.668027877807617,-9.774042129516602,10.22,10.24,0.0,-4,-12
1686004268.99945998,51033745,0.6404772996902466,0.0,0.5866014957427979,0.5,-9.675592422485352,-9.688973426818848,-9.905230522155762,10.22,10.24,0.0,1,-10
1686004269.09941983,51133705,0.6348164081573486,0.0,0.6231658458709717,0.5,-9.678174018859863,-9.709939956665039,-9.749696731567383,10.22,10.24,0.0,7,-5
1686004269.19937992,51233665,0.6044780611991882,0.0,0.6243221759796143,0.5,-9.680582046508789,-9.722883224487305,-9.69327449798584,10.22,10.25,0.0,10,0
1686004269.29934001,51333625,0.5475316047668457,0.0,0.5887291431427002,0.5,-9.682906150817871,-9.7221040725708,-9.619312286376953,10.22,10.25,0.0,9,6
1686004269.39929986,51433585,0.4554104506969452,0.0,0.5261332392692566,0.5,-9.685201644897461,-9.708245277404785,-9.943016052246094,10.22,10.26,0.0,4,8
1686004269.49925995,51533545,0.3580407500267029,0.0,0.42278119921684265,0.5,-9.687536239624023,-9.698358535766602,-9.880477905273438,10.22,10.25,0.0,0,8
1686004269.59922004,51633505,0.42165809869766235,0.0,0.4025780260562897,0.5,-9.689895629882812,-9.69861125946045,-9.955233573913574,10.22,10.25,0.0,0,4
1686004269.70001292,51734298,0.4913981854915619,0.0,0.4423145353794098,0.5,-9.692249298095703,-9.71153450012207,-9.652458190917969,10.22,10.24,0.0,3,1
1686004269.79997301,51834258,0.5424481630325317,0.0,0.5044490694999695,0.5,-9.694498062133789,-9.717046737670898,-9.633081436157227,10.22,10.200000000000001,0.0,4,1
1686004269.89993286,51934218,0.5171293616294861,0.0,0.5366650223731995,0.5,-9.696430206298828,-9.71165657043457,-9.820963859558105,10.22,10.200000000000001,0.0,2,2
1686004269.99989295,52034178,0.4661489725112915,0.0,0.5062671899795532,0.5,-9.697857856750488,-9.70649528503418,-9.6559476852417,10.22,10.17,0.0,1,3
1686004270.09985304,52134138,0.4022444486618042,0.0,0.4614498019218445,0.5,-9.698637962341309,-9.696945190429688,-9.90368366241455,10.22,10.16,0.0,0,4
1686004270.19981289,52234098,0.4084068238735199,0.0,0.42147570848464966,0.5,-9.698728561401367,-9.694211959838867,-9.753986358642578,10.22,10.16,0.0,-1,3
1686004270.29977298,52334058,0.4495151937007904,0.0,0.43786099553108215,0.5,-9.698129653930664,-9.694598197937012,-9.659984588623047,10.22,10.16,0.0,0,1
1686004270.39973283,52434018,0.45678743720054626,0.0,0.4593450129032135,0.5,-9.696883201599121,-9.690852165222168,-9.879209518432617,10.22,10.14,0.0,0,1
1686004270.49969292,52533978,0.4717261791229248,0.0,0.4659569263458252,0.5,-9.694928169250488,-9.692444801330566,-9.686297416687012,10.22,10.13,0.0,1,0
1686004270.59965301,52633938,0.5039423108100891,0.0,0.49192947149276733,0.5,-9.692222595214844,-9.691730499267578,-9.695937156677246,10.22,10.1,0.0,2,1
1686004270.69961286,52733898,0.5151336789131165,0.0,0.515104353427887,0.5,-9.688642501831055,-9.686822891235352,-9.7780122756958,10.22,10.08,0.0,3,2
1686004270.79957294,52833858,0.527775764465332,0.0,0.5273302793502808,0.5,-9.684074401855469,-9.682798385620117,-9.873787879943848,10.22,10.040000000000001,0.0,4,2
1686004270.89953303,52933818,0.5676590800285339,0.0,0.550574004650116,0.5,-9.67834186553955,-9.684775352478027,-9.573726654052734,10.22,10.02,0.0,8,3
1686004270.99949288,53033778,0.5679082274436951,0.0,0.5817081928253174,0.5,-9.671327590942383,-9.677574157714844,-9.913143157958984,10.22,10.0,0.0,9,6
1686004271.09945297,53133738,0.5655143857002258,0.0,0.5735488533973694,0.5,-9.662960052490234,-9.673869132995605,-9.550934791564941,10.22,9.99,0.0,12,8
1686004271.19941282,53233698,0.557223916053772,0.0,0.5820931792259216,0.5,-9.653219223022461,-9.660551071166992,-9.642435073852539,10.22,9.950000000000001,0.0,12,11
1686004271.29937291,53333658,0.5092791318893433,0.0,0.5545926690101624,0.5,-9.64199447631836,-9.63965129852295,-9.502368927001953,10.22,9.950000000000001,0.0,11,13
1686004271.39933300,53433618,0.4467260241508484,0.0,0.5107285380363464,0.5,-9.629300117492676,-9.609940528869629,-9.635592460632324,10.22,9.91,0.0,7,14
1686004271.49929285,53533578,0.3596422076225281,0.0,0.43254178762435913,0.5,-9.615047454833984,-9.580462455749512,-9.490654945373535,10.22,9.89,0.0,4,15
1686004271.59925294,53633538,0.3636658191680908,0.0,0.39375367760658264,0.5,-9.599170684814453,-9.549551010131836,-9.683018684387207,10.22,9.870000000000001,0.0,1,13
1686004271.69921303,53733498,0.4062923192977905,0.0,0.39632686972618103,0.5,-9.581640243530273,-9.528571128845215,-9.745895385742188,10.22,9.84,0.0,2,9
1686004271.80000591,53834291,0.4931276738643646,0.0,0.44671112298965454,0.5,-9.562238693237305,-9.52186393737793,-9.815622329711914,10.22,9.83,0.0,7,6
1686004271.89996600,53934251,0.6755539774894714,0.0,0.555345356464386,0.5,-9.54129409790039,-9.528264045715332,-9.603262901306152,10.22,9.8,0.0,17,6
1686004271.99992585,54034211,0.6687905192375183,0.0,0.6682800650596619,0.5,-9.518636703491211,-9.531675338745117,-9.694772720336914,10.22,9.790000000000001,0.0,27,12
1686004272.09988594,54134171,0.6606321334838867,0.0,0.6725295782089233,0.5,-9.494283676147461,-9.5263090133667,-9.680618286132812,10.22,9.77,0.0,34,21
1686004272.19984603,54234131,0.6663082838058472,0.0,0.676413893699646,0.5,-9.468254089355469,-9.512736320495605,-9.730216026306152,10.22,9.75,0.0,40,29
1686004272.29980588,54334091,0.6824853420257568,0.0,0.6845588088035583,0.5,-9.440563201904297,-9.495306968688965,-9.597904205322266,10.22,9.75,0.0,44,34
1686004272.39976597,54434051,0.683883547782898,0.0,0.6940672397613525,0.5,-9.411323547363281,-9.47016429901123,-9.714520454406738,10.22,9.76,0.0,47,39
1686004272.49972582,54534011,0.7007186412811279,0.0,0.7004748582839966,0.5,-9.380745887756348,-9.444043159484863,-9.425609588623047,10.22,9.77,0.0,50,42
1686004272.59968591,54633971,0.6849863529205322,0.0,0.7058239579200745,0.5,-9.34903621673584,-9.407177925109863,-9.292848587036133,10.22,9.75,0.0,49,45
1686004272.69964600,54733931,0.6437504291534424,0.0,0.6853532791137695,0.5,-9.316258430480957,-9.35512924194336,-9.392009735107422,10.22,9.75,0.0,44,46
1686004272.79960585,54833891,0.6149649024009705,0.0,0.6509299278259277,0.5,-9.282513618469238,-9.300498008728027,-9.490639686584473,10.22,9.75,0.0,39,44
1686004272.89956594,54933851,0.6278204917907715,0.0,0.635919451713562,0.5,-9.247893333435059,-9.256030082702637,-9.212979316711426,10.22,9.700000000000001,0.0,37,40
1686004272.99952602,55033811,0.6230838298797607,0.0,0.641007125377655,0.5,-9.21222972869873,-9.211050987243652,-9.111106872558594,10.22,9.67,0.0,35,38
1686004273.09948587,55133771,0.5907261371612549,0.0,0.6266352534294128,0.5,-9.175375938415527,-9.159440994262695,-9.31814193725586,10.22,9.67,0.0,32,38
1686004273.19944596,55233731,0.5971708297729492,0.0,0.6087666749954224,0.5,-9.137348175048828,-9.114851951599121,-9.266983032226562,10.22,9.66,0.0,31,35
1686004273.29940581,55333691,0.6351645588874817,0.0,0.6245930194854736,0.5,-9.098167419433594,-9.079254150390625,-9.138639450073242,10.22,9.64,0.0,34,34
1686004273.39936590,55433651,0.6482978463172913,0.0,0.6478469371795654,0.5,-9.057831764221191,-9.044463157653809,-9.194900512695312,10.22,9.66,0.0,36,34
1686004273.49932599,55533611,0.6647226214408875,0.0,0.6607920527458191,0.5,-9.016512870788574,-9.0111665725708,-8.98703670501709,10.22,9.67,0.0,40,36
1686004273.59928584,55633571,0.657608687877655,0.0,0.6660887002944946,0.5,-8.97445297241211,-8.970958709716797,-9.204586029052734,10.22,9.700000000000001,0.0,41,39
1686004273.69924593,55733531,0.680767297744751,0.0,0.6620091795921326,0.5,-8.932076454162598,-8.934855461120605,-9.151988983154297,10.22,9.75,0.0,43,40
1686004273.79920602,55833491,0.7079297304153442,0.0,0.6811480522155762,0.5,-8.889887809753418,-8.904680252075195,-8.813446044921875,10.22,9.75,0.0,46,40
1686004273.89999890,55934284,0.6839166283607483,0.0,0.6876627802848816,0.5,-8.847640991210938,-8.862627029418945,-8.83116626739502,10.22,9.77,0.0,46,43
1686004273.99995899,56034244,0.6509991884231567,0.0,0.6653727889060974,0.5,-8.80617904663086,-8.811025619506836,-8.907821655273438,10.22,9.790000000000001,0.0,42,44
1686004274.09991884,56134204,0.6356046199798584,0.0,0.6393256783485413,0.5,-8.765297889709473,-8.76138973236084,-9.009209632873535,10.22,9.81,0.0,39,42
