timestamp,TimeUS,ThI,ABst,ThO,ThH,DAlt,Alt,BAlt,DSAlt,SAlt,TAlt,DCRt,CRt
1686415191.27996802,22333563,0.0,0.0,0.5,0.5,0.0,-0.05181474611163139,-0.038433514535427094,0.0,0.0,0.0,0,-3
1686415191.37992787,22433523,0.0,0.0,0.5,0.5,0.0,-0.05140205845236778,-0.033190369606018066,0.0,0.0,0.0,0,-2
1686415191.47988796,22533483,0.0,0.0,0.5,0.5,0.0,-0.05098268762230873,-0.05328444018959999,0.0,0.0,0.0,0,-2
1686415191.58068085,22634276,0.0,0.0,0.5,0.5,0.0,-0.051185183227062225,-0.04263313114643097,0.0,0.0,0.0,0,-2
1686415191.68064094,22734236,0.0,0.0,0.5,0.5,0.0,-0.05171907693147659,-0.02954719401896,0.0,0.0,0.0,0,-2
1686415191.78060102,22834196,0.0,0.0,0.5,0.5,0.0,-0.05165516212582588,-0.02175462432205677,0.0,0.0,0.0,0,-1
1686415191.88056087,22934156,0.0,0.0,0.5,0.5,0.0,-0.050491273403167725,-0.05779416486620903,0.0,0.0,0.0,0,-1
1686415191.98052096,23034116,0.0,0.0,0.5,0.5,0.0,-0.04974844306707382,-0.04733896628022194,0.0,0.0,0.0,0,-1
1686415192.08048105,23134076,0.0,0.0,0.5,0.5,0.0,-0.04962751641869545,-0.02976243570446968,0.0,0.0,0.0,0,-1
1686415192.18044090,23234036,0.0,0.0,0.5,0.5,0.0,-0.048973120748996735,-0.03563297167420387,0.0,0.0,0.0,0,0
1686415192.28040099,23333996,0.0,0.0,0.5,0.5,0.0,-0.04774447903037071,-0.030546875670552254,0.0,0.0,0.0,0,0
1686415192.38036084,23433956,0.0,0.0,0.5,0.5,0.0,-0.04601527005434036,-0.06482940167188644,0.0,0.0,0.0,0,0
1686415192.48032093,23533916,0.0,0.0,0.5,0.5,0.0,-0.04517427831888199,-0.06640864163637161,0.0,0.0,0.0,0,0
1686415192.58028102,23633876,0.0,0.0,0.5,0.5,0.0,-0.04574283957481384,-0.06052056699991226,0.0,0.0,0.0,0,0
1686415192.68024087,23733836,0.0,0.0,0.5,0.5,0.0,-0.04705720394849777,-0.04665098711848259,0.0,0.0,0.0,0,0
1686415192.78020096,23833796,0.0,0.0,0.5,0.5,0.0,-0.04813457280397415,-0.05451052263379097,0.0,0.0,0.0,0,0
1686415192.88016105,23933756,0.0,0.0,0.4762499928474426,0.5,0.0,-0.048960451036691666,-0.05350765213370323,0.0,0.0,0.0,0,0
1686415192.98012090,24033716,0.0,0.0,0.25,0.5,0.0,-0.05205375701189041,-0.05285554751753807,0.0,0.0,0.0,0,-9
1686415193.08008099,24133676,0.0,0.0,0.25,0.5,0.0,-0.07326202839612961,-0.05888233333826065,0.0,0.0,0.0,0,-30
1686415193.18004084,24233636,0.0,0.0,0.25,0.5,0.0,-0.1122717335820198,-0.10566645115613937,0.0,0.0,0.0,0,-45
1686415193.28000093,24333596,0.0,0.0,0.25,0.5,0.0,-0.1627681851387024,-0.18316565454006195,0.0,0.0,0.0,0,-53
1686415193.37996101,24433556,0.0,0.0,0.25,0.5,0.0,-0.2209068089723587,-0.20318718254566193,0.0,0.0,0.0,0,-57
1686415193.47992086,24533516,0.0,0.0,0.25,0.5,0.0,-0.28254538774490356,-0.2771579921245575,0.0,0.0,0.0,0,-59
1686415193.57988095,24633476,0.0,0.0,0.25,0.5,0.0,-0.34586143493652344,-0.3246707618236542,0.0,0.0,0.0,0,-60
1686415193.68067384,24734269,0.0,0.0,0.25,0.5,0.0,-0.4106876254081726,-0.40777263045310974,0.0,0.0,0.0,0,-61
1686415193.78063393,24834229,0.0,0.0,0.25,0.5,0.0,-0.4756113588809967,-0.45662787556648254,0.0,0.0,0.0,0,-61
1686415193.88059402,24934189,0.0,0.0,0.25,0.5,0.0,-0.5408492684364319,-0.5113599896430969,0.0,0.0,0.0,0,-61
1686415193.98055387,25034149,0.0,0.0,0.25,0.5,0.0,-0.6056693196296692,-0.6026690006256104,0.0,0.0,0.0,0,-62
1686415194.08051395,25134109,0.0,0.0,0.25,0.5,0.0,-0.6713454127311707,-0.6578077077865601,0.0,0.0,0.0,0,-62
1686415194.18047404,25234069,0.0,0.0,0.25,0.5,0.0,-0.737605631351471,-0.6979814767837524,0.0,0.0,0.0,0,-62
1686415194.28043389,25334029,0.0,0.0,0.25,0.5,0.0,-0.8030304312705994,-0.7786463499069214,0.0,0.0,0.0,0,-62
1686415194.38039398,25433989,0.0,0.0,0.25,0.5,0.0,-0.8682896494865417,-0.8328707218170166,0.0,0.0,0.0,0,-63
1686415194.48035383,25533949,0.0,0.0,0.25,0.5,0.0,-0.9332167506217957,-0.9016286730766296,0.0,0.0,0.0,0,-63
1686415194.58031392,25633909,0.0,0.0,0.25,0.5,0.0,-0.9980270862579346,-0.9671556353569031,0.0,0.0,0.0,0,-63
1686415194.68027401,25733869,0.0,0.0,0.25,0.5,0.0,-1.0629138946533203,-0.9977853894233704,0.0,0.0,0.0,0,-63
1686415194.78023386,25833829,0.0,0.0,0.25,0.5,0.0,-1.1263433694839478,-1.06211256980896,0.0,0.0,0.0,0,-63
1686415194.88019395,25933789,0.0,0.0,0.25,0.5,0.0,-1.1883348226547241,-1.1554926633834839,0.0,0.0,0.0,0,-63
1686415194.98015404,26033749,0.0,0.0,0.25,0.5,0.0,-1.2507679462432861,-1.2153667211532593,0.0,0.0,0.0,0,-63
1686415195.08011389,26133709,0.0,0.0,0.25,0.5,0.0,-1.3138116598129272,-1.270672082901001,0.0,0.0,0.0,0,-63
1686415195.18007398,26233669,0.0,0.0,0.25,0.5,0.0,-1.3768988847732544,-1.3244738578796387,0.0,0.0,0.0,0,-63
1686415195.28003383,26333629,0.0,0.0,0.25,0.5,0.0,-1.4394874572753906,-1.3760993480682373,0.0,0.0,0.0,0,-63
1686415195.37999392,26433589,0.0,0.0,0.25,0.5,0.0,-1.5010818243026733,-1.4598357677459717,0.0,0.0,0.0,0,-63
1686415195.47995400,26533549,0.0,0.0,0.25,0.5,0.0,-1.562819004058838,-1.5007294416427612,0.0,0.0,0.0,0,-63
1686415195.57991385,26633509,0.0,0.0,0.25,0.5,0.0,-1.6239804029464722,-1.5921516418457031,0.0,0.0,0.0,0,-63
1686415195.68070698,26734302,0.0,0.0,0.25,0.5,0.0,-1.6863259077072144,-1.6389819383621216,0.0,0.0,0.0,0,-62
1686415195.78066683,26834262,0.0,0.0,0.25,0.5,0.0,-1.7483251094818115,-1.7030069828033447,0.0,0.0,0.0,0,-62
1686415195.88062692,26934222,0.0,0.0,0.25,0.5,0.0,-1.8103629350662231,-1.748988389968872,0.0,0.0,0.0,0,-62
1686415195.98058701,27034182,0.0,0.0,0.25,0.5,0.0,-1.8717103004455566,-1.8120965957641602,0.0,0.0,0.0,0,-62
1686415196.08054686,27134142,0.0,0.0,0.25,0.5,0.0,-1.932396650314331,-1.8718677759170532,0.0,0.0,0.0,0,-62
1686415196.18050694,27234102,0.0,0.0,0.25,0.5,0.0,-1.9925549030303955,-1.9537253379821777,0.0,0.0,0.0,0,-62
1686415196.28046703,27334062,0.0,0.0,0.25,0.5,0.0,-2.0532753467559814,-2.0250535011291504,0.0,0.0,0.0,0,-62
1686415196.38042688,27434022,0.0,0.0,0.25,0.5,0.0,-2.115150213241577,-2.0635530948638916,0.0,0.0,0.0,0,-62
1686415196.48038697,27533982,0.0,0.0,0.25,0.5,0.0,-2.1768898963928223,-2.1161160469055176,0.0,0.0,0.0,0,-62
1686415196.58034682,27633942,0.0,0.0,0.25,0.5,0.0,-2.2377614974975586,-2.200568437576294,0.0,0.0,0.0,0,-62
1686415196.68030691,27733902,0.0,0.0,0.25,0.5,0.0,-2.2989437580108643,-2.2548508644104004,0.0,0.0,0.0,0,-62
1686415196.78026700,27833862,0.0,0.0,0.25,0.5,0.0,-2.3603217601776123,-2.308911085128784,0.0,0.0,0.0,0,-62
1686415196.88022685,27933822,0.0,0.0,0.25,0.5,0.0,-2.4213833808898926,-2.362987995147705,0.0,0.0,0.0,0,-62
1686415196.98018694,28033782,0.0,0.0,0.25,0.5,0.0,-2.481771945953369,-2.4265496730804443,0.0,0.0,0.0,0,-61
1686415197.08014703,28133742,0.0,0.0,0.25,0.5,0.0,-2.541691303253174,-2.482637882232666,0.0,0.0,0.0,0,-61
1686415197.18010688,28233702,0.0,0.0,0.25,0.5,0.0,-2.601101875305176,-2.5450844764709473,0.0,0.0,0.0,0,-61
1686415197.28006697,28333662,0.0,0.0,0.25,0.5,0.0,-2.6601829528808594,-2.603954792022705,0.0,0.0,0.0,0,-61
1686415197.38002682,28433622,0.0,0.0,0.25,0.5,0.0,-2.7190005779266357,-2.669102430343628,0.0,0.0,0.0,0,-61
1686415197.47998691,28533582,0.0,0.0,0.25,0.5,0.0,-2.7778608798980713,-2.7358171939849854,0.0,0.0,0.0,0,-61
1686415197.57994699,28633542,0.0,0.0,0.25,0.5,0.0,-2.8371386528015137,-2.797356605529785,0.0,0.0,0.0,0,-60
1686415197.67990685,28733502,0.0,0.0,0.25,0.5,0.0,-2.8968751430511475,-2.8863296508789062,0.0,0.0,0.0,0,-60
1686415197.78069997,28834295,0.0,0.0,0.25,0.5,0.0,-2.95878529548645,-2.920572280883789,0.0,0.0,0.0,0,-60
1686415197.88065982,28934255,0.0,0.0,0.25,0.5,0.0,-3.020507335662842,-2.993809700012207,0.0,0.0,0.0,0,-61
1686415197.98061991,29034215,0.0,0.0,0.25,0.5,0.0,-3.0822741985321045,-3.074866771697998,0.0,0.0,0.0,0,-61
1686415198.08058000,29134175,0.0,0.0,0.25,0.5,0.0,-3.1449313163757324,-3.1094698905944824,0.0,0.0,0.0,0,-61
1686415198.18053985,29234135,0.0,0.0,0.25,0.5,0.0,-3.207542896270752,-3.203996419906616,0.0,0.0,0.0,0,-61
1686415198.28049994,29334095,0.0,0.0,0.25,0.5,0.0,-3.270801305770874,-3.235797882080078,0.0,0.0,0.0,0,-61
1686415198.38046002,29434055,0.0,0.0,0.25,0.5,0.0,-3.3339998722076416,-3.3184494972229004,0.0,0.0,0.0,0,-61
1686415198.48041987,29534015,0.0,0.0,0.25,0.5,0.0,-3.397284984588623,-3.353463888168335,0.0,0.0,0.0,0,-61
1686415198.58037996,29633975,0.0,0.0,0.25,0.5,0.0,-3.459984302520752,-3.4485673904418945,0.0,0.0,0.0,0,-61
1686415198.68034005,29733935,0.0,0.0,0.25,0.5,0.0,-3.522970199584961,-3.496558427810669,0.0,0.0,0.0,0,-61
1686415198.78029990,29833895,0.0,0.0,0.25,0.5,0.0,-3.5862972736358643,-3.568927764892578,0.0,0.0,0.0,0,-61
1686415198.88025999,29933855,0.0,0.0,0.25,0.5,0.0,-3.6499388217926025,-3.6081321239471436,0.0,0.0,0.0,0,-62
1686415198.98021984,30033815,0.0,0.0,0.25,0.5,0.0,-3.713082790374756,-3.683253288269043,0.0,0.0,0.0,0,-62
1686415199.08017993,30133775,0.0,0.0,0.25,0.5,0.0,-3.7758588790893555,-3.7380220890045166,0.0,0.0,0.0,0,-62
1686415199.18014002,30233735,0.0,0.0,0.25,0.5,0.0,-3.8383476734161377,-3.79827880859375,0.0,0.0,0.0,0,-62
1686415199.28009987,30333695,0.0,0.0,0.25,0.5,0.0,-3.9003963470458984,-3.844846248626709,0.0,0.0,0.0,0,-62
1686415199.38005996,30433655,0.0,0.0,0.25,0.5,0.0,-3.961493968963623,-3.9341750144958496,0.0,0.0,0.0,0,-62
1686415199.48002005,30533615,0.0,0.0,0.25,0.5,0.0,-4.022686958312988,-3.975954294204712,0.0,0.0,0.0,0,-61
1686415199.57997990,30633575,0.0,0.0,0.25,0.5,0.0,-4.0837788581848145,-4.054417133331299,0.0,0.0,0.0,0,-61
1686415199.67993999,30733535,0.0,0.0,0.25,0.5,0.0,-4.145053386688232,-4.090110778808594,0.0,0.0,0.0,0,-61
1686415199.77989984,30833495,0.0,0.0,0.25,0.5,0.0,-4.205814838409424,-4.186209201812744,0.0,0.0,0.0,0,-61
1686415199.88069296,30934288,0.0,0.0,0.25,0.5,0.0,-4.267544746398926,-4.240408897399902,0.0,0.0,0.0,0,-61
1686415199.98065305,31034248,0.0,0.0,0.25,0.5,0.0,-4.3295369148254395,-4.305070877075195,0.0,0.0,0.0,0,-61
1686415200.08061290,31134208,0.0,0.0,0.25,0.5,0.0,-4.392009258270264,-4.341472625732422,0.0,0.0,0.0,0,-61
1686415200.18057299,31234168,0.0,0.0,0.25,0.5,0.0,-4.45385217666626,-4.431285858154297,0.0,0.0,0.0,0,-61
1686415200.28053284,31334128,0.0,0.0,0.25,0.5,0.0,-4.515792369842529,-4.467081546783447,0.0,0.0,0.0,0,-61
1686415200.38049293,31434088,0.0,0.0,0.25,0.5,0.0,-4.5773701667785645,-4.554940223693848,0.0,0.0,0.0,0,-61
1686415200.48045301,31534048,0.0,0.0,0.25,0.5,0.0,-4.639162540435791,-4.602947235107422,0.0,0.0,0.0,0,-61
1686415200.58041286,31634008,0.0,0.0,0.25,0.5,0.0,-4.70112419128418,-4.6628851890563965,0.0,0.0,0.0,0,-61
1686415200.68037295,31733968,0.0,0.0,0.25,0.5,0.0,-4.7628374099731445,-4.736293792724609,0.0,0.0,0.0,0,-61
1686415200.78033304,31833928,0.0,0.0,0.25,0.5,0.0,-4.824790000915527,-4.801172733306885,0.0,0.0,0.0,0,-61
1686415200.88029289,31933888,0.0,0.0,0.25,0.5,0.0,-4.887272834777832,-4.864978313446045,0.0,0.0,0.0,0,-61
1686415200.98025298,32033848,0.0,0.0,0.25,0.5,0.0,-4.950254440307617,-4.925121784210205,0.0,0.0,0.0,0,-62
1686415201.08021283,32133808,0.0,0.0,0.25,0.5,0.0,-5.01352596282959,-4.9862284660339355,0.0,0.0,0.0,0,-62
1686415201.18017292,32233768,0.0,0.0,0.25,0.5,0.0,-5.076884746551514,-5.023490905761719,0.0,0.0,0.0,0,-62
1686415201.28013301,32333728,0.0,0.0,0.25,0.5,0.0,-5.13926362991333,-5.109111309051514,0.0,0.0,0.0,0,-62
1686415201.38009286,32433688,0.0,0.0,0.25,0.5,0.0,-5.20131778717041,-5.169918060302734,0.0,0.0,0.0,0,-62
1686415201.48005295,32533648,0.0,0.0,0.25,0.5,0.0,-5.263596534729004,-5.240346908569336,0.0,0.0,0.0,0,-62
1686415201.58001304,32633608,0.0,0.0,0.25,0.5,0.0,-5.326338768005371,-5.279079437255859,0.0,0.0,0.0,0,-62
1686415201.67997289,32733568,0.0,0.0,0.25,0.5,0.0,-5.3886590003967285,-5.334996223449707,0.0,0.0,0.0,0,-62
1686415201.77993298,32833528,0.0,0.0,0.25,0.5,0.0,-5.449927806854248,-5.39630651473999,0.0,0.0,0.0,0,-62
1686415201.87989283,32933488,0.0,0.0,0.25,0.5,0.0,-5.510317325592041,-5.469742298126221,0.0,0.0,0.0,0,-62
1686415201.98068595,33034281,0.0,0.0,0.25,0.5,0.0,-5.57108736038208,-5.544486045837402,0.0,0.0,0.0,0,-61
1686415202.08064604,33134241,0.0,0.0,0.25,0.5,0.0,-5.632094383239746,-5.591030597686768,0.0,0.0,0.0,0,-61
1686415202.18060589,33234201,0.0,0.0,0.25,0.5,0.0,-5.6933770179748535,-5.675050258636475,0.0,0.0,0.0,0,-61
1686415202.28056598,33334161,0.0,0.0,0.25,0.5,0.0,-5.755411624908447,-5.733552932739258,0.0,0.0,0.0,0,-61
1686415202.38052583,33434121,0.0,0.0,0.25,0.5,0.0,-5.8183135986328125,-5.794235706329346,0.0,0.0,0.0,0,-61
1686415202.48048592,33534081,0.0,0.0,0.25,0.5,0.0,-5.881677627563477,-5.820882320404053,0.0,0.0,0.0,0,-62
1686415202.58044600,33634041,0.0,0.0,0.25,0.5,0.0,-5.943906307220459,-5.905632019042969,0.0,0.0,0.0,0,-62
1686415202.68040586,33734001,0.0,0.0,0.25,0.5,0.0,-6.005440711975098,-5.967578887939453,0.0,0.0,0.0,0,-62
1686415202.78036594,33833961,0.0,0.0,0.25,0.5,0.0,-6.066977024078369,-6.019913196563721,0.0,0.0,0.0,0,-62
1686415202.88032603,33933921,0.0,0.0,0.25,0.5,0.0,-6.128159046173096,-6.068950176239014,0.0,0.0,0.0,0,-61
1686415202.98028588,34033881,0.0,0.0,0.25,0.5,0.0,-6.188429355621338,-6.158237457275391,0.0,0.0,0.0,0,-61
1686415203.08024597,34133841,0.0,0.0,0.25,0.5,0.0,-6.248911380767822,-6.2065935134887695,0.0,0.0,0.0,0,-61
1686415203.18020582,34233801,0.0,0.0,0.25,0.5,0.0,-6.3096604347229,-6.2605061531066895,0.0,0.0,0.0,0,-61
1686415203.28016591,34333761,0.0,0.0,0.25,0.5,0.0,-6.370046138763428,-6.331968307495117,0.0,0.0,0.0,0,-61
1686415203.38012600,34433721,0.0,0.0,0.25,0.5,0.0,-6.43041467666626,-6.374938488006592,0.0,0.0,0.0,0,-61
1686415203.48008585,34533681,0.0,0.0,0.25,0.5,0.0,-6.490283012390137,-6.4571852684021,0.0,0.0,0.0,0,-61
1686415203.58004594,34633641,0.0,0.0,0.25,0.5,0.0,-6.550262928009033,-6.49754524230957,0.0,0.0,0.0,0,-61
1686415203.68000603,34733601,0.0,0.0,0.25,0.5,0.0,-6.609996795654297,-6.575394630432129,0.0,0.0,0.0,0,-61
1686415203.77996588,34833561,0.0,0.0,0.25,0.5,0.0,-6.669807434082031,-6.6296515464782715,0.0,0.0,0.0,0,-61
1686415203.87992597,34933521,0.0,0.0,0.25,0.5,0.0,-6.729798316955566,-6.696778774261475,0.0,0.0,0.0,0,-60
1686415203.97988582,35033481,0.0,0.0,0.25,0.5,0.0,-6.790046215057373,-6.786855220794678,0.0,0.0,0.0,0,-60
1686415204.08067894,35134274,0.0,0.0,0.25,0.5,0.0,-6.852273941040039,-6.839680194854736,0.0,0.0,0.0,0,-60
1686415204.18063903,35234234,0.0,0.0,0.25,0.5,0.0,-6.915353775024414,-6.903690338134766,0.0,0.0,0.0,0,-61
1686415204.28059888,35334194,0.0,0.0,0.25,0.5,0.0,-6.979285717010498,-6.9720354080200195,0.0,0.0,0.0,0,-61
1686415204.38055897,35434154,0.0,0.0,0.25,0.5,0.0,-7.0440568923950195,-7.019619941711426,0.0,0.0,0.0,0,-61
1686415204.48051882,35534114,0.0,0.0,0.25,0.5,0.0,-7.10890531539917,-7.060061454772949,0.0,0.0,0.0,0,-61
1686415204.58047891,35634074,0.0,0.0,0.25,0.5,0.0,-7.172562599182129,-7.1323747634887695,0.0,0.0,0.0,0,-61
1686415204.68043900,35734034,0.0,0.0,0.25,0.5,0.0,-7.235247611999512,-7.216343402862549,0.0,0.0,0.0,0,-61
1686415204.78039885,35833994,0.0,0.0,0.25,0.5,0.0,-7.298305988311768,-7.250858783721924,0.0,0.0,0.0,0,-62
1686415204.88035893,35933954,0.0,0.0,0.25,0.5,0.0,-7.36100435256958,-7.31036901473999,0.0,0.0,0.0,0,-62
1686415204.98031902,36033914,0.0,0.0,0.25,0.5,0.0,-7.4227471351623535,-7.398856163024902,0.0,0.0,0.0,0,-62
1686415205.08027887,36133874,0.0,0.0,0.25,0.5,0.0,-7.48480749130249,-7.453085899353027,0.0,0.0,0.0,0,-62
1686415205.18023896,36233834,0.0,0.0,0.25,0.5,0.0,-7.547365665435791,-7.518671035766602,0.0,0.0,0.0,0,-62
1686415205.28019905,36333794,0.0,0.0,0.25,0.5,0.0,-7.6102447509765625,-7.5777716636657715,0.0,0.0,0.0,0,-62
1686415205.38015890,36433754,0.0,0.0,0.25,0.5,0.0,-7.673283576965332,-7.617766857147217,0.0,0.0,0.0,0,-62
1686415205.48011899,36533714,0.0,0.0,0.25,0.5,0.0,-7.735469341278076,-7.704031467437744,0.0,0.0,0.0,0,-62
1686415205.58007884,36633674,0.0,0.0,0.25,0.5,0.0,-7.7975172996521,-7.752649307250977,0.0,0.0,0.0,0,-62
1686415205.68003893,36733634,0.0,0.0,0.25,0.5,0.0,-7.859457015991211,-7.833808422088623,0.0,0.0,0.0,0,-62
1686415205.77999902,36833594,0.0,0.0,0.25,0.5,0.0,-7.921792984008789,-7.885812282562256,0.0,0.0,0.0,0,-62
1686415205.87995887,36933554,0.0,0.0,0.25,0.5,0.0,-7.984415054321289,-7.928372859954834,0.0,0.0,0.0,0,-62
1686415205.97991896,37033514,0.0,0.0,0.25,0.5,0.0,-8.046239852905273,-8.005905151367188,0.0,0.0,0.0,0,-62
1686415206.07987905,37133474,0.0,0.0,0.25,0.5,0.0,-8.10716724395752,-8.046985626220703,0.0,0.0,0.0,0,-62
1686415206.18067193,37234267,0.0,0.0,0.25,0.5,0.0,-8.168696403503418,-8.112350463867188,0.0,0.0,0.0,0,-62
1686415206.28063202,37334227,0.0,0.0,0.25,0.5,0.0,-8.228606224060059,-8.184270858764648,0.0,0.0,0.0,0,-61
1686415206.38059187,37434187,0.0,0.0,0.25,0.5,0.0,-8.288640975952148,-8.2640380859375,0.0,0.0,0.0,0,-61
1686415206.48055196,37534147,0.0,0.0,0.25,0.5,0.0,-8.349798202514648,-8.300142288208008,0.0,0.0,0.0,0,-61
1686415206.58051205,37634107,0.0,0.0,0.25,0.5,0.0,-8.41085147857666,-8.387861251831055,0.0,0.0,0.0,0,-61
1686415206.68047190,37734067,0.0,0.0,0.25,0.5,0.0,-8.47269058227539,-8.439817428588867,0.0,0.0,0.0,0,-61
1686415206.78043199,37834027,0.0,0.0,0.25,0.5,0.0,-8.534989356994629,-8.51388168334961,0.0,0.0,0.0,0,-61
1686415206.88039184,37933987,0.0,0.0,0.25,0.5,0.0,-8.59802532196045,-8.57596492767334,0.0,0.0,0.0,0,-61
1686415206.98035192,38033947,0.0,0.0,0.25,0.5,0.0,-8.66171932220459,-8.610833168029785,0.0,0.0,0.0,0,-62
1686415207.08031201,38133907,0.0,0.0,0.25,0.5,0.0,-8.724597930908203,-8.690075874328613,0.0,0.0,0.0,0,-62
1686415207.18027186,38233867,0.0,0.0,0.25,0.5,0.0,-8.787278175354004,-8.74586009979248,0.0,0.0,0.0,0,-62
1686415207.28023195,38333827,0.0,0.0,0.25,0.5,0.0,-8.849749565124512,-8.807852745056152,0.0,0.0,0.0,0,-62
1686415207.38019204,38433787,0.0,0.0,0.25,0.5,0.0,-8.911969184875488,-8.883623123168945,0.0,0.0,0.0,0,-62
1686415207.48015189,38533747,0.0,0.0,0.25,0.5,0.0,-8.97463607788086,-8.941777229309082,0.0,0.0,0.0,0,-62
1686415207.58011198,38633707,0.0,0.0,0.25,0.5,0.0,-9.03759479522705,-9.01215934753418,0.0,0.0,0.0,0,-62
1686415207.68007183,38733667,0.0,0.0,0.25,0.5,0.0,-9.10105037689209,-9.063616752624512,0.0,0.0,0.0,0,-62
1686415207.78003192,38833627,0.0,0.0,0.25,0.5,0.0,-9.164438247680664,-9.098959922790527,0.0,0.0,0.0,0,-62
1686415207.87999201,38933587,0.0,0.0,0.25,0.5,0.0,-9.226346015930176,-9.17986011505127,0.0,0.0,0.0,0,-62
1686415207.97995186,39033547,0.0,0.0,0.25,0.5,0.0,-9.287688255310059,-9.256271362304688,0.0,0.0,0.0,0,-62
1686415208.07991195,39133507,0.0,0.0,0.25,0.5,0.0,-9.349575996398926,-9.30838680267334,0.0,0.0,0.0,0,-62
1686415208.18070483,39234300,0.0,0.0,0.25,0.5,0.0,-9.412131309509277,-9.378470420837402,0.0,0.0,0.0,0,-62
1686415208.28066492,39334260,0.0,0.0,0.25,0.5,0.0,-9.474508285522461,-9.443958282470703,0.0,0.0,0.0,0,-62
1686415208.38062501,39434220,0.0,0.0,0.25,0.5,0.0,-9.537357330322266,-9.489882469177246,0.0,0.0,0.0,0,-62
1686415208.48058486,39534180,0.0,0.0,0.25,0.5,0.0,-9.59980297088623,-9.54252815246582,0.0,0.0,0.0,0,-62
1686415208.58054495,39634140,0.0,0.0,0.25,0.5,0.0,-9.661273002624512,-9.610942840576172,0.0,0.0,0.0,0,-62
1686415208.68050504,39734100,0.0,0.0,0.25,0.5,0.0,-9.722227096557617,-9.677095413208008,0.0,0.0,0.0,0,-62
1686415208.78046489,39834060,0.0,0.0,0.25,0.5,0.0,-9.78312873840332,-9.718616485595703,0.0,0.0,0.0,0,-62
1686415208.88042498,39934020,0.0,0.0,0.25,0.5,0.0,-9.843146324157715,-9.812617301940918,0.0,0.0,0.0,0,-61
1686415208.98038483,40033980,0.0,0.0,0.25,0.5,0.0,-9.903796195983887,-9.857784271240234,0.0,0.0,0.0,0,-61
1686415209.08034492,40133940,0.0,0.0,0.25,0.5,0.0,-9.964621543884277,-9.91421127319336,0.0,0.0,0.0,0,-61
1686415209.18030500,40233900,0.0,0.0,0.25,0.5,0.0,-10.025148391723633,-9.988142967224121,0.0,0.0,0.0,0,-61
1686415209.28026485,40333860,0.0,0.0,0.5,0.5,0.0,-10.077089309692383,-10.021385192871094,0.0,0.0,0.0,0,-44
1686415209.38022494,40433820,0.0,0.0,0.5,0.5,0.0,-10.114663124084473,-10.06482982635498,0.0,0.0,0.0,0,-34
1686415209.48018503,40533780,0.0,0.0,0.5,0.5,0.0,-10.143075942993164,-10.092528343200684,0.0,0.0,0.0,0,-27
1686415209.58014488,40633740,0.0,0.0,0.5,0.5,0.0,-10.164963722229004,-10.1347074508667,0.0,0.0,0.0,0,-22
1686415209.68010497,40733700,0.0,0.0,0.5,0.5,0.0,-10.182790756225586,-10.136957168579102,0.0,0.0,0.0,0,-19
1686415209.78006482,40833660,0.0,0.0,0.5,0.5,0.0,-10.196863174438477,-10.187570571899414,0.0,0.0,0.0,0,-16
1686415209.88002491,40933620,0.0,0.0,0.5,0.5,0.0,-10.2092866897583,-10.189126968383789,0.0,0.0,0.0,0,-14
1686415209.97998500,41033580,0.0,0.0,0.5,0.5,0.0,-10.22011947631836,-10.188920974731445,0.0,0.0,0.0,0,-12
1686415210.07994485,41133540,0.0,0.0,0.5,0.5,0.0,-10.228764533996582,-10.228635787963867,0.0,0.0,0.0,0,-10
1686415210.17990494,41233500,0.0,0.0,0.5,0.5,0.0,-10.236756324768066,-10.22821044921875,0.0,0.0,0.0,0,-8
1686415210.28069782,41334293,0.0,0.0,0.5,0.5,0.0,-10.244054794311523,-10.255385398864746,0.0,0.0,0.0,0,-7
1686415210.38065791,41434253,0.0,0.0,0.5,0.5,0.0,-10.251224517822266,-10.227813720703125,0.0,0.0,0.0,0,-6
1686415210.48061800,41534213,0.0,0.0,0.5,0.5,0.0,-10.256763458251953,-10.236250877380371,0.0,0.0,0.0,0,-5
1686415210.58057785,41634173,0.0,0.0,0.5,0.5,0.0,-10.26052188873291,-10.269490242004395,0.0,0.0,0.0,0,-4
1686415210.68053794,41734133,0.0,0.0,0.5,0.5,0.0,-10.264147758483887,-10.251177787780762,0.0,0.0,0.0,0,-3
1686415210.78049803,41834093,0.0,0.0,0.5,0.5,0.0,-10.266825675964355,-10.272875785827637,0.0,0.0,0.0,0,-3
1686415210.88045788,41934053,0.0,0.0,0.5,0.5,0.0,-10.269170761108398,-10.274261474609375,0.0,0.0,0.0,0,-2
1686415210.98041797,42034013,0.0,0.0,0.5,0.5,0.0,-10.27126407623291,-10.263508796691895,0.0,0.0,0.0,0,-1
1686415211.08037782,42133973,0.0,0.0,0.5,0.5,0.0,-10.272370338439941,-10.270954132080078,0.0,0.0,0.0,0,0
1686415211.18033791,42233933,0.0,0.0,0.5,0.5,0.0,-10.272669792175293,-10.283918380737305,0.0,0.0,0.0,0,0
1686415211.28029799,42333893,0.0,0.0,0.5,0.5,0.0,-10.272854804992676,-10.295978546142578,0.0,0.0,0.0,0,0
1686415211.38025784,42433853,0.0,0.0,0.5,0.5,0.0,-10.273473739624023,-10.280339241027832,0.0,0.0,0.0,0,0
1686415211.48021793,42533813,0.0,0.0,0.5,0.5,0.0,-10.273639678955078,-10.262679100036621,0.0,0.0,0.0,0,1
1686415211.58017802,42633773,0.0,0.0,0.5,0.5,0.0,-10.272257804870605,-10.274881362915039,0.0,0.0,0.0,0,2
1686415211.68013787,42733733,0.0,0.0,0.5,0.5,0.0,-10.26996898651123,-10.280887603759766,0.0,0.0,0.0,0,2
1686415211.78009796,42833693,0.0,0.0,0.5,0.5,0.0,-10.267403602600098,-10.273707389831543,0.0,0.0,0.0,0,3
1686415211.88005805,42933653,0.0,0.0,0.5,0.5,0.0,-10.264379501342773,-10.259997367858887,0.0,0.0,0.0,0,3
1686415211.98001790,43033613,0.0,0.0,0.5,0.5,0.0,-10.26030158996582,-10.286797523498535,0.0,0.0,0.0,0,4
1686415212.07997799,43133573,0.0,0.0,0.5,0.5,0.0,-10.256576538085938,-10.250983238220215,0.0,0.0,0.0,0,4
1686415212.17993784,43233533,0.0,0.0,0.5,0.5,0.0,-10.251914978027344,-10.237178802490234,0.0,0.0,0.0,0,5
1686415212.27989793,43333493,0.0,0.0,0.5,0.5,0.0,-10.245598793029785,-10.240456581115723,0.0,0.0,0.0,0,6
1686415212.38069105,43434286,0.0,0.0,0.5,0.5,0.0,-10.238210678100586,-10.259315490722656,0.0,0.0,0.0,0,6
1686415212.48065090,43534246,0.0,0.0,0.5,0.5,0.0,-10.23133659362793,-10.247048377990723,0.0,0.0,0.0,0,7
1686415212.58061099,43634206,0.0,0.0,0.5,0.5,0.0,-10.22473430633545,-10.221413612365723,0.0,0.0,0.0,0,7
1686415212.68057084,43734166,0.0,0.0,0.5,0.5,0.0,-10.217496871948242,-10.232837677001953,0.0,0.0,0.0,0,7
1686415212.78053093,43834126,0.0,0.0,0.5,0.5,0.0,-10.210033416748047,-10.23629093170166,0.0,0.0,0.0,0,8
1686415212.88049102,43934086,0.0,0.0,0.5,0.5,0.0,-10.203141212463379,-10.224417686462402,0.0,0.0,0.0,0,8
1686415212.98045087,44034046,0.0,0.0,0.5,0.5,0.0,-10.196619987487793,-10.232842445373535,0.0,0.0,0.0,0,8
1686415213.08041096,44134006,0.0,0.0,0.5,0.5,0.0,-10.190791130065918,-10.19792366027832,0.0,0.0,0.0,0,8
1686415213.18037105,44233966,0.0,0.0,0.5,0.5,0.0,-10.184614181518555,-10.178718566894531,0.0,0.0,0.0,0,8
1686415213.28033090,44333926,0.0,0.0,0.5,0.5,0.0,-10.17707633972168,-10.19799518585205,0.0,0.0,0.0,0,8
1686415213.38029099,44433886,0.0,0.0,0.5,0.5,0.0,-10.169318199157715,-10.171897888183594,0.0,0.0,0.0,0,8
1686415213.48025084,44533846,0.0,0.0,0.5,0.5,0.0,-10.161247253417969,-10.159324645996094,0.0,0.0,0.0,0,9
1686415213.58021092,44633806,0.0,0.0,0.5,0.5,0.0,-10.152376174926758,-10.167532920837402,0.0,0.0,0.0,0,9
1686415213.68017101,44733766,0.0,0.0,0.5,0.5,0.0,-10.143489837646484,-10.140870094299316,0.0,0.0,0.0,0,9
1686415213.78013086,44833726,0.0,0.0,0.5,0.5,0.0,-10.134241104125977,-10.156880378723145,0.0,0.0,0.0,0,9
1686415213.88009095,44933686,0.0,0.0,0.5,0.5,0.0,-10.125314712524414,-10.13345718383789,0.0,0.0,0.0,0,9
1686415213.98005104,45033646,0.0,0.0,0.5,0.5,0.0,-10.116564750671387,-10.137114524841309,0.0,0.0,0.0,0,9
1686415214.08001089,45133606,0.0,0.0,0.5,0.5,0.0,-10.10810661315918,-10.106797218322754,0.0,0.0,0.0,0,9
1686415214.17997098,45233566,0.0,0.0,0.5,0.5,0.0,-10.099271774291992,-10.125018119812012,0.0,0.0,0.0,0,9
1686415214.27993083,45333526,0.0,0.0,0.5,0.5,0.0,-10.090757369995117,-10.0877046585083,0.0,0.0,0.0,0,9
1686415214.37989092,45433486,0.0,0.0,0.5,0.5,0.0,-10.081931114196777,-10.094549179077148,0.0,0.0,0.0,0,9
1686415214.48068404,45534279,0.0,0.0,0.5,0.5,0.0,-10.072813034057617,-10.086966514587402,0.0,0.0,0.0,0,9
1686415214.58064389,45634239,0.0,0.0,0.5,0.5,0.0,-10.063998222351074,-10.091733932495117,0.0,0.0,0.0,0,9
1686415214.68060398,45734199,0.0,0.0,0.5,0.5,0.0,-10.055891036987305,-10.080646514892578,0.0,0.0,0.0,0,9
1686415214.78056383,45834159,0.0,0.0,0.5,0.5,0.0,-10.048466682434082,-10.04300308227539,0.0,0.0,0.0,0,9
1686415214.88052392,45934119,0.0,0.0,0.5,0.5,0.0,-10.040348052978516,-10.055782318115234,0.0,0.0,0.0,0,9
1686415214.98048401,46034079,0.0,0.0,0.5,0.5,0.0,-10.03193473815918,-10.022078514099121,0.0,0.0,0.0,0,9
1686415215.08044386,46134039,0.0,0.0,0.5,0.5,0.0,-10.022808074951172,-10.026535987854004,0.0,0.0,0.0,0,9
1686415215.18040395,46233999,0.0,0.0,0.5,0.5,0.0,-10.01318073272705,-10.006182670593262,0.0,0.0,0.0,0,9
1686415215.28036404,46333959,0.0,0.0,0.5,0.5,0.0,-10.003083229064941,-10.02762222290039,0.0,0.0,0.0,0,9
1686415215.38032389,46433919,0.0,0.0,0.5,0.5,0.0,-9.99361801147461,-10.0054292678833,0.0,0.0,0.0,0,9
1686415215.48028398,46533879,0.0,0.0,0.5,0.5,0.0,-9.984762191772461,-9.991580963134766,0.0,0.0,0.0,0,9
1686415215.58024383,46633839,0.0,0.0,0.5,0.5,0.0,-9.97589111328125,-9.99954605102539,0.0,0.0,0.0,0,9
1686415215.68020391,46733799,0.0,0.0,0.5,0.5,0.0,-9.967551231384277,-9.955719947814941,0.0,0.0,0.0,0,9
1686415215.78016400,46833759,0.0,0.0,0.5,0.5,0.0,-9.95860767364502,-9.95908260345459,0.0,0.0,0.0,0,9
1686415215.88012385,46933719,0.0,0.0,0.5,0.5,0.0,-9.948989868164062,-9.952813148498535,0.0,0.0,0.0,0,9
1686415215.98008394,47033679,0.0,0.0,0.5,0.5,0.0,-9.939275741577148,-9.948559761047363,0.0,0.0,0.0,0,9
1686415216.08004403,47133639,0.0,0.0,0.5,0.5,0.0,-9.929774284362793,-9.931883811950684,0.0,0.0,0.0,0,9
1686415216.18000388,47233599,0.0,0.0,0.5,0.5,0.0,-9.920262336730957,-9.93290901184082,0.0,0.0,0.0,0,9
1686415216.27996397,47333559,0.0,0.0,0.5,0.5,0.0,-9.910990715026855,-9.90893268585205,0.0,0.0,0.0,0,9
1686415216.37992382,47433519,0.0,0.0,0.5,0.5,0.0,-9.901548385620117,-9.927972793579102,0.0,0.0,0.0,0,9
1686415216.47988391,47533479,0.0,0.0,0.5,0.5,0.0,-9.892765045166016,-9.909259796142578,0.0,0.0,0.0,0,9
1686415216.58067703,47634272,0.0,0.0,0.5,0.5,0.0,-9.884591102600098,-9.90572738647461,0.0,0.0,0.0,0,9
1686415216.68063688,47734232,0.0,0.0,0.5,0.5,0.0,-9.87696647644043,-9.8684720993042,0.0,0.0,0.0,0,9
1686415216.78059697,47834192,0.0,0.0,0.5,0.5,0.0,-9.868674278259277,-9.868361473083496,0.0,0.0,0.0,0,9
1686415216.88055682,47934152,0.0,0.0,0.5,0.5,0.0,-9.859630584716797,-9.864895820617676,0.0,0.0,0.0,0,9
1686415216.98051691,48034112,0.0,0.0,0.5,0.5,0.0,-9.850452423095703,-9.865318298339844,0.0,0.0,0.0,0,9
1686415217.08047700,48134072,0.0,0.0,0.5,0.5,0.0,-9.841663360595703,-9.834837913513184,0.0,0.0,0.0,0,9
1686415217.18043685,48234032,0.0,0.0,0.5,0.5,0.0,-9.832535743713379,-9.842474937438965,0.0,0.0,0.0,0,9
1686415217.28039694,48333992,0.0,0.0,0.5,0.5,0.0,-9.823362350463867,-9.813374519348145,0.0,0.0,0.0,0,9
1686415217.38035703,48433952,0.0,0.0,0.5,0.5,0.0,-9.813751220703125,-9.797941207885742,0.0,0.0,0.0,0,9
1686415217.48031688,48533912,0.0,0.0,0.5,0.5,0.0,-9.80319881439209,-9.796852111816406,0.0,0.0,0.0,0,9
1686415217.58027697,48633872,0.0,0.0,0.5,0.5,0.0,-9.792200088500977,-9.780007362365723,0.0,0.0,0.0,0,9
1686415217.68023682,48733832,0.0,0.0,0.5,0.5,0.0,-9.780824661254883,-9.793620109558105,0.0,0.0,0.0,0,9
1686415217.78019691,48833792,0.0,0.0,0.5,0.5,0.0,-9.769967079162598,-9.751171112060547,0.0,0.0,0.0,0,9
1686415217.88015699,48933752,0.0,0.0,0.5,0.5,0.0,-9.758758544921875,-9.766067504882812,0.0,0.0,0.0,0,9
1686415217.98011684,49033712,0.0,0.0,0.5,0.5,0.0,-9.747605323791504,-9.736791610717773,0.0,0.0,0.0,0,9
1686415218.08007693,49133672,0.0,0.0,0.5,0.5,0.0,-9.736312866210938,-9.750884056091309,0.0,0.0,0.0,0,9
1686415218.18003702,49233632,0.0,0.0,0.5,0.5,0.0,-9.725473403930664,-9.716425895690918,0.0,0.0,0.0,0,10
1686415218.27999687,49333592,0.0,0.0,0.5,0.5,0.0,-9.714548110961914,-9.722291946411133,0.0,0.0,0.0,0,10
1686415218.37995696,49433552,0.0,0.0,0.5,0.5,0.0,-9.703682899475098,-9.711016654968262,0.0,0.0,0.0,0,10
1686415218.47991705,49533512,0.0,0.0,0.5,0.5,0.0,-9.693168640136719,-9.713606834411621,0.0,0.0,0.0,0,10
1686415218.58070993,49634305,0.0,0.0,0.5,0.5,0.0,-9.683279037475586,-9.691452026367188,0.0,0.0,0.0,0,10
1686415218.68067002,49734265,0.0,0.0,0.5,0.5,0.0,-9.6737699508667,-9.68183422088623,0.0,0.0,0.0,0,10
1686415218.78062987,49834225,0.0,0.0,0.5,0.5,0.0,-9.664205551147461,-9.679486274719238,0.0,0.0,0.0,0,10
1686415218.88058996,49934185,0.0,0.0,0.5,0.5,0.0,-9.654874801635742,-9.67190933227539,0.0,0.0,0.0,0,9
1686415218.98055005,50034145,0.0,0.0,0.5,0.5,0.0,-9.645930290222168,-9.65498161315918,0.0,0.0,0.0,0,9
1686415219.08050990,50134105,0.0,0.0,0.5,0.5,0.0,-9.637006759643555,-9.625606536865234,0.0,0.0,0.0,0,9
1686415219.18046999,50234065,0.0,0.0,0.5,0.5,0.0,-9.627180099487305,-9.643421173095703,0.0,0.0,0.0,0,9
1686415219.28042984,50334025,0.0,0.0,0.5,0.5,0.0,-9.617359161376953,-9.610109329223633,0.0,0.0,0.0,0,9
1686415219.38038993,50433985,0.0,0.0,0.5,0.5,0.0,-9.607216835021973,-9.600479125976562,0.0,0.0,0.0,0,9
1686415219.48035002,50533945,0.0,0.0,0.5,0.5,0.0,-9.596386909484863,-9.587894439697266,0.0,0.0,0.0,0,9
1686415219.58030987,50633905,0.0,0.0,0.5,0.5,0.0,-9.585001945495605,-9.606903076171875,0.0,0.0,0.0,0,10
1686415219.68026996,50733865,0.0,0.0,0.5,0.5,0.0,-9.57431697845459,-9.590219497680664,0.0,0.0,0.0,0,10
1686415219.78023005,50833825,0.0,0.0,0.5,0.5,0.0,-9.564507484436035,-9.575166702270508,0.0,0.0,0.0,0,10
1686415219.88018990,50933785,0.0,0.0,0.5,0.5,0.0,-9.554984092712402,-9.563379287719727,0.0,10.25,0.0,0,10
1686415219.98014998,51033745,0.0,0.0,0.5,0.5,0.0,-9.545472145080566,-9.564202308654785,0.0,10.25,0.0,0,10
1686415220.08010983,51133705,0.0,0.0,0.5,0.5,0.0,-9.536321640014648,-9.537378311157227,0.0,10.25,0.0,0,9
1686415220.18006992,51233665,0.0,0.0,0.5,0.5,0.0,-9.526978492736816,-9.52148723602295,0.0,10.26,0.0,0,9
1686415220.28003001,51333625,0.0,0.0,0.5,0.5,0.0,-9.516901969909668,-9.50384521484375,0.0,10.290000000000001,0.0,0,9
1686415220.37998986,51433585,0.0,0.0,0.5,0.5,0.0,-9.505885124206543,-9.526993751525879,0.0,10.290000000000001,0.0,0,10
1686415220.47994995,51533545,0.0,0.0,0.5,0.5,0.0,-9.49533748626709,-9.511517524719238,0.0,10.3,0.0,0,10
1686415220.57991004,51633505,0.0,0.0,0.5,0.5,0.0,-9.485624313354492,-9.518993377685547,0.0,10.31,0.0,0,10
1686415220.68070292,51734298,0.0,0.0,0.5,0.5,0.0,-9.477191925048828,-9.4794921875,0.0,10.33,0.0,0,9
1686415220.78066301,51834258,0.0,0.0,0.5,0.5,0.0,-9.46850872039795,-9.467308044433594,0.0,10.33,0.0,0,9
1686415220.88062286,51934218,0.0,0.0,0.5,0.5,0.0,-9.45908260345459,-9.475851058959961,0.0,10.33,0.0,0,9
1686415220.98058295,52034178,0.0,0.0,0.5,0.5,0.0,-9.449892044067383,-9.449101448059082,0.0,10.34,0.0,0,9
1686415221.08054304,52134138,0.0,0.0,0.5,0.5,0.0,-9.440343856811523,-9.464652061462402,0.0,10.35,0.0,0,9
1686415221.18050289,52234098,0.0,0.0,0.5,0.5,0.0,-9.43143367767334,-9.439435005187988,0.0,10.370000000000001,0.0,0,9
1686415221.28046298,52334058,0.0,0.0,0.5,0.5,0.0,-9.42260456085205,-9.419788360595703,0.0,10.370000000000001,0.0,0,9
1686415221.38042283,52434018,0.0,0.0,0.5,0.5,0.0,-9.413156509399414,-9.431464195251465,0.0,10.38,0.0,0,9
1686415221.48038292,52533978,0.0,0.0,0.5,0.5,0.0,-9.404075622558594,-9.402950286865234,0.0,10.39,0.0,0,9
1686415221.58034301,52633938,0.0,0.0,0.5,0.5,0.0,-9.39468002319336,-9.39366626739502,0.0,10.41,0.0,0,9
1686415221.68030286,52733898,0.0,0.0,0.5,0.5,0.0,-9.38481616973877,-9.39162826538086,0.0,10.41,0.0,0,9
1686415221.78026295,52833858,0.0,0.0,0.5,0.5,0.0,-9.374963760375977,-9.390958786010742,0.0,10.42,0.0,0,9
1686415221.88022304,52933818,0.0,0.0,0.5,0.5,0.0,-9.365633964538574,-9.351729393005371,0.0,10.43,0.0,0,9
1686415221.98018289,53033778,0.0,0.0,0.5,0.5,0.0,-9.355470657348633,-9.375425338745117,0.0,10.450000000000001,0.0,0,9
1686415222.08014297,53133738,0.0,0.0,0.5,0.5,0.0,-9.345819473266602,-9.329981803894043,0.0,10.450000000000001,0.0,0,9
1686415222.18010283,53233698,0.0,0.0,0.5,0.5,0.0,-9.33538818359375,-9.329910278320312,0.0,10.46,0.0,0,9
1686415222.28006291,53333658,0.0,0.0,0.5,0.5,0.0,-9.324382781982422,-9.306681632995605,0.0,10.47,0.0,0,9
1686415222.38002300,53433618,0.0,0.0,0.5,0.5,0.0,-9.312536239624023,-9.31078052520752,0.0,10.49,0.0,0,9
1686415222.47998285,53533578,0.0,0.0,0.5,0.5,0.0,-9.300603866577148,-9.28808879852295,0.0,10.49,0.0,0,10
1686415222.57994294,53633538,0.0,0.0,0.5,0.5,0.0,-9.28829574584961,-9.298103332519531,0.0,10.5,0.0,0,10
1686415222.67990303,53733498,0.0,0.0,0.5,0.5,0.0,-9.276529312133789,-9.304391860961914,0.0,10.51,0.0,0,10
1686415222.78069592,53834291,0.0,0.0,0.5,0.5,0.0,-9.266112327575684,-9.302142143249512,0.0,10.52,0.0,0,10
1686415222.88065600,53934251,0.0,0.0,0.5,0.5,0.0,-9.2573823928833,-9.270657539367676,0.0,10.52,0.0,0,10
1686415222.98061585,54034211,0.0,0.0,0.5,0.5,0.0,-9.248889923095703,-9.269562721252441,0.0,10.540000000000001,0.0,0,10
1686415223.08057594,54134171,0.0,0.0,0.5,0.5,0.0,-9.240612030029297,-9.259949684143066,0.0,10.55,0.0,0,9
1686415223.18053603,54234131,0.0,0.0,0.5,0.5,0.0,-9.232550621032715,-9.256712913513184,0.0,10.56,0.0,0,9
1686415223.28049588,54334091,0.0,0.0,0.5,0.5,0.0,-9.224874496459961,-9.236308097839355,0.0,10.58,0.0,0,9
1686415223.38045597,54434051,0.0,0.0,0.5,0.5,0.0,-9.217019081115723,-9.2418212890625,0.0,10.58,0.0,0,9
1686415223.48041582,54534011,0.0,0.0,0.5,0.5,0.0,-9.20949935913086,-9.206781387329102,0.0,10.59,0.0,0,9
1686415223.58037591,54633971,0.0,0.0,0.5,0.5,0.0,-9.201227188110352,-9.188384056091309,0.0,10.6,0.0,0,9
1686415223.68033600,54733931,0.0,0.0,0.5,0.5,0.0,-9.191645622253418,-9.193175315856934,0.0,10.620000000000001,0.0,0,9
1686415223.78029585,54833891,0.0,0.0,0.5,0.5,0.0,-9.181647300720215,-9.196889877319336,0.0,10.620000000000001,0.0,0,9
1686415223.88025594,54933851,0.0,0.0,0.5,0.5,0.0,-9.172155380249023,-9.16400146484375,0.0,10.63,0.0,0,9
1686415223.98021603,55033811,0.0,0.0,0.5,0.5,0.0,-9.162169456481934,-9.147665023803711,0.0,10.64,0.0,0,9
1686415224.08017588,55133771,0.0,0.0,0.5,0.5,0.0,-9.151246070861816,-9.162220001220703,0.0,10.66,0.0,0,9
1686415224.18013597,55233731,0.0,0.0,0.5,0.5,0.0,-9.140680313110352,-9.149930953979492,0.0,10.66,0.0,0,9
1686415224.28009582,55333691,0.0,0.0,0.5,0.5,0.0,-9.130608558654785,-9.130949020385742,0.0,10.66,0.0,0,9
1686415224.38005590,55433651,0.0,0.0,0.5,0.5,0.0,-9.120462417602539,-9.129403114318848,0.0,10.67,0.0,0,9
1686415224.48001599,55533611,0.0,0.0,0.5,0.5,0.0,-9.110514640808105,-9.101442337036133,0.0,10.68,0.0,0,9
1686415224.57997584,55633571,0.0,0.0,0.5,0.5,0.0,-9.10000991821289,-9.117051124572754,0.0,10.700000000000001,0.0,0,9
1686415224.67993593,55733531,0.0,0.0,0.5,0.5,0.0,-9.090011596679688,-9.105640411376953,0.0,10.700000000000001,0.0,0,9
1686415224.77989602,55833491,0.31131935119628906,0.0,0.43695178627967834,0.5,-9.080509185791016,-9.080655097961426,-9.075885772705078,10.64,10.71,0.0,8,9
1686415224.88068891,55934284,0.4146985709667206,0.0,0.3847460448741913,0.5,-9.073441505432129,-9.072808265686035,-9.071510314941406,10.64,10.74,0.0,5,5
1686415224.98064899,56034244,0.43486249446868896,0.0,0.4045487642288208,0.5,-9.06949234008789,-9.069165229797363,-9.074053764343262,10.64,10.74,0.0,2,1
1686415225.08060884,56134204,0.450573593378067,0.0,0.4239743649959564,0.5,-9.067764282226562,-9.06871223449707,-9.088288307189941,10.64,10.75,0.0,1,0
1686415225.18056893,56234164,0.4639977216720581,0.0,0.4392356872558594,0.5,-9.067620277404785,-9.070931434631348,-9.069927215576172,10.64,10.75,0.0,0,-2
1686415225.28052902,56334124,0.4734477698802948,0.0,0.4531676769256592,0.5,-9.068642616271973,-9.074030876159668,-9.087305068969727,10.64,10.77,0.0,0,-2
1686415225.38048887,56434084,0.4764249920845032,0.0,0.4595377743244171,0.5,-9.070562362670898,-9.077820777893066,-9.059235572814941,10.64,10.77,0.0,0,-2
1686415225.48044896,56534044,0.47137147188186646,0.0,0.4616127014160156,0.5,-9.073235511779785,-9.08072280883789,-9.090453147888184,10.64,10.790000000000001,0.0,0,-2
1686415225.58040905,56634004,0.4642106890678406,0.0,0.45657452940940857,0.5,-9.07657527923584,-9.083775520324707,-9.09919548034668,10.64,10.790000000000001,0.0,-1,-2
1686415225.68036890,56733964,0.4621444046497345,0.0,0.452242910861969,0.5,-9.080456733703613,-9.087691307067871,-9.097766876220703,10.64,10.8,0.0,-1,-2
1686415225.78032899,56833924,0.4647389054298401,0.0,0.45215925574302673,0.5,-9.084816932678223,-9.092238426208496,-9.080233573913574,10.64,10.8,0.0,-2,-3
1686415225.88028884,56933884,0.46172139048576355,0.0,0.4524816870689392,0.5,-9.089574813842773,-9.096293449401855,-9.089168548583984,10.64,10.81,0.0,-2,-3
1686415225.98024893,57033844,0.4555133581161499,0.0,0.4490533173084259,0.5,-9.094700813293457,-9.100008964538574,-9.09196949005127,10.64,10.81,0.0,-3,-3
1686415226.08020902,57133804,0.4500913619995117,0.0,0.4443800747394562,0.5,-9.100135803222656,-9.1037015914917,-9.101511001586914,10.64,10.81,0.0,-4,-4
1686415226.18016887,57233764,0.4484379291534424,0.0,0.4411533772945404,0.5,-9.105816841125488,-9.107898712158203,-9.102581977844238,10.64,10.81,0.0,-5,-4
1686415226.28012896,57333724,0.4503237307071686,0.0,0.44219502806663513,0.5,-9.111682891845703,-9.11266040802002,-9.129465103149414,10.64,10.81,0.0,-5,-5
1686415226.38008904,57433684,0.455202579498291,0.0,0.44382527470588684,0.5,-9.117673873901367,-9.118903160095215,-9.12740707397461,10.64,10.81,0.0,-5,-5
1686415226.48004889,57533644,0.4638252258300781,0.0,0.4507741630077362,0.5,-9.123800277709961,-9.1261625289917,-9.127609252929688,10.64,10.81,0.0,-5,-6
1686415226.58000898,57633604,0.47062236070632935,0.0,0.4601499140262604,0.5,-9.130010604858398,-9.133593559265137,-9.12060546875,10.64,10.8,0.0,-5,-6
1686415226.67996883,57733564,0.4703119695186615,0.0,0.4659681022167206,0.5,-9.136200904846191,-9.140169143676758,-9.134944915771484,10.64,10.8,0.0,-4,-5
1686415226.77992892,57833524,0.4644097685813904,0.0,0.465015172958374,0.5,-9.14236831665039,-9.14609432220459,-9.147083282470703,10.64,10.8,0.0,-5,-5
1686415226.87988901,57933484,0.45937061309814453,0.0,0.46092459559440613,0.5,-9.148520469665527,-9.15186882019043,-9.12460994720459,10.64,10.8,0.0,-5,-5
1686415226.98068190,58034277,0.4512289762496948,0.0,0.4557802379131317,0.5,-9.15471363067627,-9.156465530395508,-9.16027545928955,10.64,10.8,0.0,-5,-5
1686415227.08064198,58134237,0.44466906785964966,0.0,0.4479692578315735,0.5,-9.160844802856445,-9.161177635192871,-9.158429145812988,10.64,10.78,0.0,-6,-5
1686415227.18060184,58234197,0.44669193029403687,0.0,0.44936704635620117,0.5,-9.166830062866211,-9.166430473327637,-9.141494750976562,10.64,10.78,0.0,-6,-5
1686415227.28056192,58334157,0.4460069239139557,0.0,0.45019370317459106,0.5,-9.172607421875,-9.171142578125,-9.184582710266113,10.64,10.77,0.0,-6,-5
1686415227.38052201,58434117,0.44693970680236816,0.0,0.45081058144569397,0.5,-9.178177833557129,-9.176462173461914,-9.190220832824707,10.64,10.77,0.0,-5,-5
1686415227.48048186,58534077,0.45589935779571533,0.0,0.45483070611953735,0.5,-9.183557510375977,-9.182998657226562,-9.171012878417969,10.64,10.76,0.0,-5,-5
1686415227.58044195,58634037,0.46549439430236816,0.0,0.4656441807746887,0.5,-9.188729286193848,-9.189321517944336,-9.165423393249512,10.64,10.75,0.0,-4,-5
1686415227.68040204,58733997,0.4548664689064026,0.0,0.466287225484848,0.5,-9.193632125854492,-9.194137573242188,-9.186964988708496,10.64,10.74,0.0,-4,-5
1686415227.78036189,58833957,0.454133003950119,0.0,0.4653364419937134,0.5,-9.19827938079834,-9.198070526123047,-9.17501163482666,10.64,10.74,0.0,-4,-4
1686415227.88032198,58933917,0.4470674991607666,0.0,0.46004217863082886,0.5,-9.202691078186035,-9.20118522644043,-9.190403938293457,10.64,10.72,0.0,-4,-4
1686415227.98028183,59033877,0.4419444501399994,0.0,0.455658882856369,0.5,-9.206842422485352,-9.20389175415039,-9.210561752319336,10.64,10.72,0.0,-4,-4
1686415228.08024192,59133837,0.4425477981567383,0.0,0.45177268981933594,0.5,-9.210708618164062,-9.20728588104248,-9.187045097351074,10.64,10.71,0.0,-4,-4
1686415228.18020201,59233797,0.4474809765815735,0.0,0.45474129915237427,0.5,-9.214310646057129,-9.210603713989258,-9.192534446716309,10.64,10.71,0.0,-4,-4
1686415228.28016186,59333757,0.44640013575553894,0.0,0.45554283261299133,0.5,-9.217663764953613,-9.21335220336914,-9.205829620361328,10.64,10.700000000000001,0.0,-4,-4
1686415228.38012195,59433717,0.4465283155441284,0.0,0.4557134509086609,0.5,-9.220780372619629,-9.216073036193848,-9.235372543334961,10.64,10.700000000000001,0.0,-4,-4
1686415228.48008204,59533677,0.4523259699344635,0.0,0.45659515261650085,0.5,-9.223672866821289,-9.219948768615723,-9.218393325805664,10.64,10.700000000000001,0.0,-3,-4
1686415228.58004189,59633637,0.46307677030563354,0.0,0.46358245611190796,0.5,-9.2263822555542,-9.224337577819824,-9.233744621276855,10.64,10.700000000000001,0.0,-3,-4
1686415228.68000197,59733597,0.46256130933761597,0.0,0.4683268666267395,0.5,-9.228954315185547,-9.228814125061035,-9.222164154052734,10.64,10.68,0.0,-2,-3
1686415228.77996182,59833557,0.4685160517692566,0.0,0.47380396723747253,0.5,-9.231328964233398,-9.232518196105957,-9.21265697479248,10.64,10.68,0.0,-1,-2
1686415228.87992191,59933517,0.4636123776435852,0.0,0.4746324419975281,0.5,-9.2334623336792,-9.234654426574707,-9.243486404418945,10.64,10.68,0.0,-1,-2
1686415228.97988200,60033477,0.45049700140953064,0.0,0.4663408100605011,0.5,-9.235406875610352,-9.236284255981445,-9.258387565612793,10.64,10.67,0.0,-1,-1
1686415229.08067489,60134270,0.4597433805465698,0.0,0.46578219532966614,0.5,-9.237168312072754,-9.238679885864258,-9.262277603149414,10.64,10.67,0.0,-1,-1
1686415229.18063498,60234230,0.4620790183544159,0.0,0.4682241976261139,0.5,-9.238722801208496,-9.241930961608887,-9.228736877441406,10.64,10.67,0.0,0,-1
1686415229.28059483,60334190,0.4634050130844116,0.0,0.4696797728538513,0.5,-9.24012565612793,-9.24411678314209,-9.255846977233887,10.64,10.66,0.0,0,0
1686415229.38055491,60434150,0.4575762450695038,0.0,0.4684068560600281,0.5,-9.241365432739258,-9.245526313781738,-9.226727485656738,10.64,10.66,0.0,0,0
1686415229.48051500,60534110,0.4571414291858673,0.0,0.4655195474624634,0.5,-9.24243450164795,-9.245672225952148,-9.251289367675781,10.64,10.66,0.0,0,0
1686415229.58047485,60634070,0.4492879807949066,0.0,0.4601806402206421,0.5,-9.243371963500977,-9.245406150817871,-9.262432098388672,10.64,10.66,0.0,0,0
1686415229.68043494,60734030,0.45004308223724365,0.0,0.4559784531593323,0.5,-9.244211196899414,-9.245874404907227,-9.22874927520752,10.64,10.66,0.0,0,0
1686415229.78039503,60833990,0.45161882042884827,0.0,0.456382155418396,0.5,-9.244974136352539,-9.245954513549805,-9.249168395996094,10.64,10.64,0.0,0,0
1686415229.88035488,60933950,0.4515558183193207,0.0,0.45881038904190063,0.5,-9.245575904846191,-9.24586009979248,-9.257509231567383,10.64,10.64,0.0,0,0
1686415229.98031497,61033910,0.45464301109313965,0.0,0.45976337790489197,0.5,-9.245964050292969,-9.246343612670898,-9.247359275817871,10.64,10.64,0.0,0,0
1686415230.08027482,61133870,0.45968955755233765,0.0,0.4629034101963043,0.5,-9.24618911743164,-9.246984481811523,-9.256147384643555,10.64,10.620000000000001,0.0,0,0
1686415230.18023491,61233830,0.4586934447288513,0.0,0.4687555134296417,0.5,-9.246197700500488,-9.247714042663574,-9.236167907714844,10.64,10.59,0.0,0,0
1686415230.28019500,61333790,0.4603610932826996,0.0,0.47141480445861816,0.5,-9.24585247039795,-9.247489929199219,-9.241547584533691,10.64,10.56,0.0,1,0
1686415230.38015485,61433750,0.4580749571323395,0.0,0.4727724492549896,0.5,-9.245014190673828,-9.246146202087402,-9.24612045288086,10.64,10.540000000000001,0.0,1,1
1686415230.48011494,61533710,0.4541035294532776,0.0,0.4708094000816345,0.5,-9.243614196777344,-9.244157791137695,-9.2603120803833,10.64,10.51,0.0,1,1
1686415230.58007503,61633670,0.45604801177978516,0.0,0.47054407000541687,0.5,-9.241591453552246,-9.242255210876465,-9.25358772277832,10.64,10.51,0.0,2,2
1686415230.68003488,61733630,0.464611679315567,0.0,0.47374919056892395,0.5,-9.238931655883789,-9.240392684936523,-9.251102447509766,10.64,10.49,0.0,3,2
1686415230.77999496,61833590,0.48185262084007263,0.0,0.4845268130302429,0.5,-9.235631942749023,-9.23829174041748,-9.243895530700684,10.64,10.450000000000001,0.0,4,3
1686415230.87995481,61933550,0.5037413835525513,0.0,0.5026211738586426,0.5,-9.231593132019043,-9.23569107055664,-9.228779792785645,10.64,10.43,0.0,5,3
1686415230.97991490,62033510,0.5277014374732971,0.0,0.5246223211288452,0.5,-9.22677993774414,-9.23205280303955,-9.215239524841309,10.64,10.41,0.0,6,4
1686415231.08070803,62134303,0.5331253409385681,0.0,0.5424267649650574,0.5,-9.221144676208496,-9.226790428161621,-9.241215705871582,10.64,10.38,0.0,7,5
1686415231.18066788,62234263,0.53475421667099,0.0,0.5473227500915527,0.5,-9.2147216796875,-9.220742225646973,-9.204916000366211,10.64,10.35,0.0,8,6
1686415231.28062797,62334223,0.5340173840522766,0.0,0.5501851439476013,0.5,-9.207416534423828,-9.213150024414062,-9.201956748962402,10.64,10.33,0.0,9,7
1686415231.38058782,62434183,0.5283589363098145,0.0,0.5476815104484558,0.5,-9.199225425720215,-9.203664779663086,-9.216153144836426,10.64,10.31,0.0,9,8
1686415231.48054790,62534143,0.52626633644104,0.0,0.543559730052948,0.5,-9.190167427062988,-9.193614959716797,-9.19776725769043,10.64,10.290000000000001,0.0,10,9
1686415231.58050799,62634103,0.5307165384292603,0.0,0.544066309928894,0.5,-9.180253028869629,-9.183222770690918,-9.200432777404785,10.64,10.26,0.0,11,10
1686415231.68046784,62734063,0.5372639298439026,0.0,0.5488684177398682,0.5,-9.169462203979492,-9.172720909118652,-9.147560119628906,10.64,10.25,0.0,12,10
1686415231.78042793,62834023,0.5421087741851807,0.0,0.5547820925712585,0.5,-9.157825469970703,-9.160540580749512,-9.154120445251465,10.64,10.21,0.0,12,11
1686415231.88038802,62933983,0.5379766821861267,0.0,0.5561439394950867,0.5,-9.145283699035645,-9.146678924560547,-9.132566452026367,10.64,10.200000000000001,0.0,13,12
1686415231.98034787,63033943,0.5350383520126343,0.0,0.5530899167060852,0.5,-9.131845474243164,-9.131494522094727,-9.122851371765137,10.64,10.17,0.0,13,13
1686415232.08030796,63133903,0.5323490500450134,0.0,0.5509696006774902,0.5,-9.117524147033691,-9.115360260009766,-9.088826179504395,10.64,10.16,0.0,14,14
1686415232.18026805,63233863,0.5307992100715637,0.0,0.5485960841178894,0.5,-9.102354049682617,-9.09794807434082,-9.085201263427734,10.64,10.13,0.0,14,14
1686415232.28022790,63333823,0.5270869135856628,0.0,0.5459782481193542,0.5,-9.086319923400879,-9.079754829406738,-9.075584411621094,10.64,10.120000000000001,0.0,14,15
1686415232.38018799,63433783,0.5298795104026794,0.0,0.5446876287460327,0.5,-9.06945514678955,-9.061572074890137,-9.068687438964844,10.64,10.1,0.0,14,15
1686415232.48014784,63533743,0.5371054410934448,0.0,0.5479122400283813,0.5,-9.051789283752441,-9.043936729431152,-9.064366340637207,10.64,10.09,0.0,15,15
1686415232.58010793,63633703,0.5502415895462036,0.0,0.5564854145050049,0.5,-9.033381462097168,-9.027203559875488,-9.036410331726074,10.64,10.08,0.0,16,15
1686415232.68006802,63733663,0.5636446475982666,0.0,0.5694743394851685,0.5,-9.014274597167969,-9.010558128356934,-9.045720100402832,10.64,10.06,0.0,18,16
1686415232.78002787,63833623,0.5737742185592651,0.0,0.5805235505104065,0.5,-8.994460105895996,-8.99405288696289,-9.000128746032715,10.64,10.040000000000001,0.0,20,17
1686415232.87998796,63933583,0.5771931409835815,0.0,0.5890833735466003,0.5,-8.973930358886719,-8.97635555267334,-8.986713409423828,10.64,10.040000000000001,0.0,21,19
1686415232.97994804,64033543,0.5756533741950989,0.0,0.5903317332267761,0.5,-8.952766418457031,-8.956745147705078,-8.996268272399902,10.64,10.040000000000001,0.0,22,20
1686415233.07990789,64133503,0.5783826112747192,0.0,0.5901790261268616,0.5,-8.931077003479004,-8.936661720275879,-8.95527458190918,10.64,10.040000000000001,0.0,23,21
1686415233.18070102,64234296,0.584503173828125,0.0,0.5949981212615967,0.5,-8.908740043640137,-8.915709495544434,-8.941193580627441,10.64,10.01,0.0,24,22
1686415233.28066087,64334256,0.5848806500434875,0.0,0.5976418852806091,0.5,-8.886058807373047,-8.893969535827637,-8.90522575378418,10.64,10.01,0.0,25,23
1686415233.38062096,64434216,0.5854912400245667,0.0,0.5990819931030273,0.5,-8.862883567810059,-8.870901107788086,-8.869659423828125,10.64,10.0,0.0,25,24
1686415233.48058105,64534176,0.5810351371765137,0.0,0.5970962643623352,0.5,-8.839249610900879,-8.84604263305664,-8.870981216430664,10.64,10.0,0.0,25,25
1686415233.58054090,64634136,0.57989501953125,0.0,0.593208372592926,0.5,-8.815223693847656,-8.820708274841309,-8.844206809997559,10.64,10.0,0.0,25,25
1686415233.68050098,64734096,0.5827624797821045,0.0,0.592690110206604,0.5,-8.79086685180664,-8.795702934265137,-8.828660011291504,10.64,10.0,0.0,25,25
1686415233.78046083,64834056,0.5883249640464783,0.0,0.5955864787101746,0.5,-8.766227722167969,-8.771276473999023,-8.761736869812012,10.64,9.99,0.0,26,25
1686415233.88042092,64934016,0.5882266759872437,0.0,0.5996769070625305,0.5,-8.741283416748047,-8.745718002319336,-8.747986793518066,10.64,9.97,0.0,26,25
1686415233.98038101,65033976,0.5825098156929016,0.0,0.5977705717086792,0.5,-8.715967178344727,-8.718730926513672,-8.70980453491211,10.64,9.96,0.0,26,26
1686415234.08034086,65133936,0.577016294002533,0.0,0.592926025390625,0.5,-8.690276145935059,-8.690638542175293,-8.711328506469727,10.64,9.97,0.0,25,26
1686415234.18030095,65233896,0.5775811076164246,0.0,0.5888272523880005,0.5,-8.664310455322266,-8.662890434265137,-8.684368133544922,10.64,9.96,0.0,25,26
1686415234.28026104,65333856,0.5818160772323608,0.0,0.5894297361373901,0.5,-8.638075828552246,-8.636220932006836,-8.659701347351074,10.64,9.96,0.0,25,25
1686415234.38022089,65433816,0.5876117944717407,0.0,0.5929370522499084,0.5,-8.611608505249023,-8.61034870147705,-8.610214233398438,10.64,9.96,0.0,26,25
1686415234.48018098,65533776,0.5884863138198853,0.0,0.596060037612915,0.5,-8.584953308105469,-8.584006309509277,-8.589571952819824,10.64,9.96,0.0,26,26
1686415234.58014083,65633736,0.5866552591323853,0.0,0.5941495895385742,0.5,-8.558165550231934,-8.556879043579102,-8.56280517578125,10.64,9.97,0.0,26,26
1686415234.68010092,65733696,0.5855782628059387,0.0,0.5919081568717957,0.5,-8.531347274780273,-8.529399871826172,-8.542430877685547,10.64,9.97,0.0,26,26
1686415234.78006101,65833656,0.5853701829910278,0.0,0.5913590788841248,0.5,-8.504500389099121,-8.502053260803223,-8.507611274719238,10.64,9.96,0.0,26,26
1686415234.88002086,65933616,0.5851098299026489,0.0,0.5911604166030884,0.5,-8.477542877197266,-8.474691390991211,-8.497347831726074,10.64,9.96,0.0,26,26
1686415234.97998095,66033576,0.5870834589004517,0.0,0.5909204483032227,0.5,-8.4504976272583,-8.447781562805176,-8.486360549926758,10.64,9.950000000000001,0.0,26,26
1686415235.07994103,66133536,0.593618631362915,0.0,0.5952683091163635,0.5,-8.423322677612305,-8.422073364257812,-8.452072143554688,10.64,9.97,0.0,26,26
1686415235.17990088,66233496,0.6018441319465637,0.0,0.5979463458061218,0.5,-8.396145820617676,-8.39702320098877,-8.424947738647461,10.64,9.97,0.0,27,26
1686415235.28069401,66334289,0.6052463054656982,0.0,0.6026125550270081,0.5,-8.368841171264648,-8.371932983398438,-8.383819580078125,10.64,9.97,0.0,27,26
1686415235.38065386,66434249,0.6036694049835205,0.0,0.6046417951583862,0.5,-8.341827392578125,-8.345845222473145,-8.389047622680664,10.64,9.97,0.0,28,27
1686415235.48061395,66534209,0.6049851179122925,0.0,0.6045835018157959,0.5,-8.314859390258789,-8.32001781463623,-8.349031448364258,10.64,9.97,0.0,28,27
1686415235.58057404,66634169,0.6077710390090942,0.0,0.6064638495445251,0.5,-8.287914276123047,-8.29413890838623,-8.322665214538574,10.64,9.97,0.0,28,27
1686415235.68053389,66734129,0.6089252829551697,0.0,0.607883095741272,0.5,-8.260986328125,-8.267936706542969,-8.305112838745117,10.64,10.0,0.0,29,28
1686415235.78049397,66834089,0.6125904321670532,0.0,0.6043878197669983,0.5,-8.234272003173828,-8.241894721984863,-8.253111839294434,10.64,9.99,0.0,28,28
1686415235.88045382,66934049,0.6088634133338928,0.0,0.6063522696495056,0.5,-8.20779800415039,-8.215105056762695,-8.223023414611816,10.64,9.99,0.0,28,28
1686415235.98041391,67034009,0.6031672358512878,0.0,0.6034550666809082,0.5,-8.181443214416504,-8.187262535095215,-8.212578773498535,10.64,9.97,0.0,28,28
1686415236.08037400,67133969,0.598397970199585,0.0,0.602837085723877,0.5,-8.155021667480469,-8.159521102905273,-8.17965030670166,10.64,9.99,0.0,27,28
1686415236.18033385,67233929,0.6005057096481323,0.0,0.5983006954193115,0.5,-8.128597259521484,-8.132022857666016,-8.16014289855957,10.64,10.0,0.0,27,27
1686415236.28029394,67333889,0.6020575761795044,0.0,0.5964137315750122,0.5,-8.102343559265137,-8.105270385742188,-8.141094207763672,10.64,10.0,0.0,27,27
1686415236.38025403,67433849,0.60511314868927,0.0,0.5979495048522949,0.5,-8.076260566711426,-8.079596519470215,-8.093527793884277,10.64,9.99,0.0,27,26
1686415236.48021388,67533809,0.6045675277709961,0.0,0.602161705493927,0.5,-8.050220489501953,-8.053732872009277,-8.060962677001953,10.64,9.99,0.0,27,26
1686415236.58017397,67633769,0.6006097793579102,0.0,0.601280689239502,0.5,-8.024164199829102,-8.026968955993652,-8.027301788330078,10.64,10.0,0.0,26,27
1686415236.68013382,67733729,0.595861554145813,0.0,0.5960477590560913,0.5,-7.998167037963867,-7.999292373657227,-8.017086029052734,10.64,10.0,0.0,26,26
1686415236.78009391,67833689,0.5923008322715759,0.0,0.5917742848396301,0.5,-7.972263336181641,-7.971929550170898,-7.983532428741455,10.64,10.0,0.0,25,26
1686415236.88005400,67933649,0.5916534066200256,0.0,0.5899569392204285,0.5,-7.946420669555664,-7.945010185241699,-7.96169900894165,10.64,10.0,0.0,25,26
1686415236.98001385,68033609,0.5923365950584412,0.0,0.5894582271575928,0.5,-7.920621871948242,-7.918665409088135,-7.945616245269775,10.64,10.0,0.0,25,25
1686415237.07997394,68133569,0.5948238968849182,0.0,0.5906334519386292,0.5,-7.894855976104736,-7.89328145980835,-7.898282051086426,10.64,10.0,0.0,25,25
1686415237.17993402,68233529,0.5954127907752991,0.0,0.5929905772209167,0.5,-7.86911153793335,-7.86769437789917,-7.8792195320129395,10.64,10.0,0.0,25,25
1686415237.27989388,68333489,0.593634843826294,0.0,0.5927907228469849,0.5,-7.843379020690918,-7.841855525970459,-7.865265369415283,10.64,10.0,0.0,25,25
1686415237.38068700,68434282,0.594016969203949,0.0,0.5922608375549316,0.5,-7.817439079284668,-7.816208839416504,-7.820035934448242,10.64,10.0,0.0,25,25
1686415237.48064685,68534242,0.5934994220733643,0.0,0.5929363369941711,0.5,-7.7917256355285645,-7.790377616882324,-7.791467666625977,10.64,10.0,0.0,25,25
1686415237.58060694,68634202,0.589545488357544,0.0,0.5910539031028748,0.5,-7.766017436981201,-7.76384973526001,-7.791727542877197,10.64,10.0,0.0,25,25
1686415237.68056703,68734162,0.5898500680923462,0.0,0.5888793468475342,0.5,-7.740309238433838,-7.738041400909424,-7.774986267089844,10.64,10.02,0.0,25,25
1686415237.78052688,68834122,0.5970255732536316,0.0,0.5877653956413269,0.5,-7.714742660522461,-7.713637351989746,-7.7552385330200195,10.64,10.02,0.0,25,24
1686415237.88048697,68934082,0.6044191122055054,0.0,0.5934174656867981,0.5,-7.689374923706055,-7.690578937530518,-7.728439807891846,10.64,10.040000000000001,0.0,25,24
1686415237.98044682,69034042,0.610857367515564,0.0,0.5975539088249207,0.5,-7.664252758026123,-7.668123722076416,-7.687239170074463,10.64,10.02,0.0,26,24
1686415238.08040690,69134002,0.6090299487113953,0.0,0.6045462489128113,0.5,-7.639290809631348,-7.644907474517822,-7.663283824920654,10.64,10.02,0.0,26,25
1686415238.18036699,69233962,0.6063084602355957,0.0,0.6044198274612427,0.5,-7.614338397979736,-7.62049674987793,-7.6183857917785645,10.64,10.040000000000001,0.0,26,26
1686415238.28032684,69333922,0.600456714630127,0.0,0.5984752774238586,0.5,-7.589527606964111,-7.594399929046631,-7.609863758087158,10.64,10.040000000000001,0.0,26,26
1686415238.38028693,69433882,0.5941665172576904,0.0,0.5925483703613281,0.5,-7.564918041229248,-7.5679521560668945,-7.59507417678833,10.64,10.040000000000001,0.0,25,26
1686415238.48024702,69533842,0.5933423042297363,0.0,0.5890030860900879,0.5,-7.54045295715332,-7.542366981506348,-7.568170547485352,10.64,10.040000000000001,0.0,25,25
1686415238.58020687,69633802,0.5951827764511108,0.0,0.5893979072570801,0.5,-7.516095161437988,-7.517712116241455,-7.545750141143799,10.64,10.040000000000001,0.0,24,25
1686415238.68016696,69733762,0.5983648896217346,0.0,0.5915750861167908,0.5,-7.491804122924805,-7.493823051452637,-7.499716758728027,10.64,10.02,0.0,24,24
1686415238.78012705,69833722,0.5947680473327637,0.0,0.5968562960624695,0.5,-7.467422008514404,-7.46937894821167,-7.475944519042969,10.64,10.02,0.0,25,24
1686415238.88008690,69933682,0.5911279320716858,0.0,0.5954540371894836,0.5,-7.44287109375,-7.444046497344971,-7.4558634757995605,10.64,10.040000000000001,0.0,24,25
1686415238.98004699,70033642,0.590739905834198,0.0,0.5889204144477844,0.5,-7.418350696563721,-7.418455600738525,-7.413023948669434,10.64,10.02,0.0,24,25
1686415239.08000684,70133602,0.5843920111656189,0.0,0.5894484519958496,0.5,-7.393816947937012,-7.39226770401001,-7.411392688751221,10.64,10.02,0.0,24,24
1686415239.17996693,70233562,0.583279013633728,0.0,0.5858973860740662,0.5,-7.369163990020752,-7.366540908813477,-7.376021385192871,10.64,10.02,0.0,23,24
1686415239.27992702,70333522,0.5843498706817627,0.0,0.5854514241218567,0.5,-7.344429969787598,-7.341213226318359,-7.338258266448975,10.64,10.040000000000001,0.0,23,24
1686415239.37988687,70433482,0.5834071636199951,0.0,0.5813111662864685,0.5,-7.319789886474609,-7.315613269805908,-7.3184895515441895,10.64,10.040000000000001,0.0,23,24
1686415239.48067999,70534275,0.5801658034324646,0.0,0.5788868069648743,0.5,-7.29511833190918,-7.289896011352539,-7.3239898681640625,10.64,10.040000000000001,0.0,22,23
1686415239.58063984,70634235,0.5829911231994629,0.0,0.5779771208763123,0.5,-7.270762920379639,-7.265939235687256,-7.302156448364258,10.64,10.040000000000001,0.0,22,23
1686415239.68059993,70734195,0.5927734375,0.0,0.5864214897155762,0.5,-7.246445178985596,-7.243785381317139,-7.259115695953369,10.64,10.02,0.0,23,23
1686415239.78056002,70834155,0.5972445607185364,0.0,0.5950079560279846,0.5,-7.221962928771973,-7.221747875213623,-7.234071254730225,10.64,10.02,0.0,24,23
1686415239.88051987,70934115,0.5970251560211182,0.0,0.5984476804733276,0.5,-7.197344779968262,-7.198746681213379,-7.202719211578369,10.64,10.02,0.0,25,24
1686415239.98047996,71034075,0.5948445796966553,0.0,0.5950875878334045,0.5,-7.172680854797363,-7.1744561195373535,-7.182102203369141,10.64,10.040000000000001,0.0,25,24
1686415240.08044004,71134035,0.5909642577171326,0.0,0.5944098234176636,0.5,-7.148132801055908,-7.14937686920166,-7.150826454162598,10.64,10.02,0.0,24,24
1686415240.18039989,71233995,0.5866059064865112,0.0,0.5916969180107117,0.5,-7.123493194580078,-7.123666763305664,-7.134374141693115,10.64,10.02,0.0,24,25
1686415240.28035998,71333955,0.5852906107902527,0.0,0.5884270071983337,0.5,-7.098772048950195,-7.0978617668151855,-7.113605499267578,10.64,10.02,0.0,24,24
1686415240.38031983,71433915,0.5856029987335205,0.0,0.5840249061584473,0.5,-7.074037075042725,-7.072536945343018,-7.105231761932373,10.64,10.040000000000001,0.0,24,24
