timestamp,TimeUS,ThI,ABst,ThO,ThH,DAlt,Alt,BAlt,DSAlt,SAlt,TAlt,DCRt,CRt
1685897804.58056808,6634845,0.0,0.0,0.5,0.5,0.0,-0.3111017048358917,-0.22729192674160004,0.0,0.0,0.0,0,9
1685897804.68052816,6734805,0.0,0.0,0.5,0.5,0.0,-0.3075524568557739,-0.4706433415412903,0.0,0.0,0.0,0,9
1685897804.78048801,6834765,0.0,0.0,0.5,0.5,0.0,-0.30772578716278076,-0.10700653493404388,0.0,0.0,0.0,0,8
1685897804.88044810,6934725,0.0,0.0,0.5,0.5,0.0,-0.2950025796890259,-0.4119786322116852,0.0,0.0,0.0,0,9
1685897804.98040795,7034685,0.0,0.0,0.5,0.5,0.0,-0.2803858816623688,-0.4711487591266632,0.0,0.0,0.0,0,10
1685897805.08036804,7134645,0.0,0.0,0.5,0.5,0.0,-0.28327256441116333,-0.17937339842319489,0.0,0.0,0.0,0,8
1685897805.18032813,7234605,0.0,0.0,0.5,0.5,0.0,-0.2813209891319275,-0.21110491454601288,0.0,0.0,0.0,0,8
1685897805.28028798,7334565,0.0,0.0,0.5,0.5,0.0,-0.26665064692497253,-0.15889109671115875,0.0,0.0,0.0,0,9
1685897805.38024807,7434525,0.0,0.0,0.5,0.5,0.0,-0.24204282462596893,-0.35924267768859863,0.0,0.0,0.0,0,12
1685897805.48020816,7534485,0.0,0.0,0.4937500059604645,0.5,0.0,-0.22320687770843506,-0.21674425899982452,0.0,0.0,0.0,0,13
1685897805.58016801,7634445,0.0,0.0,0.25,0.5,0.0,-0.21032260358333588,-0.3381505012512207,0.0,0.0,0.0,0,5
1685897805.68012810,7734405,0.0,0.0,0.25,0.5,0.0,-0.22185468673706055,-0.37939971685409546,0.0,0.0,0.0,0,-17
1685897805.78008795,7834365,0.0,0.0,0.25,0.5,0.0,-0.2648899257183075,-0.4238576292991638,0.0,0.0,0.0,0,-36
1685897805.88004804,7934325,0.0,0.0,0.25,0.5,0.0,-0.3311403691768646,-0.4571866989135742,0.0,0.0,0.0,0,-48
1685897805.98000813,8034285,0.0,0.0,0.25,0.5,0.0,-0.41445350646972656,-0.42001673579216003,0.0,0.0,0.0,0,-56
1685897806.07996798,8134245,0.0,0.0,0.25,0.5,0.0,-0.49424856901168823,-0.3180883228778839,0.0,0.0,0.0,0,-60
1685897806.17992806,8234205,0.0,0.0,0.25,0.5,0.0,-0.5603652000427246,-0.34921956062316895,0.0,0.0,0.0,0,-61
1685897806.27988815,8334165,0.0,0.0,0.25,0.5,0.0,-0.6113048791885376,-0.5074585676193237,0.0,0.0,0.0,0,-60
1685897806.37984800,8434125,0.0,0.0,0.25,0.5,0.0,-0.657344400882721,-0.5833801031112671,0.0,0.0,0.0,0,-58
1685897806.47980809,8534085,0.0,0.0,0.25,0.5,0.0,-0.7035171985626221,-0.5889189839363098,0.0,0.0,0.0,0,-57
1685897806.58060098,8634878,0.0,0.0,0.25,0.5,0.0,-0.7481344938278198,-0.6887707114219666,0.0,0.0,0.0,0,-55
1685897806.68056107,8734838,0.0,0.0,0.25,0.5,0.0,-0.7929892539978027,-0.6517291069030762,0.0,0.0,0.0,0,-54
1685897806.78052115,8834798,0.0,0.0,0.25,0.5,0.0,-0.8342770338058472,-1.0483481884002686,0.0,0.0,0.0,0,-53
1685897806.88048100,8934758,0.0,0.0,0.25,0.5,0.0,-0.8911594152450562,-1.130471110343933,0.0,0.0,0.0,0,-53
1685897806.98044109,9034718,0.0,0.0,0.25,0.5,0.0,-0.9662525653839111,-0.7947544455528259,0.0,0.0,0.0,0,-55
1685897807.08040094,9134678,0.0,0.0,0.25,0.5,0.0,-1.0322006940841675,-1.151355266571045,0.0,0.0,0.0,0,-56
1685897807.18036103,9234638,0.0,0.0,0.25,0.5,0.0,-1.1007202863693237,-0.9524641036987305,0.0,0.0,0.0,0,-56
1685897807.28032112,9334598,0.0,0.0,0.25,0.5,0.0,-1.1616859436035156,-1.0241470336914062,0.0,0.0,0.0,0,-56
1685897807.38028097,9434558,0.0,0.0,0.25,0.5,0.0,-1.2136833667755127,-1.265254259109497,0.0,0.0,0.0,0,-56
1685897807.48024106,9534518,0.0,0.0,0.25,0.5,0.0,-1.2693949937820435,-1.4714444875717163,0.0,0.0,0.0,0,-55
1685897807.58020115,9634478,0.0,0.0,0.25,0.5,0.0,-1.3385039567947388,-1.3531696796417236,0.0,0.0,0.0,0,-56
1685897807.68016100,9734438,0.0,0.0,0.25,0.5,0.0,-1.4094632863998413,-1.229327917098999,0.0,0.0,0.0,0,-57
1685897807.78012109,9834398,0.0,0.0,0.25,0.5,0.0,-1.4699114561080933,-1.5879623889923096,0.0,0.0,0.0,0,-57
1685897807.88008094,9934358,0.0,0.0,0.25,0.5,0.0,-1.5347591638565063,-1.435154676437378,0.0,0.0,0.0,0,-58
1685897807.98004103,10034318,0.0,0.0,0.25,0.5,0.0,-1.5964785814285278,-1.5745089054107666,0.0,0.0,0.0,0,-58
1685897808.08000112,10134278,0.0,0.0,0.25,0.5,0.0,-1.6571413278579712,-1.827968716621399,0.0,0.0,0.0,0,-58
1685897808.17996097,10234238,0.0,0.0,0.25,0.5,0.0,-1.727067232131958,-1.8050135374069214,0.0,0.0,0.0,0,-59
1685897808.27992105,10334198,0.0,0.0,0.25,0.5,0.0,-1.8024353981018066,-1.9144914150238037,0.0,0.0,0.0,0,-60
1685897808.37988114,10434158,0.0,0.0,0.25,0.5,0.0,-1.8822455406188965,-1.7583951950073242,0.0,0.0,0.0,0,-61
1685897808.47984099,10534118,0.0,0.0,0.25,0.5,0.0,-1.954591155052185,-1.8016302585601807,0.0,0.0,0.0,0,-62
1685897808.57980108,10634078,0.0,0.0,0.25,0.5,0.0,-2.017062187194824,-1.9768232107162476,0.0,0.0,0.0,0,-62
1685897808.68059397,10734871,0.0,0.0,0.25,0.5,0.0,-2.0781991481781006,-2.22977352142334,0.0,0.0,0.0,0,-61
1685897808.78055406,10834831,0.0,0.0,0.25,0.5,0.0,-2.1484768390655518,-2.254741668701172,0.0,0.0,0.0,0,-62
1685897808.88051414,10934791,0.0,0.0,0.25,0.5,0.0,-2.226370334625244,-2.179290533065796,0.0,0.0,0.0,0,-63
1685897808.98047400,11034751,0.0,0.0,0.25,0.5,0.0,-2.3019559383392334,-2.2874481678009033,0.0,0.0,0.0,0,-64
1685897809.08043408,11134711,0.0,0.0,0.25,0.5,0.0,-2.375516176223755,-2.278179168701172,0.0,0.0,0.0,0,-65
1685897809.18039417,11234671,0.0,0.0,0.25,0.5,0.0,-2.444415330886841,-2.3860275745391846,0.0,0.0,0.0,0,-65
1685897809.28035402,11334631,0.0,0.0,0.25,0.5,0.0,-2.5108425617218018,-2.323982000350952,0.0,0.0,0.0,0,-65
1685897809.38031411,11434591,0.0,0.0,0.25,0.5,0.0,-2.5701234340667725,-2.564368724822998,0.0,0.0,0.0,0,-65
1685897809.48027396,11534551,0.0,0.0,0.25,0.5,0.0,-2.6310219764709473,-2.725529432296753,0.0,0.0,0.0,0,-64
1685897809.58023405,11634511,0.0,0.0,0.25,0.5,0.0,-2.700291633605957,-2.5055062770843506,0.0,0.0,0.0,0,-65
1685897809.68019414,11734471,0.0,0.0,0.25,0.5,0.0,-2.7628962993621826,-2.482698440551758,0.0,0.0,0.0,0,-65
1685897809.78015399,11834431,0.0,0.0,0.25,0.5,0.0,-2.8136160373687744,-2.8245208263397217,0.0,0.0,0.0,0,-63
1685897809.88011408,11934391,0.0,0.0,0.25,0.5,0.0,-2.8676795959472656,-2.8919594287872314,0.0,0.0,0.0,0,-63
1685897809.98007417,12034351,0.0,0.0,0.25,0.5,0.0,-2.928614377975464,-2.9086663722991943,0.0,0.0,0.0,0,-63
1685897810.08003402,12134311,0.0,0.0,0.25,0.5,0.0,-2.992471218109131,-2.7748923301696777,0.0,0.0,0.0,0,-63
1685897810.17999411,12234271,0.0,0.0,0.25,0.5,0.0,-3.0490994453430176,-2.907670497894287,0.0,0.0,0.0,0,-62
1685897810.27995396,12334231,0.0,0.0,0.25,0.5,0.0,-3.1003026962280273,-3.1058762073516846,0.0,0.0,0.0,0,-61
1685897810.37991405,12434191,0.0,0.0,0.25,0.5,0.0,-3.155665874481201,-2.9577455520629883,0.0,0.0,0.0,0,-61
1685897810.47987413,12534151,0.0,0.0,0.25,0.5,0.0,-3.206444263458252,-3.3549513816833496,0.0,0.0,0.0,0,-60
1685897810.57983398,12634111,0.0,0.0,0.25,0.5,0.0,-3.2669034004211426,-3.3200342655181885,0.0,0.0,0.0,0,-60
1685897810.67979407,12734071,0.0,0.0,0.25,0.5,0.0,-3.334536552429199,-3.1684319972991943,0.0,0.0,0.0,0,-61
1685897810.78058696,12834864,0.0,0.0,0.25,0.5,0.0,-3.396376848220825,-3.2345352172851562,0.0,0.0,0.0,0,-61
1685897810.88054705,12934824,0.0,0.0,0.25,0.5,0.0,-3.4503719806671143,-3.2764103412628174,0.0,0.0,0.0,0,-60
1685897810.98050714,13034784,0.0,0.0,0.25,0.5,0.0,-3.4990336894989014,-3.350825071334839,0.0,0.0,0.0,0,-59
1685897811.08046699,13134744,0.0,0.0,0.25,0.5,0.0,-3.5436697006225586,-3.5746214389801025,0.0,0.0,0.0,0,-58
1685897811.18042707,13234704,0.0,0.0,0.25,0.5,0.0,-3.5927696228027344,-3.593688726425171,0.0,0.0,0.0,0,-57
1685897811.28038716,13334664,0.0,0.0,0.25,0.5,0.0,-3.6473910808563232,-3.5429742336273193,0.0,0.0,0.0,0,-57
1685897811.38034701,13434624,0.0,0.0,0.25,0.5,0.0,-3.70097017288208,-3.667792558670044,0.0,0.0,0.0,0,-57
1685897811.48030710,13534584,0.0,0.0,0.25,0.5,0.0,-3.754178285598755,-3.827341318130493,0.0,0.0,0.0,0,-56
1685897811.58026695,13634544,0.0,0.0,0.25,0.5,0.0,-3.812629222869873,-3.645656108856201,0.0,0.0,0.0,0,-57
1685897811.68022704,13734504,0.0,0.0,0.25,0.5,0.0,-3.8675973415374756,-4.089927673339844,0.0,0.0,0.0,0,-56
1685897811.78018713,13834464,0.0,0.0,0.25,0.5,0.0,-3.929625988006592,-3.7971549034118652,0.0,0.0,0.0,0,-57
1685897811.88014698,13934424,0.0,0.0,0.25,0.5,0.0,-3.991868495941162,-4.12445068359375,0.0,0.0,0.0,0,-57
1685897811.98010707,14034384,0.0,0.0,0.25,0.5,0.0,-4.056773662567139,-3.9326331615448,0.0,0.0,0.0,0,-58
1685897812.08006716,14134344,0.0,0.0,0.25,0.5,0.0,-4.119265556335449,-4.105286121368408,0.0,0.0,0.0,0,-58
1685897812.18002701,14234304,0.0,0.0,0.25,0.5,0.0,-4.179486274719238,-4.066936492919922,0.0,0.0,0.0,0,-58
1685897812.27998710,14334264,0.0,0.0,0.25,0.5,0.0,-4.235827922821045,-4.219039440155029,0.0,0.0,0.0,0,-57
1685897812.37994695,14434224,0.0,0.0,0.25,0.5,0.0,-4.291421413421631,-4.377586841583252,0.0,0.0,0.0,0,-57
1685897812.47990704,14534184,0.0,0.0,0.25,0.5,0.0,-4.352511882781982,-4.409369468688965,0.0,0.0,0.0,0,-57
1685897812.57986712,14634144,0.0,0.0,0.25,0.5,0.0,-4.41855525970459,-4.413358688354492,0.0,0.0,0.0,0,-58
1685897812.67982697,14734104,0.0,0.0,0.25,0.5,0.0,-4.485162258148193,-4.4343485832214355,0.0,0.0,0.0,0,-59
1685897812.77978706,14834064,0.0,0.0,0.25,0.5,0.0,-4.549200534820557,-4.756616115570068,0.0,0.0,0.0,0,-59
1685897812.88057995,14934857,0.0,0.0,0.25,0.5,0.0,-4.62117338180542,-4.6359686851501465,0.0,0.0,0.0,0,-60
1685897812.98054004,15034817,0.0,0.0,0.25,0.5,0.0,-4.696107387542725,-4.638068199157715,0.0,0.0,0.0,0,-61
1685897813.08050013,15134777,0.0,0.0,0.25,0.5,0.0,-4.76681661605835,-4.774473190307617,0.0,0.0,0.0,0,-61
1685897813.18045998,15234737,0.0,0.0,0.25,0.5,0.0,-4.83585786819458,-4.834702491760254,0.0,0.0,0.0,0,-62
1685897813.28042006,15334697,0.0,0.0,0.25,0.5,0.0,-4.905029296875,-4.937612533569336,0.0,0.0,0.0,0,-62
1685897813.38038015,15434657,0.0,0.0,0.25,0.5,0.0,-4.975636959075928,-5.117803573608398,0.0,0.0,0.0,0,-63
1685897813.48034000,15534617,0.0,0.0,0.25,0.5,0.0,-5.0524797439575195,-4.921327114105225,0.0,0.0,0.0,0,-64
1685897813.58030009,15634577,0.0,0.0,0.25,0.5,0.0,-5.125665664672852,-5.244654655456543,0.0,0.0,0.0,0,-65
1685897813.68025994,15734537,0.0,0.0,0.25,0.5,0.0,-5.200494766235352,-4.952414512634277,0.0,0.0,0.0,0,-65
1685897813.78022003,15834497,0.0,0.0,0.25,0.5,0.0,-5.267706871032715,-5.2751665115356445,0.0,0.0,0.0,0,-65
1685897813.88018012,15934457,0.0,0.0,0.25,0.5,0.0,-5.331343173980713,-5.379613399505615,0.0,0.0,0.0,0,-65
1685897813.98013997,16034417,0.0,0.0,0.25,0.5,0.0,-5.400482177734375,-5.233516216278076,0.0,0.0,0.0,0,-65
1685897814.08010006,16134377,0.0,0.0,0.25,0.5,0.0,-5.465695858001709,-5.420370578765869,0.0,0.0,0.0,0,-65
1685897814.18006015,16234337,0.0,0.0,0.25,0.5,0.0,-5.528375625610352,-5.600543022155762,0.0,0.0,0.0,0,-65
1685897814.28002000,16334297,0.0,0.0,0.25,0.5,0.0,-5.59757137298584,-5.631504535675049,0.0,0.0,0.0,0,-66
1685897814.37998009,16434257,0.0,0.0,0.25,0.5,0.0,-5.670870304107666,-5.613600730895996,0.0,0.0,0.0,0,-66
1685897814.47993994,16534217,0.0,0.0,0.25,0.5,0.0,-5.742739677429199,-5.765310287475586,0.0,0.0,0.0,0,-67
1685897814.57990003,16634177,0.0,0.0,0.25,0.5,0.0,-5.81614875793457,-5.837540626525879,0.0,0.0,0.0,0,-67
1685897814.67986012,16734137,0.0,0.0,0.25,0.5,0.0,-5.891855239868164,-5.620882511138916,0.0,0.0,0.0,0,-68
1685897814.77981997,16834097,0.0,0.0,0.25,0.5,0.0,-5.955936908721924,-5.905951023101807,0.0,0.0,0.0,0,-68
1685897814.87978005,16934057,0.0,0.0,0.25,0.5,0.0,-6.017870903015137,-5.754308700561523,0.0,0.0,0.0,0,-67
1685897814.98057294,17034850,0.0,0.0,0.25,0.5,0.0,-6.072012424468994,-5.81697940826416,0.0,0.0,0.0,0,-66
1685897815.08053303,17134810,0.0,0.0,0.25,0.5,0.0,-6.116996765136719,-6.074012279510498,0.0,0.0,0.0,0,-64
1685897815.18049312,17234770,0.0,0.0,0.25,0.5,0.0,-6.165386199951172,-6.083390235900879,0.0,0.0,0.0,0,-63
1685897815.28045297,17334730,0.0,0.0,0.25,0.5,0.0,-6.216782569885254,-5.9951395988464355,0.0,0.0,0.0,0,-62
1685897815.38041306,17434690,0.0,0.0,0.25,0.5,0.0,-6.263853549957275,-6.258325099945068,0.0,0.0,0.0,0,-61
1685897815.48037314,17534650,0.0,0.0,0.25,0.5,0.0,-6.312986850738525,-6.413978576660156,0.0,0.0,0.0,0,-61
1685897815.58033299,17634610,0.0,0.0,0.25,0.5,0.0,-6.372015476226807,-6.452347755432129,0.0,0.0,0.0,0,-61
1685897815.68029308,17734570,0.0,0.0,0.25,0.5,0.0,-6.439288139343262,-6.5577287673950195,0.0,0.0,0.0,0,-61
1685897815.78025317,17834530,0.0,0.0,0.25,0.5,0.0,-6.513382911682129,-6.304047584533691,0.0,0.0,0.0,0,-62
1685897815.88021302,17934490,0.0,0.0,0.25,0.5,0.0,-6.580399513244629,-6.535415172576904,0.0,0.0,0.0,0,-63
1685897815.98017311,18034450,0.0,0.0,0.25,0.5,0.0,-6.64142370223999,-6.429139614105225,0.0,0.0,0.0,0,-62
1685897816.08013296,18134410,0.0,0.0,0.25,0.5,0.0,-6.636098384857178,-6.538136959075928,0.0,0.0,0.0,0,-62
1685897816.18009305,18234370,0.0,0.0,0.25,0.5,0.0,-6.68438720703125,-6.879520893096924,0.0,0.0,0.0,0,-60
1685897816.28005314,18334330,0.0,0.0,0.25,0.5,0.0,-6.740525245666504,-6.773130416870117,0.0,0.0,0.0,0,-60
1685897816.38001299,18434290,0.0,0.0,0.25,0.5,0.0,-6.802457332611084,-6.639830112457275,0.0,0.0,0.0,0,-60
1685897816.47997308,18534250,0.0,0.0,0.25,0.5,0.0,-6.856502532958984,-6.694457054138184,0.0,0.0,0.0,0,-60
1685897816.57993317,18634210,0.0,0.0,0.25,0.5,0.0,-6.90104341506958,-7.048717498779297,0.0,0.0,0.0,0,-58
1685897816.67989302,18734170,0.0,0.0,0.25,0.5,0.0,-6.950675010681152,-7.171678066253662,0.0,0.0,0.0,0,-58
1685897816.77985311,18834130,0.0,0.0,0.25,0.5,0.0,-7.013094902038574,-7.006070613861084,0.0,0.0,0.0,0,-58
1685897816.87981296,18934090,0.0,0.0,0.25,0.5,0.0,-7.077129364013672,-7.071239471435547,0.0,0.0,0.0,0,-59
1685897816.97977304,19034050,0.0,0.0,0.25,0.5,0.0,-7.137503623962402,-7.095923900604248,0.0,0.0,0.0,0,-59
1685897817.08056617,19134843,0.0,0.0,0.25,0.5,0.0,-7.19439697265625,-7.3562092781066895,0.0,0.0,0.0,0,-58
1685897817.18052602,19234803,0.0,0.0,0.25,0.5,0.0,-7.255125999450684,-7.446180820465088,0.0,0.0,0.0,0,-58
1685897817.28048611,19334763,0.0,0.0,0.25,0.5,0.0,-7.32436990737915,-7.491049766540527,0.0,0.0,0.0,0,-59
1685897817.38044596,19434723,0.0,0.0,0.25,0.5,0.0,-7.3994598388671875,-7.287055969238281,0.0,0.0,0.0,0,-60
1685897817.48040605,19534683,0.0,0.0,0.25,0.5,0.0,-7.467584609985352,-7.440990924835205,0.0,0.0,0.0,0,-61
1685897817.58036613,19634643,0.0,0.0,0.25,0.5,0.0,-7.528388500213623,-7.472145080566406,0.0,0.0,0.0,0,-61
1685897817.68032598,19734603,0.0,0.0,0.25,0.5,0.0,-7.584761142730713,-7.645707130432129,0.0,0.0,0.0,0,-60
1685897817.78028607,19834563,0.0,0.0,0.25,0.5,0.0,-7.6419358253479,-7.782985687255859,0.0,0.0,0.0,0,-60
1685897817.88024616,19934523,0.0,0.0,0.25,0.5,0.0,-7.70526123046875,-7.893513202667236,0.0,0.0,0.0,0,-60
1685897817.98020601,20034483,0.0,0.0,0.25,0.5,0.0,-7.776515960693359,-7.918151378631592,0.0,0.0,0.0,0,-61
1685897818.08016610,20134443,0.0,0.0,0.25,0.5,0.0,-7.852177619934082,-7.862306118011475,0.0,0.0,0.0,0,-62
1685897818.18012595,20234403,0.0,0.0,0.25,0.5,0.0,-7.925938129425049,-8.023343086242676,0.0,0.0,0.0,0,-63
1685897818.28008604,20334363,0.0,0.0,0.25,0.5,0.0,-7.9988532066345215,-8.155152320861816,0.0,0.0,0.0,0,-64
1685897818.38004613,20434323,0.0,0.0,0.25,0.5,0.0,-8.075572967529297,-8.123223304748535,0.0,0.0,0.0,0,-65
1685897818.48000598,20534283,0.0,0.0,0.25,0.5,0.0,-8.152826309204102,-7.912492752075195,0.0,0.0,0.0,0,-65
1685897818.57996607,20634243,0.0,0.0,0.25,0.5,0.0,-8.216402053833008,-8.056190490722656,0.0,0.0,0.0,0,-65
1685897818.67992616,20734203,0.0,0.0,0.25,0.5,0.0,-8.267875671386719,-8.156853675842285,0.0,0.0,0.0,0,-64
1685897818.77988601,20834163,0.0,0.0,0.25,0.5,0.0,-8.31429672241211,-8.296807289123535,0.0,0.0,0.0,0,-62
1685897818.87984610,20934123,0.0,0.0,0.25,0.5,0.0,-8.361593246459961,-8.516947746276855,0.0,0.0,0.0,0,-61
1685897818.97980595,21034083,0.0,0.0,0.25,0.5,0.0,-8.417957305908203,-8.599557876586914,0.0,0.0,0.0,0,-61
1685897819.08059907,21134876,0.0,0.0,0.25,0.5,0.0,-8.486808776855469,-8.621657371520996,0.0,0.0,0.0,0,-62
1685897819.18055916,21234836,0.0,0.0,0.25,0.5,0.0,-8.56096076965332,-8.34102725982666,0.0,0.0,0.0,0,-63
1685897819.28051901,21334796,0.0,0.0,0.25,0.5,0.0,-8.622492790222168,-8.669063568115234,0.0,0.0,0.0,0,-63
1685897819.38047910,21434756,0.0,0.0,0.25,0.5,0.0,-8.682366371154785,-8.62758731842041,0.0,0.0,0.0,0,-62
1685897819.48043895,21534716,0.0,0.0,0.25,0.5,0.0,-8.740086555480957,-8.7989501953125,0.0,0.0,0.0,0,-62
1685897819.58039904,21634676,0.0,0.0,0.25,0.5,0.0,-8.800026893615723,-8.859086036682129,0.0,0.0,0.0,0,-62
1685897819.68035913,21734636,0.0,0.0,0.25,0.5,0.0,-8.863080024719238,-8.903847694396973,0.0,0.0,0.0,0,-62
1685897819.78031898,21834596,0.0,0.0,0.25,0.5,0.0,-8.927513122558594,-8.992812156677246,0.0,0.0,0.0,0,-62
1685897819.88027906,21934556,0.0,0.0,0.25,0.5,0.0,-8.993827819824219,-9.03682804107666,0.0,0.0,0.0,0,-62
1685897819.98023915,22034516,0.0,0.0,0.25,0.5,0.0,-9.06085205078125,-9.080421447753906,0.0,0.0,0.0,0,-63
1685897820.08019900,22134476,0.0,0.0,0.25,0.5,0.0,-9.127069473266602,-8.893798828125,0.0,0.0,0.0,0,-63
1685897820.18015909,22234436,0.0,0.0,0.25,0.5,0.0,-9.180268287658691,-9.043414115905762,0.0,0.0,0.0,0,-62
1685897820.28011894,22334396,0.0,0.0,0.25,0.5,0.0,-9.225921630859375,-9.196151733398438,0.0,0.0,0.0,0,-61
1685897820.38007903,22434356,0.0,0.0,0.25,0.5,0.0,-9.271815299987793,-9.20520305633545,0.0,0.0,0.0,0,-59
1685897820.48003912,22534316,0.0,0.0,0.25,0.5,0.0,-9.317365646362305,-9.467621803283691,0.0,0.0,0.0,0,-58
1685897820.57999897,22634276,0.0,0.0,0.25,0.5,0.0,-9.372335433959961,-9.422585487365723,0.0,0.0,0.0,0,-58
1685897820.67995906,22734236,0.0,0.0,0.25,0.5,0.0,-9.43137264251709,-9.353206634521484,0.0,0.0,0.0,0,-58
1685897820.77991915,22834196,0.0,0.0,0.25,0.5,0.0,-9.486212730407715,-9.336766242980957,0.0,0.0,0.0,0,-58
1685897820.87987900,22934156,0.0,0.0,0.25,0.5,0.0,-9.532824516296387,-9.768892288208008,0.0,0.0,0.0,0,-57
1685897820.97983909,23034116,0.0,0.0,0.25,0.5,0.0,-9.590152740478516,-9.72581672668457,0.0,0.0,0.0,0,-57
1685897821.07979918,23134076,0.0,0.0,0.25,0.5,0.0,-9.65572452545166,-9.611536026000977,0.0,0.0,0.0,0,-58
1685897821.18059206,23234869,0.0,0.0,0.25,0.5,0.0,-9.71799087524414,-9.629256248474121,0.0,0.0,0.0,0,-58
1685897821.28055215,23334829,0.0,0.0,0.25,0.5,0.0,-9.772541999816895,-9.639871597290039,0.0,0.0,0.0,0,-58
1685897821.38051200,23434789,0.0,0.0,0.25,0.5,0.0,-9.819205284118652,-10.044189453125,0.0,0.0,0.0,0,-56
1685897821.48047209,23534749,0.0,0.0,0.25,0.5,0.0,-9.875988960266113,-10.121458053588867,0.0,0.0,0.0,0,-56
1685897821.58043194,23634709,0.0,0.0,0.25,0.5,0.0,-9.94420051574707,-10.124064445495605,0.0,0.0,0.0,0,-57
1685897821.68039203,23734669,0.0,0.0,0.5,0.5,0.0,-10.015616416931152,-10.036602973937988,0.0,0.0,0.0,0,-46
1685897821.78035212,23834629,0.0,0.0,0.5,0.5,0.0,-10.069869995117188,-10.16643238067627,0.0,0.0,0.0,0,-35
1685897821.88031197,23934589,0.0,0.0,0.5,0.5,0.0,-10.112436294555664,-10.187135696411133,0.0,0.0,0.0,0,-29
1685897821.98027205,24034549,0.0,0.0,0.5,0.5,0.0,-10.147966384887695,-10.201118469238281,0.0,0.0,0.0,0,-24
1685897822.08023214,24134509,0.0,0.0,0.5,0.5,0.0,-10.177240371704102,-10.087189674377441,0.0,0.0,0.0,0,-21
1685897822.18019199,24234469,0.0,0.0,0.5,0.5,0.0,-10.195751190185547,-10.155391693115234,0.0,0.0,0.0,0,-18
1685897822.28015208,24334429,0.0,0.0,0.5,0.5,0.0,-10.205573081970215,-10.438529014587402,0.0,0.0,0.0,0,-15
1685897822.38011217,24434389,0.0,0.0,0.5,0.5,0.0,-10.220484733581543,-10.136649131774902,0.0,0.0,0.0,0,-13
1685897822.48007202,24534349,0.0,0.0,0.5,0.5,0.0,-10.232121467590332,-10.282025337219238,0.0,0.0,0.0,0,-11
1685897822.58003211,24634309,0.0,0.0,0.5,0.5,0.0,-10.23962116241455,-10.152589797973633,0.0,0.0,0.0,0,-10
1685897822.67999196,24734269,0.0,0.0,0.5,0.5,0.0,-10.24142837524414,-10.379034996032715,0.0,0.0,0.0,0,-8
1685897822.77995205,24834229,0.0,0.0,0.5,0.5,0.0,-10.244542121887207,-10.263022422790527,0.0,0.0,0.0,0,-6
1685897822.87991214,24934189,0.0,0.0,0.5,0.5,0.0,-10.248391151428223,-10.195531845092773,0.0,0.0,0.0,0,-5
1685897822.97987199,25034149,0.0,0.0,0.5,0.5,0.0,-10.247121810913086,-10.504045486450195,0.0,0.0,0.0,0,-4
1685897823.07983208,25134109,0.0,0.0,0.5,0.5,0.0,-10.252429008483887,-10.440611839294434,0.0,0.0,0.0,0,-3
1685897823.17979217,25234069,0.0,0.0,0.5,0.5,0.0,-10.266013145446777,-10.237783432006836,0.0,0.0,0.0,0,-3
1685897823.28058505,25334862,0.0,0.0,0.5,0.5,0.0,-10.275457382202148,-10.429616928100586,0.0,0.0,0.0,0,-3
1685897823.38054514,25434822,0.0,0.0,0.5,0.5,0.0,-10.28433609008789,-10.367279052734375,0.0,0.0,0.0,0,-3
1685897823.48050499,25534782,0.0,0.0,0.5,0.5,0.0,-10.294538497924805,-10.440052032470703,0.0,0.0,0.0,0,-3
1685897823.58046508,25634742,0.0,0.0,0.5,0.5,0.0,-10.305744171142578,-10.48050594329834,0.0,0.0,0.0,0,-3
1685897823.68042517,25734702,0.0,0.0,0.5,0.5,0.0,-10.320475578308105,-10.171977996826172,0.0,0.0,0.0,0,-3
1685897823.78038502,25834662,0.0,0.0,0.5,0.5,0.0,-10.323383331298828,-10.200437545776367,0.0,0.0,0.0,0,-2
1685897823.88034511,25934622,0.0,0.0,0.5,0.5,0.0,-10.314448356628418,-10.51941204071045,0.0,0.0,0.0,0,-1
1685897823.98030496,26034582,0.0,0.0,0.5,0.5,0.0,-10.312152862548828,-10.400873184204102,0.0,0.0,0.0,0,0
1685897824.08026505,26134542,0.0,0.0,0.5,0.5,0.0,-10.31356430053711,-10.339116096496582,0.0,0.0,0.0,0,0
1685897824.18022513,26234502,0.0,0.0,0.5,0.5,0.0,-10.312950134277344,-10.262309074401855,0.0,0.0,0.0,0,0
1685897824.28018498,26334462,0.0,0.0,0.5,0.5,0.0,-10.306331634521484,-10.163752555847168,0.0,0.0,0.0,0,1
1685897824.38014507,26434422,0.0,0.0,0.5,0.5,0.0,-10.289865493774414,-10.386302947998047,0.0,0.0,0.0,0,3
1685897824.48010516,26534382,0.0,0.0,0.5,0.5,0.0,-10.275697708129883,-10.170166969299316,0.0,0.0,0.0,0,4
1685897824.58006501,26634342,0.0,0.0,0.5,0.5,0.0,-10.25679874420166,-10.469578742980957,0.0,0.0,0.0,0,6
1685897824.68002510,26734302,0.0,0.0,0.5,0.5,0.0,-10.245885848999023,-10.3230619430542,0.0,0.0,0.0,0,7
1685897824.77998495,26834262,0.0,0.0,0.5,0.5,0.0,-10.238601684570312,-10.338248252868652,0.0,0.0,0.0,0,7
1685897824.87994504,26934222,0.0,0.0,0.5,0.5,0.0,-10.232799530029297,-10.183245658874512,0.0,0.0,0.0,0,7
1685897824.97990513,27034182,0.0,0.0,0.5,0.5,0.0,-10.221305847167969,-10.189264297485352,0.0,0.0,0.0,0,8
1685897825.07986498,27134142,0.0,0.0,0.5,0.5,0.0,-10.20428466796875,-10.16191291809082,0.0,0.0,0.0,0,9
1685897825.17982507,27234102,0.0,0.0,0.5,0.5,0.0,-10.182812690734863,-10.365676879882812,0.0,0.0,0.0,0,10
1685897825.27978516,27334062,0.0,0.0,0.5,0.5,0.0,-10.168086051940918,-10.453887939453125,0.0,0.0,0.0,0,11
1685897825.38057804,27434855,0.0,0.0,0.5,0.5,0.0,-10.16572380065918,-10.224072456359863,0.0,0.0,0.0,0,10
1685897825.48053813,27534815,0.0,0.0,0.5,0.5,0.0,-10.163236618041992,-10.124640464782715,0.0,0.0,0.0,0,10
1685897825.58049798,27634775,0.0,0.0,0.5,0.5,0.0,-10.15297794342041,-10.344090461730957,0.0,0.0,0.0,0,10
1685897825.68045807,27734735,0.0,0.0,0.5,0.5,0.0,-10.146364212036133,-10.261855125427246,0.0,0.0,0.0,0,10
1685897825.78041816,27834695,0.0,0.0,0.5,0.5,0.0,-10.142057418823242,-10.187639236450195,0.0,0.0,0.0,0,10
1685897825.88037801,27934655,0.0,0.0,0.5,0.5,0.0,-10.135204315185547,-10.103334426879883,0.0,0.0,0.0,0,10
1685897825.98033810,28034615,0.0,0.0,0.5,0.5,0.0,-10.12203598022461,-10.113897323608398,0.0,0.0,0.0,0,11
1685897826.08029795,28134575,0.0,0.0,0.5,0.5,0.0,-10.104337692260742,-10.049714088439941,0.0,0.0,0.0,0,11
1685897826.18025804,28234535,0.0,0.0,0.5,0.5,0.0,-10.08146858215332,-10.04910945892334,0.0,0.0,0.0,0,12
1685897826.28021812,28334495,0.0,0.0,0.5,0.5,0.0,-10.05507755279541,-10.012762069702148,0.0,0.0,0.0,0,14
1685897826.38017797,28434455,0.0,0.0,0.5,0.5,0.0,-10.025858879089355,-10.049415588378906,0.0,0.0,0.0,0,15
1685897826.48013806,28534415,0.0,0.0,0.5,0.5,0.0,-9.996969223022461,-10.091503143310547,0.0,0.0,0.0,0,16
1685897826.58009815,28634375,0.0,0.0,0.5,0.5,0.0,-9.972216606140137,-10.081828117370605,0.0,0.0,0.0,0,17
1685897826.68005800,28734335,0.0,0.0,0.5,0.5,0.0,-9.951791763305664,-10.346502304077148,0.0,0.0,0.0,0,17
1685897826.78001809,28834295,0.0,0.0,0.5,0.5,0.0,-9.947463989257812,-10.063854217529297,0.0,0.0,0.0,0,16
1685897826.87997794,28934255,0.0,0.0,0.5,0.5,0.0,-9.945999145507812,-10.17116641998291,0.0,0.0,0.0,0,15
1685897826.97993803,29034215,0.0,0.0,0.5,0.5,0.0,-9.94705867767334,-10.254206657409668,0.0,0.0,0.0,0,14
1685897827.07989812,29134175,0.0,0.0,0.5,0.5,0.0,-9.955751419067383,-9.975175857543945,0.0,0.0,0.0,0,12
1685897827.17985797,29234135,0.0,0.0,0.5,0.5,0.0,-9.960640907287598,-10.295381546020508,0.0,0.0,0.0,0,11
1685897827.27981806,29334095,0.0,0.0,0.5,0.5,0.0,-9.969470024108887,-9.98831844329834,0.0,0.0,0.0,0,10
1685897827.37977815,29434055,0.0,0.0,0.5,0.5,0.0,-9.975872993469238,-10.189774513244629,0.0,0.0,0.0,0,9
1685897827.48057103,29534848,0.0,0.0,0.5,0.5,0.0,-9.981809616088867,-9.925106048583984,0.0,0.0,0.0,0,8
1685897827.58053112,29634808,0.0,0.0,0.5,0.5,0.0,-9.981549263000488,-10.251078605651855,0.0,0.0,0.0,0,7
1685897827.68049097,29734768,0.0,0.0,0.5,0.5,0.0,-9.984132766723633,-10.10592269897461,0.0,0.0,0.0,0,6
1685897827.78045106,29834728,0.0,0.0,0.5,0.5,0.0,-9.990217208862305,-10.204560279846191,0.0,0.0,0.0,0,6
1685897827.88041115,29934688,0.0,0.0,0.5,0.5,0.0,-9.999605178833008,-9.971527099609375,0.0,0.0,0.0,0,4
1685897827.98037100,30034648,0.0,0.0,0.5,0.5,0.0,-10.00422477722168,-10.097679138183594,0.0,0.0,0.0,0,4
1685897828.08033109,30134608,0.0,0.0,0.5,0.5,0.0,-10.005386352539062,-10.020298957824707,0.0,0.0,0.0,0,3
1685897828.18029118,30234568,0.0,0.0,0.5,0.5,0.0,-10.003864288330078,-9.99780559539795,0.0,0.0,0.0,0,3
1685897828.28025103,30334528,0.0,0.0,0.5,0.5,0.0,-9.99813461303711,-9.838418960571289,0.0,0.0,0.0,0,3
1685897828.38021111,30434488,0.0,0.0,0.5,0.5,0.0,-9.98306655883789,-10.106639862060547,0.0,0.0,0.0,0,4
1685897828.48017097,30534448,0.0,0.0,0.5,0.5,0.0,-9.969169616699219,-9.899361610412598,0.0,0.0,0.0,0,5
1685897828.58013105,30634408,0.0,0.0,0.5,0.5,0.0,-9.954374313354492,-10.058931350708008,0.0,0.0,0.0,0,6
1685897828.68009114,30734368,0.0,0.0,0.5,0.5,0.0,-9.941513061523438,-9.79079818725586,0.0,0.0,0.0,0,6
1685897828.78005099,30834328,0.0,0.0,0.5,0.5,0.0,-9.92358684539795,-10.126736640930176,0.0,0.0,0.0,0,7
1685897828.88001108,30934288,0.0,0.0,0.5,0.5,0.0,-9.910205841064453,-10.043667793273926,0.0,0.0,0.0,0,7
1685897828.97997117,31034248,0.0,0.0,0.5,0.5,0.0,-9.904767990112305,-10.06520938873291,0.0,0.0,0.0,0,7
1685897829.07993102,31134208,0.3913915753364563,0.0,0.49676889181137085,0.5,-9.904422760009766,-9.904423713684082,-9.80416202545166,0.0,0.0,0.0,6,6
1685897829.17989111,31234168,0.39678817987442017,0.0,0.4087076485157013,0.5,-9.898938179016113,-9.898514747619629,-10.077242851257324,0.0,0.0,0.0,4,4
1685897829.27985096,31334128,0.43708986043930054,0.0,0.41499537229537964,0.5,-9.895251274108887,-9.896363258361816,-9.820384979248047,0.0,0.0,0.0,3,1
1685897829.37981105,31434088,0.4511567950248718,0.0,0.4421309530735016,0.5,-9.892784118652344,-9.893378257751465,-10.073899269104004,0.0,0.0,0.0,2,0
1685897829.47977114,31534048,0.4588582515716553,0.0,0.4468081295490265,0.5,-9.891134262084961,-9.893842697143555,-9.939149856567383,0.0,0.0,0.0,2,0
1685897829.58056402,31634841,0.4887326657772064,0.0,0.46978437900543213,0.5,-9.890022277832031,-9.896787643432617,-9.9237060546875,0.0,0.0,0.0,2,0
1685897829.68052411,31734801,0.49401235580444336,0.0,0.4854934513568878,0.5,-9.889286041259766,-9.897216796875,-10.032736778259277,0.0,0.0,0.0,2,0
1685897829.78048396,31834761,0.5053726434707642,0.0,0.4938322901725769,0.5,-9.888792991638184,-9.900175094604492,-10.066706657409668,0.0,0.0,0.0,3,0
1685897829.88044405,31934721,0.5568751692771912,0.0,0.519903838634491,0.5,-9.888463973999023,-9.90791130065918,-9.987486839294434,0.0,0.0,0.0,6,0
1685897829.98040414,32034681,0.596858024597168,0.0,0.5674751996994019,0.5,-9.888243675231934,-9.915275573730469,-9.963855743408203,0.0,0.0,0.0,8,0
1685897830.08036399,32134641,0.5814485549926758,0.0,0.583829402923584,0.5,-9.888096809387207,-9.918292045593262,-9.960103034973145,0.0,0.0,0.0,9,2
1685897830.18032408,32234601,0.5535016655921936,0.0,0.5708110928535461,0.5,-9.8879976272583,-9.91625690460205,-9.70766544342041,0.0,0.0,0.0,8,4
1685897830.28028417,32334561,0.47497886419296265,0.0,0.5335940718650818,0.5,-9.887931823730469,-9.89915943145752,-9.92855167388916,0.0,0.0,0.0,3,6
1685897830.38024402,32434521,0.3385917544364929,0.0,0.43363040685653687,0.5,-9.887884140014648,-9.87971019744873,-9.911552429199219,0.0,0.0,0.0,-2,7
1685897830.48020411,32534481,0.3586907982826233,0.0,0.36842310428619385,0.5,-9.887860298156738,-9.86426067352295,-9.990772247314453,0.0,0.0,0.0,-7,3
1685897830.58016396,32634441,0.4067118465900421,0.0,0.3798021078109741,0.5,-9.887835502624512,-9.86019229888916,-9.76327896118164,0.0,0.0,0.0,-8,-2
1685897830.68012404,32734401,0.4217745065689087,0.0,0.4101957082748413,0.5,-9.887819290161133,-9.856075286865234,-9.707645416259766,0.0,0.0,0.0,-9,-5
1685897830.78008413,32834361,0.3899726867675781,0.0,0.408586323261261,0.5,-9.887819290161133,-9.845658302307129,-9.705928802490234,0.0,0.0,0.0,-12,-6
1685897830.88004398,32934321,0.35542452335357666,0.0,0.38096675276756287,0.5,-9.887819290161133,-9.830903053283691,-9.83572006225586,0.0,0.0,0.0,-17,-7
1685897830.98000407,33034281,0.36378031969070435,0.0,0.3635860085487366,0.5,-9.887819290161133,-9.822073936462402,-9.978586196899414,0.0,0.0,0.0,-19,-11
1685897831.07996416,33134241,0.41127556562423706,0.0,0.3807097375392914,0.5,-9.887819290161133,-9.828036308288574,-9.849700927734375,0.0,0.0,0.0,-17,-15
1685897831.17992401,33234201,0.4507419764995575,0.0,0.4203292727470398,0.5,-9.887819290161133,-9.839483261108398,-10.095574378967285,0.0,0.0,0.0,-14,-16
1685897831.27988410,33334161,0.5229215025901794,0.0,0.4656880795955658,0.5,-9.887819290161133,-9.861322402954102,-10.086284637451172,0.0,0.0,0.0,-7,-15
1685897831.37984395,33434121,0.674326479434967,0.0,0.5651875734329224,0.5,-9.887819290161133,-9.890506744384766,-10.088532447814941,0.0,0.0,0.0,0,-14
1685897831.47980404,33534081,0.6817435026168823,0.0,0.6541877388954163,0.5,-9.887819290161133,-9.92037582397461,-9.750425338745117,0.0,0.0,0.0,9,-8
1685897831.58059716,33634874,0.5943463444709778,0.0,0.6424108147621155,0.5,-9.887819290161133,-9.927032470703125,-9.993365287780762,0.0,0.0,0.0,11,1
1685897831.68055701,33734834,0.5342052578926086,0.0,0.5815687775611877,0.5,-9.887819290161133,-9.9212007522583,-9.987773895263672,0.0,0.0,0.0,10,7
1685897831.78051710,33834794,0.48295238614082336,0.0,0.5264173150062561,0.5,-9.887819290161133,-9.912346839904785,-9.886053085327148,0.0,0.0,0.0,7,8
1685897831.88047695,33934754,0.40029552578926086,0.0,0.4665221869945526,0.5,-9.887819290161133,-9.899447441101074,-9.75135326385498,0.0,0.0,0.0,3,9
1685897831.98043704,34034714,0.3337544798851013,0.0,0.39042162895202637,0.5,-9.887819290161133,-9.877891540527344,-10.019160270690918,0.0,0.0,0.0,-2,8
1685897832.08039713,34134674,0.3646864593029022,0.0,0.3559951186180115,0.5,-9.887819290161133,-9.862663269042969,-9.887916564941406,0.0,0.0,0.0,-7,2
1685897832.18035698,34234634,0.40200281143188477,0.0,0.3802294433116913,0.5,-9.887819290161133,-9.857316017150879,-9.812204360961914,0.0,0.0,0.0,-9,-3
1685897832.28031707,34334594,0.4102250337600708,0.0,0.40168365836143494,0.5,-9.887819290161133,-9.853753089904785,-9.92226791381836,0.0,0.0,0.0,-10,-6
1685897832.38027716,34434554,0.4187089800834656,0.0,0.40934473276138306,0.5,-9.887819290161133,-9.853693962097168,-9.747390747070312,0.0,0.0,0.0,-10,-7
1685897832.48023701,34534514,0.4124016761779785,0.0,0.4179309904575348,0.5,-9.887819290161133,-9.851377487182617,-9.965298652648926,0.0,0.0,0.0,-10,-8
1685897832.58019710,34634474,0.41253000497817993,0.0,0.4096564054489136,0.5,-9.887819290161133,-9.851993560791016,-9.764339447021484,0.0,0.0,0.0,-10,-8
1685897832.68015695,34734434,0.41530609130859375,0.0,0.41742220520973206,0.5,-9.887819290161133,-9.851798057556152,-9.948492050170898,0.0,0.0,0.0,-10,-8
1685897832.78011703,34834394,0.4160335659980774,0.0,0.41275814175605774,0.5,-9.887819290161133,-9.853597640991211,-9.886504173278809,0.0,0.0,0.0,-10,-9
1685897832.88007712,34934354,0.433331161737442,0.0,0.42322227358818054,0.5,-9.887819290161133,-9.858171463012695,-9.86097526550293,0.0,0.0,0.0,-8,-9
1685897832.98003697,35034314,0.43658149242401123,0.0,0.4332205057144165,0.5,-9.887819290161133,-9.861577987670898,-10.157172203063965,0.0,0.0,0.0,-7,-8
1685897833.07999706,35134274,0.47696536779403687,0.0,0.4446438252925873,0.5,-9.887819290161133,-9.874363899230957,-10.09108829498291,0.0,0.0,0.0,-4,-8
1685897833.17995715,35234234,0.5862999558448792,0.0,0.5079452991485596,0.5,-9.887819290161133,-9.896045684814453,-10.126617431640625,0.0,0.0,0.0,2,-7
1685897833.27991700,35334194,0.6845605373382568,0.0,0.6153110265731812,0.5,-9.887819290161133,-9.921555519104004,-10.215753555297852,0.0,0.0,0.0,10,-5
1685897833.37987709,35434154,0.6696850061416626,0.0,0.6555362939834595,0.5,-9.887819290161133,-9.948075294494629,-10.07678508758545,0.0,0.0,0.0,18,1
1685897833.47983694,35534114,0.6391653418540955,0.0,0.6533568501472473,0.5,-9.887819290161133,-9.964959144592285,-9.866372108459473,0.0,0.0,0.0,23,9
1685897833.57979703,35634074,0.5784317851066589,0.0,0.6230030059814453,0.5,-9.887819290161133,-9.96061897277832,-9.954198837280273,0.0,0.0,0.0,21,16
1685897833.68059015,35734867,0.49775198101997375,0.0,0.558742880821228,0.5,-9.887819290161133,-9.941555976867676,-10.168822288513184,0.0,0.0,0.0,16,19
1685897833.78055000,35834827,0.4196009933948517,0.0,0.48112747073173523,0.5,-9.887819290161133,-9.926778793334961,-9.878660202026367,0.0,0.0,0.0,11,17
1685897833.88051009,35934787,0.3825874328613281,0.0,0.4214716851711273,0.5,-9.887819290161133,-9.91096019744873,-9.838457107543945,0.0,0.0,0.0,6,15
1685897833.98046994,36034747,0.3513861894607544,0.0,0.3811410963535309,0.5,-9.887819290161133,-9.889880180358887,-10.09826946258545,0.0,0.0,0.0,0,11
1685897834.08043003,36134707,0.3852301836013794,0.0,0.3675534427165985,0.5,-9.887819290161133,-9.87881851196289,-10.015495300292969,0.0,0.0,0.0,-2,5
1685897834.18039012,36234667,0.43956607580184937,0.0,0.40277156233787537,0.5,-9.887819290161133,-9.880223274230957,-10.05652141571045,0.0,0.0,0.0,-2,0
1685897834.28034997,36334627,0.4991089105606079,0.0,0.4519573450088501,0.5,-9.887819290161133,-9.889660835266113,-10.032727241516113,0.0,0.0,0.0,0,-1
1685897834.38031006,36434587,0.5843087434768677,0.0,0.5171547532081604,0.5,-9.887819290161133,-9.902750015258789,-9.817864418029785,0.0,0.0,0.0,4,-2
1685897834.48027015,36534547,0.5950489044189453,0.0,0.5833473205566406,0.5,-9.887819290161133,-9.907732963562012,-10.06567668914795,0.0,0.0,0.0,5,0
1685897834.58023000,36634507,0.5550494194030762,0.0,0.5695390701293945,0.5,-9.887819290161133,-9.90958023071289,-9.937054634094238,0.0,0.0,0.0,6,2
1685897834.68019009,36734467,0.5371152758598328,0.0,0.5536434650421143,0.5,-9.887819290161133,-9.90883731842041,-10.133825302124023,0.0,0.0,0.0,6,4
1685897834.78015018,36834427,0.536798894405365,0.0,0.5367717146873474,0.5,-9.887819290161133,-9.911396026611328,-10.028804779052734,0.0,0.0,0.0,7,4
1685897834.88011003,36934387,0.5680857300758362,0.0,0.5504058599472046,0.5,-9.887819290161133,-9.916532516479492,-9.83958911895752,0.0,0.0,0.0,8,4
1685897834.98007011,37034347,0.5443245768547058,0.0,0.5594694018363953,0.5,-9.887819290161133,-9.913203239440918,-9.989827156066895,0.0,0.0,0.0,7,6
1685897835.08002996,37134307,0.492520809173584,0.0,0.5248576998710632,0.5,-9.887819290161133,-9.905299186706543,-9.775579452514648,0.0,0.0,0.0,5,7
1685897835.17999005,37234267,0.39783698320388794,0.0,0.47061070799827576,0.5,-9.887819290161133,-9.888946533203125,-9.80417537689209,0.0,0.0,0.0,0,7
1685897835.27995014,37334227,0.3235408365726471,0.0,0.3802242577075958,0.5,-9.887819290161133,-9.866456031799316,-9.898310661315918,0.0,0.0,0.0,-6,6
1685897835.37990999,37434187,0.35641688108444214,0.0,0.3522622287273407,0.5,-9.887819290161133,-9.8497896194458,-10.070921897888184,0.0,0.0,0.0,-11,0
1685897835.47987008,37534147,0.42099976539611816,0.0,0.37906020879745483,0.5,-9.887819290161133,-9.85141658782959,-9.827392578125,0.0,0.0,0.0,-10,-6
1685897835.57983017,37634107,0.4601311981678009,0.0,0.42860934138298035,0.5,-9.887819290161133,-9.857050895690918,-10.100004196166992,0.0,0.0,0.0,-9,-8
1685897835.67979002,37734067,0.5170212388038635,0.0,0.46864980459213257,0.5,-9.887819290161133,-9.872173309326172,-9.912525177001953,0.0,0.0,0.0,-4,-9
1685897835.78058314,37834860,0.6172926425933838,0.0,0.545041024684906,0.5,-9.887819290161133,-9.887115478515625,-10.038358688354492,0.0,0.0,0.0,0,-8
1685897835.88054299,37934820,0.6282906532287598,0.0,0.6033111214637756,0.5,-9.887819290161133,-9.902584075927734,-10.0546293258667,0.0,0.0,0.0,4,-5
1685897835.98050308,38034780,0.6188963055610657,0.0,0.6168781518936157,0.5,-9.887819290161133,-9.916849136352539,-9.788494110107422,0.0,0.0,0.0,8,-1
1685897836.08046317,38134740,0.5647392868995667,0.0,0.6016010642051697,0.5,-9.887819290161133,-9.91635799407959,-9.966090202331543,0.0,0.0,0.0,8,4
1685897836.18042302,38234700,0.49646613001823425,0.0,0.5457638502120972,0.5,-9.887819290161133,-9.906717300415039,-9.898877143859863,0.0,0.0,0.0,5,7
1685897836.28038311,38334660,0.4143427014350891,0.0,0.4812067747116089,0.5,-9.887819290161133,-9.893926620483398,-9.893733024597168,0.0,0.0,0.0,1,7
1685897836.38034296,38434620,0.35711589455604553,0.0,0.40252453088760376,0.5,-9.887819290161133,-9.879075050354004,-10.026383399963379,0.0,0.0,0.0,-2,6
1685897836.48030305,38534580,0.39370691776275635,0.0,0.38174504041671753,0.5,-9.887819290161133,-9.87158203125,-9.993106842041016,0.0,0.0,0.0,-4,2
1685897836.58026314,38634540,0.4422987103462219,0.0,0.4100691080093384,0.5,-9.887819290161133,-9.873723983764648,-10.082108497619629,0.0,0.0,0.0,-4,-1
1685897836.68022299,38734500,0.5054481625556946,0.0,0.4559647738933563,0.5,-9.887819290161133,-9.884990692138672,-9.981880187988281,0.0,0.0,0.0,0,-3
1685897836.78018308,38834460,0.602420449256897,0.0,0.5286294221878052,0.5,-9.887819290161133,-9.898785591125488,-9.720466613769531,0.0,0.0,0.0,3,-4
1685897836.88014317,38934420,0.581023633480072,0.0,0.5873692631721497,0.5,-9.887819290161133,-9.900090217590332,-9.914669036865234,0.0,0.0,0.0,3,-1
1685897836.98010302,39034380,0.497514933347702,0.0,0.5453574657440186,0.5,-9.887819290161133,-9.89211368560791,-10.063960075378418,0.0,0.0,0.0,1,1
1685897837.08006310,39134340,0.44414690136909485,0.0,0.4871632158756256,0.5,-9.887819290161133,-9.888288497924805,-9.960055351257324,0.0,0.0,0.0,0,2
1685897837.18002295,39234300,0.4395677447319031,0.0,0.45100337266921997,0.5,-9.887819290161133,-9.88740348815918,-10.04605770111084,0.0,0.0,0.0,0,2
1685897837.27998304,39334260,0.4639380872249603,0.0,0.45027950406074524,0.5,-9.887819290161133,-9.890520095825195,-10.075885772705078,0.0,0.0,0.0,0,1
1685897837.37994313,39434220,0.5131152868270874,0.0,0.47918465733528137,0.5,-9.887819290161133,-9.899545669555664,-9.92031192779541,0.0,0.0,0.0,3,0
1685897837.47990298,39534180,0.5851550102233887,0.0,0.535750150680542,0.5,-9.887819290161133,-9.906461715698242,-9.831949234008789,0.0,0.0,0.0,5,0
1685897837.57986307,39634140,0.5516415238380432,0.0,0.5627797245979309,0.5,-9.887819290161133,-9.90406608581543,-9.89104175567627,0.0,0.0,0.0,4,2
1685897837.67982316,39734100,0.4823559820652008,0.0,0.526381254196167,0.5,-9.887819290161133,-9.89454174041748,-9.927494049072266,0.0,0.0,0.0,2,4
1685897837.77978301,39834060,0.39206892251968384,0.0,0.45951420068740845,0.5,-9.887819290161133,-9.883586883544922,-9.727888107299805,0.0,0.0,0.0,-1,4
1685897837.88057613,39934853,0.3509281277656555,0.0,0.3947579562664032,0.5,-9.887819290161133,-9.866155624389648,-10.042837142944336,0.0,0.0,0.0,-6,3
1685897837.98053598,40034813,0.38108158111572266,0.0,0.36826518177986145,0.5,-9.887819290161133,-9.85641860961914,-9.879690170288086,0.0,0.0,0.0,-9,-1
1685897838.08049607,40134773,0.42427581548690796,0.0,0.3985227346420288,0.5,-9.887819290161133,-9.85598087310791,-9.829142570495605,0.0,0.0,0.0,-9,-5
1685897838.18045616,40234733,0.43763989210128784,0.0,0.4246581494808197,0.5,-9.887819290161133,-9.856339454650879,-9.95363712310791,0.0,0.0,0.0,-9,-7
1685897838.28041601,40334693,0.45161527395248413,0.0,0.4373312294483185,0.5,-9.887819290161133,-9.860015869140625,-9.681485176086426,0.0,0.0,0.0,-8,-8
1685897838.38037610,40434653,0.4385998845100403,0.0,0.44940462708473206,0.5,-9.887819290161133,-9.85733413696289,-9.818771362304688,0.0,0.0,0.0,-9,-7
1685897838.48033595,40534613,0.3870510756969452,0.0,0.4185180962085724,0.5,-9.887819290161133,-9.849363327026367,-9.79858684539795,0.0,0.0,0.0,-11,-6
1685897838.58029604,40634573,0.3757597804069519,0.0,0.3906487822532654,0.5,-9.887819290161133,-9.841212272644043,-9.923229217529297,0.0,0.0,0.0,-13,-7
1685897838.68025613,40734533,0.3959375023841858,0.0,0.3858788311481476,0.5,-9.887819290161133,-9.839582443237305,-9.751026153564453,0.0,0.0,0.0,-14,-10
1685897838.78021598,40834493,0.40289998054504395,0.0,0.3999214470386505,0.5,-9.887819290161133,-9.839255332946777,-10.072717666625977,0.0,0.0,0.0,-14,-11
1685897838.88017607,40934453,0.43458980321884155,0.0,0.4084497392177582,0.5,-9.887819290161133,-9.848002433776855,-9.996073722839355,0.0,0.0,0.0,-11,-12
1685897838.98013616,41034413,0.5057296752929688,0.0,0.4555220901966095,0.5,-9.887819290161133,-9.86595344543457,-9.912017822265625,0.0,0.0,0.0,-6,-12
1685897839.08009601,41134373,0.5906574130058289,0.0,0.5251145958900452,0.5,-9.887819290161133,-9.882587432861328,-10.124737739562988,0.0,0.0,0.0,-1,-10
1685897839.18005610,41234333,0.6390929222106934,0.0,0.5931386947631836,0.5,-9.887819290161133,-9.90229606628418,-10.028244972229004,0.0,0.0,0.0,4,-8
1685897839.28001595,41334293,0.6385511159896851,0.0,0.6283463835716248,0.5,-9.887819290161133,-9.920788764953613,-10.20777702331543,0.0,0.0,0.0,9,-2
1685897839.37997603,41434253,0.6343648433685303,0.0,0.6304033994674683,0.5,-9.887819290161133,-9.93858814239502,-9.932047843933105,0.0,0.0,0.0,15,2
1685897839.47993612,41534213,0.6019067764282227,0.0,0.6242804527282715,0.5,-9.887819290161133,-9.945733070373535,-9.913982391357422,0.0,0.0,0.0,17,9
1685897839.57989597,41634173,0.5412905216217041,0.0,0.5851814150810242,0.5,-9.887819290161133,-9.937424659729004,-10.123394012451172,0.0,0.0,0.0,14,13
1685897839.67985606,41734133,0.4943769574165344,0.0,0.5306515693664551,0.5,-9.887819290161133,-9.927884101867676,-9.930023193359375,0.0,0.0,0.0,12,13
1685897839.77981615,41834093,0.44914814829826355,0.0,0.4910992980003357,0.5,-9.887819290161133,-9.916906356811523,-10.034281730651855,0.0,0.0,0.0,8,13
1685897839.87977600,41934053,0.4005547761917114,0.0,0.43500328063964844,0.5,-9.887819290161133,-9.906217575073242,-10.027627944946289,0.0,0.0,0.0,5,11
1685897839.98056912,42034846,0.41621363162994385,0.0,0.41501182317733765,0.5,-9.887819290161133,-9.900355339050293,-9.909873008728027,0.0,0.0,0.0,3,8
1685897840.08052897,42134806,0.4211692214012146,0.0,0.4204954206943512,0.5,-9.887819290161133,-9.893733024597168,-9.87161922454834,0.0,9.97,0.0,1,6
1685897840.18048906,42234766,0.40332040190696716,0.0,0.41482463479042053,0.5,-9.887819290161133,-9.884293556213379,-10.001275062561035,0.0,9.950000000000001,0.0,-1,4
1685897840.28044915,42334726,0.41155073046684265,0.0,0.4065093398094177,0.5,-9.887819290161133,-9.8795804977417,-10.111588478088379,0.0,9.950000000000001,0.0,-2,2
1685897840.38040900,42434686,0.4671803116798401,0.0,0.42944207787513733,0.5,-9.887819290161133,-9.886396408081055,-9.955231666564941,0.0,9.950000000000001,0.0,0,0
1685897840.48036909,42534646,0.5224722623825073,0.0,0.4818373918533325,0.5,-9.887819290161133,-9.895204544067383,-9.778624534606934,0.0,9.950000000000001,0.0,2,-1
1685897840.58032894,42634606,0.5415439605712891,0.0,0.5255863070487976,0.5,-9.887819290161133,-9.893674850463867,-9.900646209716797,0.0,9.96,0.0,1,0
1685897840.68028903,42734566,0.4890175759792328,0.0,0.5171467661857605,0.5,-9.887819290161133,-9.8875093460083,-9.960686683654785,0.0,9.97,0.0,0,0
1685897840.78024912,42834526,0.4245830774307251,0.0,0.46961134672164917,0.5,-9.887819290161133,-9.882482528686523,-9.88890552520752,0.0,9.99,0.0,-1,1
1685897840.88020897,42934486,0.4046590030193329,0.0,0.42814069986343384,0.5,-9.887819290161133,-9.876310348510742,-9.854270935058594,0.0,9.99,0.0,-3,1
1685897840.98016906,43034446,0.39797261357307434,0.0,0.40917763113975525,0.5,-9.887819290161133,-9.868453979492188,-10.122267723083496,0.0,10.0,0.0,-5,0
1685897841.08012915,43134406,0.44493016600608826,0.0,0.4143974781036377,0.5,-9.887819290161133,-9.873019218444824,-9.764128684997559,0.0,10.0,0.0,-4,-3
1685897841.18008900,43234366,0.46726861596107483,0.0,0.4521692991256714,0.5,-9.887819290161133,-9.873988151550293,-9.728561401367188,0.0,10.0,0.0,-4,-4
1685897841.28004909,43334326,0.4138653576374054,0.0,0.4458439350128174,0.5,-9.887819290161133,-9.864670753479004,-9.77158260345459,0.0,10.0,0.0,-6,-3
1685897841.38000917,43434286,0.35567522048950195,0.0,0.39616066217422485,0.5,-9.887819290161133,-9.850054740905762,-9.96014404296875,0.0,10.0,0.0,-11,-3
1685897841.47996902,43534246,0.39344632625579834,0.0,0.3746335804462433,0.5,-9.846198081970215,-9.84410572052002,-9.950204849243164,9.98,10.0,0.0,-7,-6
1685897841.57992911,43634206,0.49774685502052307,0.0,0.4434838593006134,0.5,-9.853675842285156,-9.848434448242188,-9.80659008026123,9.98,10.0,0.0,-8,-8
1685897841.67988896,43734166,0.46093642711639404,0.0,0.46602022647857666,0.5,-9.859321594238281,-9.850568771362305,-9.941296577453613,9.98,10.0,0.0,-7,-7
1685897841.77984905,43834126,0.4477839469909668,0.0,0.4545663297176361,0.5,-9.863231658935547,-9.853806495666504,-10.088554382324219,9.98,10.0,0.0,-6,-6
1685897841.87980914,43934086,0.4911065697669983,0.0,0.4620213806629181,0.5,-9.8660249710083,-9.866151809692383,-9.980066299438477,9.98,10.0,0.0,-2,-6
1685897841.98060203,44034879,0.5736098289489746,0.0,0.5143352746963501,0.5,-9.868124008178711,-9.881054878234863,-10.177042961120605,9.98,10.01,0.0,2,-5
1685897842.08056211,44134839,0.6565166115760803,0.0,0.5926350355148315,0.5,-9.869791030883789,-9.90355110168457,-9.940571784973145,9.98,10.01,0.0,8,-4
1685897842.18052197,44234799,0.6286697387695312,0.0,0.6326041221618652,0.5,-9.871249198913574,-9.9190034866333,-9.85098648071289,9.98,10.02,0.0,12,0
1685897842.28048205,44334759,0.5565500855445862,0.0,0.601159930229187,0.5,-9.872640609741211,-9.917288780212402,-10.043755531311035,9.98,10.02,0.0,11,7
1685897842.38044214,44434719,0.4995342493057251,0.0,0.5430862903594971,0.5,-9.874074935913086,-9.910783767700195,-9.875008583068848,9.98,10.040000000000001,0.0,9,9
1685897842.48040199,44534679,0.42739221453666687,0.0,0.4878387749195099,0.5,-9.87565803527832,-9.899752616882324,-9.841501235961914,9.98,10.040000000000001,0.0,5,9
1685897842.58036208,44634639,0.3388250470161438,0.0,0.40216192603111267,0.5,-9.877463340759277,-9.88216781616211,-10.026043891906738,9.98,10.040000000000001,0.0,0,9
1685897842.68032217,44734599,0.36877596378326416,0.0,0.36332958936691284,0.5,-9.879524230957031,-9.87058162689209,-9.851639747619629,9.98,10.040000000000001,0.0,-4,4
1685897842.78028202,44834559,0.39642560482025146,0.0,0.3822614550590515,0.5,-9.881842613220215,-9.864948272705078,-10.011748313903809,9.98,10.02,0.0,-7,-1
1685897842.88024211,44934519,0.42351585626602173,0.0,0.40058082342147827,0.5,-9.884356498718262,-9.867015838623047,-9.890229225158691,9.98,10.0,0.0,-7,-4
1685897842.98020196,45034479,0.451880544424057,0.0,0.43123412132263184,0.5,-9.886943817138672,-9.87273120880127,-10.039517402648926,9.98,9.99,0.0,-6,-6
1685897843.08016205,45134439,0.4820497930049896,0.0,0.4556717872619629,0.5,-9.889497756958008,-9.882761001586914,-9.849076271057129,9.98,9.99,0.0,-4,-6
1685897843.18012214,45234399,0.5134554505348206,0.0,0.4904839098453522,0.5,-9.891932487487793,-9.890251159667969,-10.133743286132812,9.98,9.97,0.0,-2,-6
1685897843.28008199,45334359,0.5524705052375793,0.0,0.5178014636039734,0.5,-9.894159317016602,-9.901664733886719,-9.873326301574707,9.98,9.97,0.0,0,-5
1685897843.38004208,45434319,0.5907467603683472,0.0,0.5670614242553711,0.5,-9.896119117736816,-9.910778045654297,-10.054487228393555,9.98,9.99,0.0,2,-4
1685897843.48000216,45534279,0.5728622674942017,0.0,0.5742119550704956,0.5,-9.897843360900879,-9.917675018310547,-10.08112621307373,9.98,10.0,0.0,4,-1
1685897843.57996202,45634239,0.5780206918716431,0.0,0.5739655494689941,0.5,-9.899404525756836,-9.926190376281738,-10.241519927978516,9.98,10.0,0.0,6,0
1685897843.67992210,45734199,0.6118499636650085,0.0,0.5862334966659546,0.5,-9.900864601135254,-9.94137191772461,-10.130654335021973,9.98,10.01,0.0,10,2
1685897843.77988195,45834159,0.634911835193634,0.0,0.6166853904724121,0.5,-9.902283668518066,-9.95815372467041,-9.846426010131836,9.98,10.01,0.0,15,5
1685897843.87984204,45934119,0.583274245262146,0.0,0.6145862340927124,0.5,-9.90372085571289,-9.959317207336426,-10.066438674926758,9.98,10.01,0.0,15,10
1685897843.97980213,46034079,0.5284163951873779,0.0,0.5669137239456177,0.5,-9.905198097229004,-9.95108699798584,-9.821621894836426,9.98,10.0,0.0,12,12
1685897844.08059502,46134872,0.4521523118019104,0.0,0.5134758353233337,0.5,-9.906719207763672,-9.933758735656738,-9.948187828063965,9.98,10.0,0.0,6,13
1685897844.18055511,46234832,0.32476478815078735,0.0,0.4088028371334076,0.5,-9.908232688903809,-9.912368774414062,-9.836859703063965,9.98,9.97,0.0,0,12
1685897844.28051496,46334792,0.336769700050354,0.0,0.3549685478210449,0.5,-9.909710884094238,-9.889269828796387,-10.133234024047852,9.98,9.97,0.0,-7,6
1685897844.38047504,46434752,0.3984517753124237,0.0,0.36212611198425293,0.5,-9.911057472229004,-9.884556770324707,-10.013795852661133,9.98,9.96,0.0,-9,-1
1685897844.48043513,46534712,0.46308383345603943,0.0,0.415676474571228,0.5,-9.912206649780273,-9.892648696899414,-9.977774620056152,9.98,9.950000000000001,0.0,-6,-5
1685897844.58039498,46634672,0.5231541991233826,0.0,0.47534024715423584,0.5,-9.913092613220215,-9.904218673706055,-10.170150756835938,9.98,9.950000000000001,0.0,-3,-6
1685897844.68035507,46734632,0.6366870999336243,0.0,0.5509406924247742,0.5,-9.913666725158691,-9.92396068572998,-9.83433723449707,9.98,9.92,0.0,2,-7
1685897844.78031516,46834592,0.6220681667327881,0.0,0.621316134929657,0.5,-9.913878440856934,-9.934192657470703,-9.980692863464355,9.98,9.93,0.0,6,-3
1685897844.88027501,46934552,0.5671665668487549,0.0,0.5963984131813049,0.5,-9.913656234741211,-9.93497085571289,-10.01022720336914,9.98,9.93,0.0,6,2
1685897844.98023510,47034512,0.5387555360794067,0.0,0.5633390545845032,0.5,-9.912999153137207,-9.93189811706543,-10.070147514343262,9.98,9.950000000000001,0.0,6,5
1685897845.08019495,47134472,0.5300537943840027,0.0,0.5400513410568237,0.5,-9.911949157714844,-9.930413246154785,-9.99560832977295,9.98,9.97,0.0,6,5
1685897845.18015504,47234432,0.5307871699333191,0.0,0.533719539642334,0.5,-9.910622596740723,-9.928168296813965,-10.098089218139648,9.98,10.0,0.0,6,6
1685897845.28011513,47334392,0.5421442985534668,0.0,0.5340428352355957,0.5,-9.909184455871582,-9.929372787475586,-9.950547218322754,9.98,10.0,0.0,7,5
1685897845.38007498,47434352,0.5472778081893921,0.0,0.543959379196167,0.5,-9.907803535461426,-9.92782974243164,-10.130705833435059,9.98,9.99,0.0,7,5
1685897845.48003507,47534312,0.5552016496658325,0.0,0.545329213142395,0.5,-9.906573295593262,-9.930282592773438,-10.035780906677246,9.98,9.99,0.0,8,5
1685897845.57999516,47634272,0.5783471465110779,0.0,0.5628495216369629,0.5,-9.90551471710205,-9.933581352233887,-10.092687606811523,9.98,9.96,0.0,9,5
1685897845.67995501,47734232,0.5928935408592224,0.0,0.5794180035591125,0.5,-9.904596328735352,-9.93807601928711,-9.802109718322754,9.98,9.950000000000001,0.0,10,6
1685897845.77991509,47834192,0.5552166104316711,0.0,0.5808997750282288,0.5,-9.903709411621094,-9.9299955368042,-9.893250465393066,9.98,9.950000000000001,0.0,8,8
1685897845.87987494,47934152,0.4787890613079071,0.0,0.5324844121932983,0.5,-9.902763366699219,-9.91335391998291,-9.94056510925293,9.98,9.950000000000001,0.0,4,9
1685897845.97983503,48034112,0.37780243158340454,0.0,0.4545241892337799,0.5,-9.901703834533691,-9.896329879760742,-10.036977767944336,9.98,9.950000000000001,0.0,0,9
1685897846.07979512,48134072,0.38967660069465637,0.0,0.3975130617618561,0.5,-9.900508880615234,-9.886553764343262,-9.814168930053711,9.98,9.950000000000001,0.0,-2,5
1685897846.18058801,48234865,0.40347105264663696,0.0,0.40290096402168274,0.5,-9.899155616760254,-9.87644100189209,-9.982755661010742,9.98,9.950000000000001,0.0,-5,2
1685897846.28054810,48334825,0.4190048575401306,0.0,0.4065142273902893,0.5,-9.897672653198242,-9.872100830078125,-9.794229507446289,9.98,9.950000000000001,0.0,-6,0
1685897846.38050795,48434785,0.42389070987701416,0.0,0.421603262424469,0.5,-9.8960542678833,-9.866315841674805,-9.732105255126953,9.98,9.950000000000001,0.0,-7,-2
1685897846.48046803,48534745,0.39181646704673767,0.0,0.4127061069011688,0.5,-9.894314765930176,-9.854310989379883,-9.823698043823242,9.98,9.950000000000001,0.0,-10,-3
1685897846.58042812,48634705,0.38039007782936096,0.0,0.390841007232666,0.5,-9.892461776733398,-9.842695236206055,-9.757730484008789,9.98,9.950000000000001,0.0,-13,-5
1685897846.68038797,48734665,0.3825019896030426,0.0,0.38601794838905334,0.5,-9.890510559082031,-9.83212661743164,-10.006561279296875,9.98,9.950000000000001,0.0,-15,-8
1685897846.78034806,48834625,0.42543622851371765,0.0,0.39660391211509705,0.5,-9.888472557067871,-9.834443092346191,-9.694780349731445,9.98,9.97,0.0,-14,-11
1685897846.88030815,48934585,0.4386935532093048,0.0,0.4282006025314331,0.5,-9.886378288269043,-9.83491325378418,-9.956475257873535,9.98,9.99,0.0,-13,-12
1685897846.98026800,49034545,0.4495775103569031,0.0,0.43560096621513367,0.5,-9.88432502746582,-9.840171813964844,-9.776433944702148,9.98,10.0,0.0,-11,-12
1685897847.08022809,49134505,0.45985591411590576,0.0,0.4528624713420868,0.5,-9.882424354553223,-9.843274116516113,-10.030080795288086,9.98,10.0,0.0,-9,-11
1685897847.18018794,49234465,0.4831289052963257,0.0,0.4618735909461975,0.5,-9.880762100219727,-9.852791786193848,-9.798192977905273,9.98,10.01,0.0,-6,-10
1685897847.28014803,49334425,0.5103133320808411,0.0,0.4904472827911377,0.5,-9.879390716552734,-9.85879135131836,-9.969589233398438,9.98,10.02,0.0,-4,-8
1685897847.38010812,49434385,0.5265650153160095,0.0,0.5088420510292053,0.5,-9.8783597946167,-9.865708351135254,-9.969555854797363,9.98,10.040000000000001,0.0,-2,-7
1685897847.48006797,49534345,0.5640597343444824,0.0,0.5353336334228516,0.5,-9.87773323059082,-9.874857902526855,-10.005694389343262,9.98,10.040000000000001,0.0,0,-6
1685897847.58002806,49634305,0.5868977904319763,0.0,0.5633372664451599,0.5,-9.877574920654297,-9.886062622070312,-9.896864891052246,9.98,10.040000000000001,0.0,2,-5
1685897847.67998815,49734265,0.5739668011665344,0.0,0.5778287649154663,0.5,-9.877903938293457,-9.892157554626465,-9.903159141540527,9.98,10.040000000000001,0.0,3,-2
1685897847.77994800,49834225,0.5325955748558044,0.0,0.5586392283439636,0.5,-9.87871265411377,-9.892102241516113,-9.992385864257812,9.98,10.040000000000001,0.0,2,0
1685897847.87990808,49934185,0.4959191679954529,0.0,0.5215346813201904,0.5,-9.879969596862793,-9.890762329101562,-10.008830070495605,9.98,10.040000000000001,0.0,1,1
1685897847.97986817,50034145,0.46306759119033813,0.0,0.48831090331077576,0.5,-9.881636619567871,-9.891613006591797,-9.942041397094727,9.98,10.040000000000001,0.0,1,2
1685897848.07982802,50134105,0.4417411684989929,0.0,0.45989784598350525,0.5,-9.883675575256348,-9.891756057739258,-9.75074577331543,9.98,10.040000000000001,0.0,0,2
1685897848.17978811,50234065,0.39590466022491455,0.0,0.43356040120124817,0.5,-9.886043548583984,-9.882974624633789,-10.031367301940918,9.98,10.02,0.0,-3,2
1685897848.28058100,50334858,0.3820614814758301,0.0,0.3917624056339264,0.5,-9.888701438903809,-9.876346588134766,-9.800708770751953,9.98,10.01,0.0,-6,0
1685897848.38054109,50434818,0.3957403302192688,0.0,0.39587298035621643,0.5,-9.891496658325195,-9.871203422546387,-9.806893348693848,9.98,10.0,0.0,-8,-2
1685897848.48050117,50534778,0.3808831572532654,0.0,0.39082852005958557,0.5,-9.894350051879883,-9.863911628723145,-9.79377269744873,9.98,10.0,0.0,-11,-5
1685897848.58046103,50634738,0.36961865425109863,0.0,0.3799120783805847,0.5,-9.897160530090332,-9.856084823608398,-10.096555709838867,9.98,10.0,0.0,-15,-7
1685897848.68042111,50734698,0.41027742624282837,0.0,0.3832018971443176,0.5,-9.899884223937988,-9.860918998718262,-10.042433738708496,9.98,10.0,0.0,-14,-11
1685897848.78038096,50834658,0.4786764979362488,0.0,0.42959898710250854,0.5,-9.902493476867676,-9.878820419311523,-10.014874458312988,9.98,10.0,0.0,-9,-13
1685897848.88034105,50934618,0.5638471245765686,0.0,0.49792319536209106,0.5,-9.90497875213623,-9.900638580322266,-10.019970893859863,9.98,10.0,0.0,-3,-12
1685897848.98030114,51034578,0.6463690996170044,0.0,0.5881396532058716,0.5,-9.907341003417969,-9.921783447265625,-10.140913009643555,9.98,10.0,0.0,2,-10
1685897849.08026099,51134538,0.6403706669807434,0.0,0.6256155371665955,0.5,-9.909586906433105,-9.943014144897461,-9.985377311706543,9.98,10.0,0.0,7,-5
1685897849.18022108,51234498,0.6079845428466797,0.0,0.626187801361084,0.5,-9.911725044250488,-9.955964088439941,-9.928953170776367,9.98,10.0,0.0,11,1
1685897849.28018117,51334458,0.5505196452140808,0.0,0.5911225080490112,0.5,-9.913766860961914,-9.955045700073242,-9.854992866516113,9.98,10.01,0.0,10,6
1685897849.38014102,51434418,0.4596385955810547,0.0,0.5291346311569214,0.5,-9.915750503540039,-9.94091510772705,-10.178694725036621,9.98,10.01,0.0,5,9
1685897849.48010111,51534378,0.36147037148475647,0.0,0.4293959438800812,0.5,-9.917703628540039,-9.930684089660645,-10.116156578063965,9.98,10.02,0.0,1,9
1685897849.58006096,51634338,0.4212486147880554,0.0,0.40374091267585754,0.5,-9.91968059539795,-9.930375099182129,-10.190914154052734,9.98,10.01,0.0,1,5
1685897849.68002105,51734298,0.48920679092407227,0.0,0.44148290157318115,0.5,-9.921682357788086,-9.94073486328125,-9.888138771057129,9.98,10.0,0.0,3,2
1685897849.77998114,51834258,0.5388652682304382,0.0,0.5006181001663208,0.5,-9.923685073852539,-9.94736385345459,-9.868762016296387,9.98,10.0,0.0,5,2
1685897849.87994099,51934218,0.5182949304580688,0.0,0.5258787274360657,0.5,-9.925649642944336,-9.942928314208984,-10.05664348602295,9.98,9.97,0.0,3,2
1685897849.97990108,52034178,0.45258471369743347,0.0,0.49213725328445435,0.5,-9.927481651306152,-9.937439918518066,-9.881380081176758,9.98,9.950000000000001,0.0,1,3
1685897850.07986116,52134138,0.39856863021850586,0.0,0.4416850209236145,0.5,-9.92905330657959,-9.928659439086914,-10.139364242553711,9.98,9.950000000000001,0.0,-1,4
1685897850.17982101,52234098,0.4122982621192932,0.0,0.40885424613952637,0.5,-9.930273056030273,-9.925397872924805,-9.979418754577637,9.98,9.93,0.0,-2,2
1685897850.27978110,52334058,0.4545497000217438,0.0,0.43202075362205505,0.5,-9.931062698364258,-9.92726993560791,-9.885418891906738,9.98,9.93,0.0,-1,0
1685897850.38057399,52434851,0.4601903557777405,0.0,0.4548187851905823,0.5,-9.931367874145508,-9.92553424835205,-10.104643821716309,9.98,9.91,0.0,-1,0
1685897850.48053408,52534811,0.46993401646614075,0.0,0.4589160680770874,0.5,-9.931129455566406,-9.9271879196167,-9.921977996826172,9.98,9.91,0.0,0,0
1685897850.58049417,52634771,0.4929914176464081,0.0,0.479858934879303,0.5,-9.930310249328613,-9.928383827209473,-9.931617736816406,9.98,9.870000000000001,0.0,0,0
1685897850.68045402,52734731,0.49533480405807495,0.0,0.49330031871795654,0.5,-9.928815841674805,-9.925127029418945,-10.013691902160645,9.98,9.84,0.0,0,0
1685897850.78041410,52834691,0.49561402201652527,0.0,0.49472281336784363,0.5,-9.926499366760254,-9.922736167907715,-10.109468460083008,9.98,9.81,0.0,1,1
1685897850.88037395,52934651,0.5422638058662415,0.0,0.5114424824714661,0.5,-9.923208236694336,-9.926348686218262,-9.819653511047363,9.98,9.790000000000001,0.0,4,1
1685897850.98033404,53034611,0.5725105404853821,0.0,0.557833731174469,0.5,-9.918813705444336,-9.922053337097168,-10.159070014953613,9.98,9.77,0.0,5,2
1685897851.08029413,53134571,0.5766817331314087,0.0,0.5649992227554321,0.5,-9.913220405578613,-9.922449111938477,-9.807108879089355,9.98,9.75,0.0,8,4
1685897851.18025398,53234531,0.569610595703125,0.0,0.5797936916351318,0.5,-9.906349182128906,-9.913848876953125,-9.898609161376953,9.98,9.72,0.0,9,7
