,TimeUS,timestamp,ThI,ABst,ThO,ThH,DAlt,Alt,BAlt,DSAlt,SAlt,TAlt,DCRt,CRt,terrain_z,sub_z,rf
0,7633612,1686004225.5993268,0.0,0.0,0.0,0.5,0.0,-0.2127301096916198,-0.1458091586828231,0.0,0.0,0.0,0,13,,,
1,7733572,1686004225.6992867,0.0,0.0,0.5,0.5,0.0,-0.1822365373373031,-0.3589062392711639,0.0,0.0,0.0,0,15,,,
2,7833532,1686004225.799247,0.0,0.0,0.5,0.5,0.0,-0.1632952094078064,-0.0744762420654296,0.0,0.0,0.0,0,16,,,
3,7933492,1686004225.8992069,0.0,0.0,0.5,0.5,0.0,-0.1448006480932235,-0.3342235386371612,0.0,0.0,0.0,0,16,,,
4,8034285,1686004226.0,0.0,0.0,0.5,0.5,0.0,-0.1383526176214218,-0.2458187192678451,0.0,0.0,0.0,0,5,,,
5,8134245,1686004226.0999599,0.0,0.0,0.5,0.5,0.0,-0.1461919844150543,-0.0926554501056671,0.0,0.0,0.0,0,4,,,
6,8234205,1686004226.19992,0.0,0.0,0.356249988079071,0.5,0.0,-0.1490733325481414,-0.0623054839670658,0.0,0.0,0.0,0,4,,,
7,8334165,1686004226.29988,0.0,0.0,0.25,0.5,0.0,-0.1493236273527145,-0.1795559674501419,0.0,0.0,0.0,0,-12,,,
8,8434125,1686004226.3998399,0.0,0.0,0.25,0.5,0.0,-0.167982742190361,-0.2247369289398193,0.0,0.0,0.0,0,-28,,,
9,8534085,1686004226.4998,0.0,0.0,0.25,0.5,0.0,-0.2048387825489044,-0.2097815722227096,0.0,0.0,0.0,0,-38,,,
10,8634045,1686004226.5997598,0.0,0.0,0.25,0.5,0.0,-0.2510566115379333,-0.3096332848072052,0.0,0.0,0.0,0,-44,,,
11,8734005,1686004226.69972,0.0,0.0,0.25,0.5,0.0,-0.3036106526851654,-0.2623445391654968,0.0,0.0,0.0,0,-46,,,
12,8833965,1686004226.79968,0.0,0.0,0.25,0.5,0.0,-0.3565401434898376,-0.6589644551277161,0.0,0.0,0.0,0,-47,,,
13,8933925,1686004226.8996398,0.0,0.0,0.25,0.5,0.0,-0.4231104552745819,-0.7410873770713806,0.0,0.0,0.0,0,-49,,,
14,9033885,1686004226.9996,0.0,0.0,0.25,0.5,0.0,-0.5089491605758667,-0.4053691029548645,0.0,0.0,0.0,0,-52,,,
15,9133845,1686004227.09956,0.0,0.0,0.25,0.5,0.0,-0.5894604921340942,-0.7619714736938477,0.0,0.0,0.0,0,-55,,,
16,9233805,1686004227.1995199,0.0,0.0,0.25,0.5,0.0,-0.6686998009681702,-0.563080370426178,0.0,0.0,0.0,0,-56,,,
17,9333765,1686004227.29948,0.0,0.0,0.25,0.5,0.0,-0.7419739365577698,-0.634763240814209,0.0,0.0,0.0,0,-57,,,
18,9433725,1686004227.39944,0.0,0.0,0.25,0.5,0.0,-0.8045834898948669,-0.8758689165115356,0.0,0.0,0.0,0,-57,,,
19,9533685,1686004227.4994,0.0,0.0,0.25,0.5,0.0,-0.8679777979850769,-1.082060694694519,0.0,0.0,0.0,0,-57,,,
20,9633645,1686004227.59936,0.0,0.0,0.25,0.5,0.0,-0.9428123235702516,-0.9637850522994996,0.0,0.0,0.0,0,-59,,,
21,9733605,1686004227.6993198,0.0,0.0,0.25,0.5,0.0,-1.0209981203079224,-0.8399441838264465,0.0,0.0,0.0,0,-60,,,
22,9833565,1686004227.79928,0.0,0.0,0.25,0.5,0.0,-1.088565707206726,-1.198577046394348,0.0,0.0,0.0,0,-60,,,
23,9933525,1686004227.89924,0.0,0.0,0.25,0.5,0.0,-1.1567286252975464,-1.0457693338394165,0.0,0.0,0.0,0,-61,,,
24,10033485,1686004227.9991999,0.0,0.0,0.25,0.5,0.0,-1.2229728698730469,-1.185124397277832,0.0,0.0,0.0,0,-61,,,
25,10134278,1686004228.0999928,0.0,0.0,0.25,0.5,0.0,-1.2866653203964231,-1.4385849237442017,0.0,0.0,0.0,0,-61,,,
26,10234238,1686004228.1999528,0.0,0.0,0.25,0.5,0.0,-1.3586989641189575,-1.415629744529724,0.0,0.0,0.0,0,-62,,,
27,10334198,1686004228.2999127,0.0,0.0,0.25,0.5,0.0,-1.4355666637420654,-1.5353538990020752,0.0,0.0,0.0,0,-63,,,
28,10434158,1686004228.399873,0.0,0.0,0.25,0.5,0.0,-1.5168458223342896,-1.3792577981948853,0.0,0.0,0.0,0,-65,,,
29,10534118,1686004228.4998329,0.0,0.0,0.25,0.5,0.0,-1.590703368186951,-1.422493577003479,0.0,0.0,0.0,0,-65,,,
30,10634078,1686004228.5997927,0.0,0.0,0.25,0.5,0.0,-1.6546213626861572,-1.597685694694519,0.0,0.0,0.0,0,-65,,,
31,10734038,1686004228.699753,0.0,0.0,0.25,0.5,0.0,-1.7165309190750122,-1.8506361246109009,0.0,0.0,0.0,0,-65,,,
32,10833998,1686004228.799713,0.0,0.0,0.25,0.5,0.0,-1.787859559059143,-1.875603437423706,0.0,0.0,0.0,0,-65,,,
33,10933958,1686004228.8996727,0.0,0.0,0.25,0.5,0.0,-1.8665566444396973,-1.80015230178833,0.0,0.0,0.0,0,-66,,,
34,11033918,1686004228.9996328,0.0,0.0,0.25,0.5,0.0,-1.942726850509644,-1.9083114862442017,0.0,0.0,0.0,0,-67,,,
35,11133878,1686004229.0995927,0.0,0.0,0.25,0.5,0.0,-2.0166735649108887,-1.899041771888733,0.0,0.0,0.0,0,-68,,,
36,11233838,1686004229.199553,0.0,0.0,0.25,0.5,0.0,-2.0857746601104736,-1.99664306640625,0.0,0.0,0.0,0,-68,,,
37,11333798,1686004229.2995129,0.0,0.0,0.25,0.5,0.0,-2.1517250537872314,-1.9345982074737549,0.0,0.0,0.0,0,-68,,,
38,11433758,1686004229.3994727,0.0,0.0,0.25,0.5,0.0,-2.20988130569458,-2.174984931945801,0.0,0.0,0.0,0,-67,,,
39,11533718,1686004229.499433,0.0,0.0,0.25,0.5,0.0,-2.2691404819488525,-2.3361446857452397,0.0,0.0,0.0,0,-66,,,
40,11633678,1686004229.599393,0.0,0.0,0.25,0.5,0.0,-2.3364059925079346,-2.116121768951416,0.0,0.0,0.0,0,-67,,,
41,11733638,1686004229.6993527,0.0,0.0,0.25,0.5,0.0,-2.397350311279297,-2.0933146476745605,0.0,0.0,0.0,0,-66,,,
42,11833598,1686004229.7993128,0.0,0.0,0.25,0.5,0.0,-2.4457762241363525,-2.4351370334625244,0.0,0.0,0.0,0,-65,,,
43,11933558,1686004229.899273,0.0,0.0,0.25,0.5,0.0,-2.4974911212921143,-2.502575635910034,0.0,0.0,0.0,0,-64,,,
44,12033518,1686004229.999233,0.0,0.0,0.25,0.5,0.0,-2.556086540222168,-2.519280910491944,0.0,0.0,0.0,0,-64,,,
45,12133478,1686004230.0991929,0.0,0.0,0.25,0.5,0.0,-2.6176674365997314,-2.3855085372924805,0.0,0.0,0.0,0,-64,,,
46,12234271,1686004230.199986,0.0,0.0,0.25,0.5,0.0,-2.6721465587615967,-2.518286943435669,0.0,0.0,0.0,0,-63,,,
47,12334231,1686004230.2999458,0.0,0.0,0.25,0.5,0.0,-2.721423864364624,-2.7164924144744877,0.0,0.0,0.0,0,-62,,,
48,12434191,1686004230.399906,0.0,0.0,0.25,0.5,0.0,-2.7750465869903564,-2.5683624744415283,0.0,0.0,0.0,0,-61,,,
49,12534151,1686004230.499866,0.0,0.0,0.25,0.5,0.0,-2.8242928981781006,-2.9655675888061523,0.0,0.0,0.0,0,-60,,,
50,12634111,1686004230.5998259,0.0,0.0,0.25,0.5,0.0,-2.8833632469177246,-2.930651426315308,0.0,0.0,0.0,0,-60,,,
51,12734071,1686004230.699786,0.0,0.0,0.25,0.5,0.0,-2.9497570991516118,-2.7790489196777344,0.0,0.0,0.0,0,-61,,,
52,12834031,1686004230.799746,0.0,0.0,0.25,0.5,0.0,-3.010018348693848,-2.8451523780822754,0.0,0.0,0.0,0,-61,,,
53,12933991,1686004230.899706,0.0,0.0,0.25,0.5,0.0,-3.0630922317504883,-2.88702654838562,0.0,0.0,0.0,0,-60,,,
54,13033951,1686004230.999666,0.0,0.0,0.25,0.5,0.0,-3.1104495525360107,-2.9614412784576416,0.0,0.0,0.0,0,-59,,,
55,13133911,1686004231.0996258,0.0,0.0,0.25,0.5,0.0,-3.154570341110229,-3.195483922958374,0.0,0.0,0.0,0,-58,,,
56,13233871,1686004231.199586,0.0,0.0,0.25,0.5,0.0,-3.205178737640381,-3.2145512104034424,0.0,0.0,0.0,0,-57,,,
57,13333831,1686004231.299546,0.0,0.0,0.25,0.5,0.0,-3.2613394260406494,-3.16383695602417,0.0,0.0,0.0,0,-57,,,
58,13433791,1686004231.3995059,0.0,0.0,0.25,0.5,0.0,-3.315947771072388,-3.2886550426483154,0.0,0.0,0.0,0,-57,,,
59,13533751,1686004231.499466,0.0,0.0,0.25,0.5,0.0,-3.371046781539917,-3.4482054710388184,0.0,0.0,0.0,0,-57,,,
60,13633711,1686004231.599426,0.0,0.0,0.25,0.5,0.0,-3.432154417037964,-3.2665202617645264,0.0,0.0,0.0,0,-57,,,
61,13733671,1686004231.699386,0.0,0.0,0.25,0.5,0.0,-3.487779140472412,-3.710789918899536,0.0,0.0,0.0,0,-57,,,
62,13833631,1686004231.799346,0.0,0.0,0.25,0.5,0.0,-3.553986072540283,-3.4180173873901367,0.0,0.0,0.0,0,-58,,,
63,13933591,1686004231.8993058,0.0,0.0,0.25,0.5,0.0,-3.6166374683380127,-3.7453134059906006,0.0,0.0,0.0,0,-58,,,
64,14033551,1686004231.999266,0.0,0.0,0.25,0.5,0.0,-3.684069395065308,-3.5534956455230717,0.0,0.0,0.0,0,-59,,,
65,14133511,1686004232.099226,0.0,0.0,0.25,0.5,0.0,-3.7467427253723145,-3.726150274276733,0.0,0.0,0.0,0,-59,,,
66,14234304,1686004232.200019,0.0,0.0,0.25,0.5,0.0,-3.8081090450286874,-3.677551746368408,0.0,0.0,0.0,0,-59,,,
67,14334264,1686004232.2999787,0.0,0.0,0.25,0.5,0.0,-3.864220380783081,-3.829654932022095,0.0,0.0,0.0,0,-58,,,
68,14434224,1686004232.3999388,0.0,0.0,0.25,0.5,0.0,-3.919818639755249,-3.988202333450317,0.0,0.0,0.0,0,-58,,,
69,14534184,1686004232.499899,0.0,0.0,0.25,0.5,0.0,-3.981103420257568,-4.019984722137451,0.0,0.0,0.0,0,-58,,,
70,14634144,1686004232.599859,0.0,0.0,0.25,0.5,0.0,-4.046530723571777,-4.023975372314453,0.0,0.0,0.0,0,-59,,,
71,14734104,1686004232.6998188,0.0,0.0,0.25,0.5,0.0,-4.111754417419434,-4.044965744018555,0.0,0.0,0.0,0,-59,,,
72,14834064,1686004232.7997787,0.0,0.0,0.25,0.5,0.0,-4.174036026000977,-4.367231369018555,0.0,0.0,0.0,0,-59,,,
73,14934024,1686004232.899739,0.0,0.0,0.25,0.5,0.0,-4.24570369720459,-4.246585845947266,0.0,0.0,0.0,0,-60,,,
74,15033984,1686004232.9996989,0.0,0.0,0.25,0.5,0.0,-4.318986415863037,-4.248683929443359,0.0,0.0,0.0,0,-61,,,
75,15133944,1686004233.0996587,0.0,0.0,0.25,0.5,0.0,-4.387710571289063,-4.385088443756104,0.0,0.0,0.0,0,-62,,,
76,15233904,1686004233.1996188,0.0,0.0,0.25,0.5,0.0,-4.455521106719971,-4.445319652557373,0.0,0.0,0.0,0,-62,,,
77,15333864,1686004233.299579,0.0,0.0,0.25,0.5,0.0,-4.523453712463379,-4.548227787017822,0.0,0.0,0.0,0,-62,,,
78,15433824,1686004233.3995388,0.0,0.0,0.25,0.5,0.0,-4.593160629272461,-4.728420734405518,0.0,0.0,0.0,0,-63,,,
79,15533784,1686004233.4994988,0.0,0.0,0.25,0.5,0.0,-4.66991662979126,-4.531944274902344,0.0,0.0,0.0,0,-64,,,
80,15633744,1686004233.5994587,0.0,0.0,0.25,0.5,0.0,-4.74088191986084,-4.855268478393555,0.0,0.0,0.0,0,-64,,,
81,15733704,1686004233.699419,0.0,0.0,0.25,0.5,0.0,-4.8158063888549805,-4.563030242919922,0.0,0.0,0.0,0,-65,,,
82,15833664,1686004233.7993789,0.0,0.0,0.25,0.5,0.0,-4.88032865524292,-4.885783672332764,0.0,0.0,0.0,0,-65,,,
83,15933624,1686004233.8993387,0.0,0.0,0.25,0.5,0.0,-4.944396018981934,-4.990228652954102,0.0,0.0,0.0,0,-65,,,
84,16033584,1686004233.999299,0.0,0.0,0.25,0.5,0.0,-5.013649940490723,-4.844131946563721,0.0,0.0,0.0,0,-65,,,
85,16133544,1686004234.099259,0.0,0.0,0.25,0.5,0.0,-5.077321529388428,-5.030984401702881,0.0,0.0,0.0,0,-65,,,
86,16233504,1686004234.1992188,0.0,0.0,0.25,0.5,0.0,-5.139747142791748,-5.221406936645508,0.0,0.0,0.0,0,-65,,,
87,16334297,1686004234.3000119,0.0,0.0,0.25,0.5,0.0,-5.209447383880615,-5.25236701965332,0.0,0.0,0.0,0,-65,,,
88,16434257,1686004234.399972,0.0,0.0,0.25,0.5,0.0,-5.283481121063232,-5.234463691711426,0.0,0.0,0.0,0,-66,,,
89,16534217,1686004234.4999318,0.0,0.0,0.25,0.5,0.0,-5.356215000152588,-5.386172771453857,0.0,0.0,0.0,0,-67,,,
90,16634177,1686004234.599892,0.0,0.0,0.25,0.5,0.0,-5.429686069488525,-5.45840311050415,0.0,0.0,0.0,0,-67,,,
91,16734137,1686004234.699852,0.0,0.0,0.25,0.5,0.0,-5.5054850578308105,-5.241744995117188,0.0,0.0,0.0,0,-68,,,
92,16834097,1686004234.7998118,0.0,0.0,0.25,0.5,0.0,-5.571600437164307,-5.526813507080078,0.0,0.0,0.0,0,-68,,,
93,16934057,1686004234.899772,0.0,0.0,0.25,0.5,0.0,-5.633312702178955,-5.375173091888428,0.0,0.0,0.0,0,-67,,,
94,17034017,1686004234.999732,0.0,0.0,0.25,0.5,0.0,-5.6882147789001465,-5.427594661712647,0.0,0.0,0.0,0,-66,,,
95,17133977,1686004235.0996919,0.0,0.0,0.25,0.5,0.0,-5.733527660369873,-5.684627532958984,0.0,0.0,0.0,0,-65,,,
96,17233937,1686004235.199652,0.0,0.0,0.25,0.5,0.0,-5.77999210357666,-5.694005966186523,0.0,0.0,0.0,0,-63,,,
97,17333897,1686004235.299612,0.0,0.0,0.25,0.5,0.0,-5.829951763153076,-5.605754852294922,0.0,0.0,0.0,0,-62,,,
98,17433857,1686004235.399572,0.0,0.0,0.25,0.5,0.0,-5.875834941864014,-5.868940353393555,0.0,0.0,0.0,0,-61,,,
99,17533817,1686004235.499532,0.0,0.0,0.25,0.5,0.0,-5.923984050750732,-6.024594306945801,0.0,0.0,0.0,0,-60,,,
100,17633777,1686004235.5994918,0.0,0.0,0.25,0.5,0.0,-5.982166767120361,-6.062964916229248,0.0,0.0,0.0,0,-60,,,
101,17733737,1686004235.699452,0.0,0.0,0.25,0.5,0.0,-6.04872465133667,-6.168345928192139,0.0,0.0,0.0,0,-61,,,
102,17833697,1686004235.799412,0.0,0.0,0.25,0.5,0.0,-6.122234344482422,-5.914664268493652,0.0,0.0,0.0,0,-62,,,
103,17933657,1686004235.8993719,0.0,0.0,0.25,0.5,0.0,-6.188802242279053,-6.146030902862549,0.0,0.0,0.0,0,-62,,,
104,18033617,1686004235.999332,0.0,0.0,0.25,0.5,0.0,-6.250027179718018,-6.039755344390869,0.0,0.0,0.0,0,-62,,,
105,18133577,1686004236.099292,0.0,0.0,0.25,0.5,0.0,-6.244446754455566,-6.148752212524414,0.0,0.0,0.0,0,-61,,,
106,18233537,1686004236.199252,0.0,0.0,0.25,0.5,0.0,-6.292539119720459,-6.49013614654541,0.0,0.0,0.0,0,-60,,,
107,18333497,1686004236.299212,0.0,0.0,0.25,0.5,0.0,-6.3485541343688965,-6.383747577667236,0.0,0.0,0.0,0,-60,,,
108,18434290,1686004236.4000049,0.0,0.0,0.25,0.5,0.0,-6.410416603088379,-6.25044584274292,0.0,0.0,0.0,0,-60,,,
109,18534250,1686004236.4999647,0.0,0.0,0.25,0.5,0.0,-6.464444637298584,-6.30507230758667,0.0,0.0,0.0,0,-59,,,
110,18634210,1686004236.599925,0.0,0.0,0.25,0.5,0.0,-6.509082317352295,-6.659332752227783,0.0,0.0,0.0,0,-58,,,
111,18734170,1686004236.699885,0.0,0.0,0.25,0.5,0.0,-6.558897495269775,-6.782293319702148,0.0,0.0,0.0,0,-57,,,
112,18834130,1686004236.7998447,0.0,0.0,0.25,0.5,0.0,-6.621553897857666,-6.61668586730957,0.0,0.0,0.0,0,-58,,,
113,18934090,1686004236.8998048,0.0,0.0,0.25,0.5,0.0,-6.685876846313477,-6.681853294372559,0.0,0.0,0.0,0,-58,,,
114,19034050,1686004236.9997647,0.0,0.0,0.25,0.5,0.0,-6.746576309204102,-6.71678638458252,0.0,0.0,0.0,0,-59,,,
115,19134010,1686004237.099725,0.0,0.0,0.25,0.5,0.0,-6.803723812103272,-6.977073669433594,0.0,0.0,0.0,0,-58,,,
116,19233970,1686004237.1996849,0.0,0.0,0.25,0.5,0.0,-6.865708351135254,-7.067044734954834,0.0,0.0,0.0,0,-58,,,
117,19333930,1686004237.2996447,0.0,0.0,0.25,0.5,0.0,-6.936547756195068,-7.111914157867432,0.0,0.0,0.0,0,-59,,,
118,19433890,1686004237.399605,0.0,0.0,0.25,0.5,0.0,-7.013401508331299,-6.907918453216553,0.0,0.0,0.0,0,-61,,,
119,19533850,1686004237.499565,0.0,0.0,0.25,0.5,0.0,-7.083283424377441,-7.061853408813477,0.0,0.0,0.0,0,-61,,,
120,19633810,1686004237.5995247,0.0,0.0,0.25,0.5,0.0,-7.145772457122803,-7.093008041381836,0.0,0.0,0.0,0,-61,,,
121,19733770,1686004237.6994848,0.0,0.0,0.25,0.5,0.0,-7.20372200012207,-7.2665696144104,0.0,0.0,0.0,0,-61,,,
122,19833730,1686004237.799445,0.0,0.0,0.25,0.5,0.0,-7.262325763702393,-7.403846263885498,0.0,0.0,0.0,0,-60,,,
123,19933690,1686004237.899405,0.0,0.0,0.25,0.5,0.0,-7.3269195556640625,-7.514375686645508,0.0,0.0,0.0,0,-61,,,
124,20033650,1686004237.9993649,0.0,0.0,0.25,0.5,0.0,-7.399277210235596,-7.539015293121338,0.0,0.0,0.0,0,-62,,,
125,20133610,1686004238.0993247,0.0,0.0,0.25,0.5,0.0,-7.476394653320312,-7.472921848297119,0.0,0.0,0.0,0,-63,,,
126,20233570,1686004238.199285,0.0,0.0,0.25,0.5,0.0,-7.550520896911621,-7.633957862854004,0.0,0.0,0.0,0,-64,,,
127,20333530,1686004238.2992449,0.0,0.0,0.25,0.5,0.0,-7.623148441314697,-7.765769481658935,0.0,0.0,0.0,0,-64,,,
128,20433490,1686004238.3992047,0.0,0.0,0.25,0.5,0.0,-7.69912576675415,-7.733839988708496,0.0,0.0,0.0,0,-65,,,
129,20534283,1686004238.4999979,0.0,0.0,0.25,0.5,0.0,-7.77533483505249,-7.52310848236084,0.0,0.0,0.0,0,-66,,,
130,20634243,1686004238.599958,0.0,0.0,0.25,0.5,0.0,-7.837562084197998,-7.666805744171143,0.0,0.0,0.0,0,-65,,,
131,20734203,1686004238.699918,0.0,0.0,0.25,0.5,0.0,-7.8875412940979,-7.7674689292907715,0.0,0.0,0.0,0,-64,,,
132,20834163,1686004238.799878,0.0,0.0,0.25,0.5,0.0,-7.932458400726318,-7.907422542572021,0.0,0.0,0.0,0,-62,,,
133,20934123,1686004238.899838,0.0,0.0,0.25,0.5,0.0,-7.97830057144165,-8.127562522888184,0.0,0.0,0.0,0,-61,,,
134,21034083,1686004238.9997978,0.0,0.0,0.25,0.5,0.0,-8.033299446105957,-8.210174560546875,0.0,0.0,0.0,0,-61,,,
135,21134043,1686004239.099758,0.0,0.0,0.25,0.5,0.0,-8.099321365356445,-8.232274055480957,0.0,0.0,0.0,0,-61,,,
136,21234003,1686004239.199718,0.0,0.0,0.25,0.5,0.0,-8.1719331741333,-7.951642990112305,0.0,0.0,0.0,0,-62,,,
137,21333963,1686004239.2996778,0.0,0.0,0.25,0.5,0.0,-8.234515190124512,-8.279678344726562,0.0,0.0,0.0,0,-62,,,
138,21433923,1686004239.399638,0.0,0.0,0.25,0.5,0.0,-8.292891502380371,-8.238202095031738,0.0,0.0,0.0,0,-62,,,
139,21533883,1686004239.499598,0.0,0.0,0.25,0.5,0.0,-8.349982261657715,-8.409564018249512,0.0,0.0,0.0,0,-62,,,
140,21633843,1686004239.5995579,0.0,0.0,0.25,0.5,0.0,-8.408430099487305,-8.469700813293457,0.0,0.0,0.0,0,-61,,,
141,21733803,1686004239.699518,0.0,0.0,0.25,0.5,0.0,-8.470253944396973,-8.51446533203125,0.0,0.0,0.0,0,-61,,,
142,21833763,1686004239.7994778,0.0,0.0,0.25,0.5,0.0,-8.533793449401855,-8.603428840637207,0.0,0.0,0.0,0,-62,,,
143,21933723,1686004239.899438,0.0,0.0,0.25,0.5,0.0,-8.599176406860352,-8.647443771362305,0.0,0.0,0.0,0,-62,,,
144,22033683,1686004239.999398,0.0,0.0,0.25,0.5,0.0,-8.66560173034668,-8.701286315917969,0.0,0.0,0.0,0,-62,,,
145,22133643,1686004240.0993578,0.0,0.0,0.25,0.5,0.0,-8.731879234313965,-8.514660835266113,0.0,0.0,0.0,0,-62,,,
146,22233603,1686004240.199318,0.0,0.0,0.25,0.5,0.0,-8.787945747375488,-8.664277076721191,0.0,0.0,0.0,0,-62,,,
147,22333563,1686004240.299278,0.0,0.0,0.25,0.5,0.0,-8.835020065307617,-8.817015647888184,0.0,0.0,0.0,0,-60,,,
148,22433523,1686004240.3992379,0.0,0.0,0.25,0.5,0.0,-8.88166332244873,-8.826066970825195,0.0,0.0,0.0,0,-59,,,
149,22533483,1686004240.499198,0.0,0.0,0.25,0.5,0.0,-8.92850399017334,-9.08848476409912,0.0,0.0,0.0,0,-58,,,
150,22634276,1686004240.5999908,0.0,0.0,0.25,0.5,0.0,-8.98332405090332,-9.043447494506836,0.0,0.0,0.0,0,-58,,,
151,22734236,1686004240.6999507,0.0,0.0,0.25,0.5,0.0,-9.043423652648926,-8.974069595336914,0.0,0.0,0.0,0,-58,,,
152,22834196,1686004240.799911,0.0,0.0,0.25,0.5,0.0,-9.100275039672852,-8.95762825012207,0.0,0.0,0.0,0,-58,,,
153,22934156,1686004240.8998709,0.0,0.0,0.25,0.5,0.0,-9.149081230163574,-9.379508018493652,0.0,0.0,0.0,0,-57,,,
154,23034116,1686004240.9998307,0.0,0.0,0.25,0.5,0.0,-9.205086708068848,-9.336430549621582,0.0,0.0,0.0,0,-57,,,
155,23134076,1686004241.099791,0.0,0.0,0.25,0.5,0.0,-9.270124435424805,-9.22215175628662,0.0,0.0,0.0,0,-58,,,
156,23234036,1686004241.199751,0.0,0.0,0.25,0.5,0.0,-9.33241081237793,-9.239871978759766,0.0,0.0,0.0,0,-58,,,
157,23333996,1686004241.2997108,0.0,0.0,0.25,0.5,0.0,-9.387211799621582,-9.250487327575684,0.0,0.0,0.0,0,-58,,,
158,23433956,1686004241.3996708,0.0,0.0,0.25,0.5,0.0,-9.433993339538574,-9.654804229736328,0.0,0.0,0.0,0,-57,,,
159,23533916,1686004241.4996307,0.0,0.0,0.25,0.5,0.0,-9.48801326751709,-9.732073783874512,0.0,0.0,0.0,0,-56,,,
160,23633876,1686004241.599591,0.0,0.0,0.25,0.5,0.0,-9.55555248260498,-9.73468017578125,0.0,0.0,0.0,0,-57,,,
161,23733836,1686004241.6995509,0.0,0.0,0.25,0.5,0.0,-9.630664825439451,-9.657464027404783,0.0,0.0,0.0,0,-59,,,
162,23833796,1686004241.7995107,0.0,0.0,0.25,0.5,0.0,-9.704001426696776,-9.797542572021484,0.0,0.0,0.0,0,-60,,,
163,23933756,1686004241.899471,0.0,0.0,0.25,0.5,0.0,-9.775720596313477,-9.848984718322754,0.0,0.0,0.0,0,-60,,,
164,24033716,1686004241.999431,0.0,0.0,0.25,0.5,0.0,-9.847196578979492,-9.903956413269045,0.0,0.0,0.0,0,-61,,,
165,24133676,1686004242.0993907,0.0,0.0,0.25,0.5,0.0,-9.917692184448242,-9.82076930999756,0.0,0.0,0.0,0,-62,,,
166,24233636,1686004242.1993508,0.0,0.0,0.25,0.5,0.0,-9.98137378692627,-9.940204620361328,0.0,0.0,0.0,0,-62,,,
167,24333596,1686004242.2993107,0.0,0.0,0.25,0.5,0.0,-10.039304733276367,-10.26432991027832,0.0,0.0,0.0,0,-61,,,
168,24433556,1686004242.399271,0.0,0.0,0.25,0.5,0.0,-10.104838371276855,-10.013687133789062,0.0,0.0,0.0,0,-62,,,
169,24533516,1686004242.4992309,0.0,0.0,0.25,0.5,0.0,-10.169109344482422,-10.200050354003906,0.0,0.0,0.0,0,-62,,,
170,24633476,1686004242.5991907,0.0,0.0,0.25,0.5,0.0,-10.230612754821776,-10.121849060058594,0.0,0.0,0.0,0,-62,,,
171,24734269,1686004242.6999838,0.0,0.0,0.25,0.5,0.0,-10.286911010742188,-10.399528503417969,0.0,0.0,0.0,0,-61,,,
172,24834229,1686004242.799944,0.0,0.0,0.25,0.5,0.0,-10.346851348876951,-10.334750175476074,0.0,0.0,0.0,0,-61,,,
173,24934189,1686004242.899904,0.0,0.0,0.5,0.5,0.0,-10.406084060668944,-10.328742980957031,0.0,0.0,0.0,0,-55,,,
174,25034149,1686004242.9998639,0.0,0.0,0.5,0.5,0.0,-10.447942733764648,-10.678241729736328,0.0,0.0,0.0,0,-40,,,
175,25134109,1686004243.099824,0.0,0.0,0.5,0.5,0.0,-10.487740516662598,-10.655797958374023,0.0,0.0,0.0,0,-32,,,
176,25234069,1686004243.199784,0.0,0.0,0.5,0.5,0.0,-10.528135299682615,-10.463216781616213,0.0,0.0,0.0,0,-27,,,
177,25334029,1686004243.299744,0.0,0.0,0.5,0.5,0.0,-10.557435989379885,-10.685790061950684,0.0,0.0,0.0,0,-23,,,
178,25433989,1686004243.399704,0.0,0.0,0.5,0.5,0.0,-10.584307670593262,-10.63370132446289,0.0,0.0,0.0,0,-20,,,
179,25533949,1686004243.4996638,0.0,0.0,0.5,0.5,0.0,-10.60825252532959,-10.716719627380373,0.0,0.0,0.0,0,-18,,,
180,25633909,1686004243.599624,0.0,0.0,0.5,0.5,0.0,-10.631531715393066,-10.777669906616213,0.0,0.0,0.0,0,-17,,,
181,25733869,1686004243.699584,0.0,0.0,0.5,0.5,0.0,-10.656704902648926,-10.479387283325195,0.0,0.0,0.0,0,-16,,,
182,25833829,1686004243.7995439,0.0,0.0,0.5,0.5,0.0,-10.66872787475586,-10.518094062805176,0.0,0.0,0.0,0,-14,,,
183,25933789,1686004243.899504,0.0,0.0,0.5,0.5,0.0,-10.667864799499512,-10.84731388092041,0.0,0.0,0.0,0,-11,,,
184,26033749,1686004243.999464,0.0,0.0,0.5,0.5,0.0,-10.672966003417969,-10.739022254943848,0.0,0.0,0.0,0,-10,,,
185,26133709,1686004244.099424,0.0,0.0,0.5,0.5,0.0,-10.681302070617676,-10.687512397766112,0.0,0.0,0.0,0,-9,,,
186,26233669,1686004244.199384,0.0,0.0,0.5,0.5,0.0,-10.687322616577148,-10.620954513549805,0.0,0.0,0.0,0,-8,,,
187,26333629,1686004244.2993438,0.0,0.0,0.5,0.5,0.0,-10.687200546264648,-10.522395133972168,0.0,0.0,0.0,0,-6,,,
188,26433589,1686004244.399304,0.0,0.0,0.5,0.5,0.0,-10.676780700683594,-10.755191802978516,0.0,0.0,0.0,0,-4,,,
189,26533549,1686004244.499264,0.0,0.0,0.5,0.5,0.0,-10.668371200561523,-10.549304008483888,0.0,0.0,0.0,0,-3,,,
190,26633509,1686004244.5992239,0.0,0.0,0.5,0.5,0.0,-10.655160903930664,-10.858963012695312,0.0,0.0,0.0,0,-1,,,
191,26734302,1686004244.7000167,0.0,0.0,0.5,0.5,0.0,-10.650141716003418,-10.712445259094238,0.0,0.0,0.0,0,0,,,
192,26834262,1686004244.7999768,0.0,0.0,0.5,0.5,0.0,-10.648469924926758,-10.737876892089844,0.0,0.0,0.0,0,0,,,
193,26934222,1686004244.899937,0.0,0.0,0.5,0.5,0.0,-10.648122787475586,-10.58287525177002,0.0,0.0,0.0,0,1,,,
194,27034182,1686004244.999897,0.0,0.0,0.5,0.5,0.0,-10.641677856445312,-10.599141120910645,0.0,0.0,0.0,0,2,,,
195,27134142,1686004245.0998569,0.0,0.0,0.5,0.5,0.0,-10.629446029663086,-10.582038879394531,0.0,0.0,0.0,0,3,,,
196,27234102,1686004245.1998167,0.0,0.0,0.5,0.5,0.0,-10.612759590148926,-10.78580093383789,0.0,0.0,0.0,0,5,,,
197,27334062,1686004245.299777,0.0,0.0,0.5,0.5,0.0,-10.60252571105957,-10.884259223937988,0.0,0.0,0.0,0,6,,,
198,27434022,1686004245.399737,0.0,0.0,0.5,0.5,0.0,-10.604598999023438,-10.654444694519045,0.0,0.0,0.0,0,5,,,
199,27533982,1686004245.4996967,0.0,0.0,0.5,0.5,0.0,-10.606080055236816,-10.56525707244873,0.0,0.0,0.0,0,5,,,
200,27633942,1686004245.5996568,0.0,0.0,0.5,0.5,0.0,-10.599615097045898,-10.794954299926758,0.0,0.0,0.0,0,6,,,
201,27733902,1686004245.699617,0.0,0.0,0.5,0.5,0.0,-10.59694766998291,-10.722966194152832,0.0,0.0,0.0,0,6,,,
202,27833862,1686004245.799577,0.0,0.0,0.5,0.5,0.0,-10.596946716308594,-10.638504981994627,0.0,0.0,0.0,0,7,,,
203,27933822,1686004245.8995368,0.0,0.0,0.5,0.5,0.0,-10.593954086303713,-10.564447402954102,0.0,0.0,0.0,0,7,,,
204,28033782,1686004245.9994967,0.0,0.0,0.5,0.5,0.0,-10.584321022033691,-10.57501220703125,0.0,0.0,0.0,0,8,,,
205,28133742,1686004246.099457,0.0,0.0,0.5,0.5,0.0,-10.569761276245115,-10.521072387695312,0.0,0.0,0.0,0,9,,,
206,28233702,1686004246.1994169,0.0,0.0,0.5,0.5,0.0,-10.549948692321776,-10.520467758178713,0.0,0.0,0.0,0,10,,,
207,28333662,1686004246.2993767,0.0,0.0,0.5,0.5,0.0,-10.52644157409668,-10.494367599487305,0.0,0.0,0.0,0,12,,,
208,28433622,1686004246.3993368,0.0,0.0,0.5,0.5,0.0,-10.50008487701416,-10.52077579498291,0.0,0.0,0.0,0,13,,,
209,28533582,1686004246.499297,0.0,0.0,0.5,0.5,0.0,-10.473698616027832,-10.562862396240234,0.0,0.0,0.0,0,14,,,
210,28633542,1686004246.5992568,0.0,0.0,0.5,0.5,0.0,-10.450773239135742,-10.563433647155762,0.0,0.0,0.0,0,15,,,
211,28733502,1686004246.6992168,0.0,0.0,0.5,0.5,0.0,-10.432002067565918,-10.828109741210938,0.0,0.0,0.0,0,16,,,
212,28834295,1686004246.80001,0.0,0.0,0.5,0.5,0.0,-10.42923069000244,-10.545461654663086,0.0,0.0,0.0,0,15,,,
213,28934255,1686004246.8999698,0.0,0.0,0.5,0.5,0.0,-10.429075241088867,-10.663020133972168,0.0,0.0,0.0,0,14,,,
214,29034215,1686004246.99993,0.0,0.0,0.5,0.5,0.0,-10.431568145751951,-10.74605941772461,0.0,0.0,0.0,0,13,,,
215,29134175,1686004247.09989,0.0,0.0,0.5,0.5,0.0,-10.44188117980957,-10.46703052520752,0.0,0.0,0.0,0,11,,,
216,29234135,1686004247.1998498,0.0,0.0,0.5,0.5,0.0,-10.448391914367676,-10.787236213684082,0.0,0.0,0.0,0,10,,,
217,29334095,1686004247.29981,0.0,0.0,0.5,0.5,0.0,-10.45873737335205,-10.48017120361328,0.0,0.0,0.0,0,9,,,
218,29434055,1686004247.39977,0.0,0.0,0.5,0.5,0.0,-10.466473579406738,-10.691874504089355,0.0,0.0,0.0,0,8,,,
219,29534015,1686004247.4997299,0.0,0.0,0.5,0.5,0.0,-10.474014282226562,-10.416958808898926,0.0,0.0,0.0,0,7,,,
220,29633975,1686004247.59969,0.0,0.0,0.5,0.5,0.0,-10.475125312805176,-10.742931365966797,0.0,0.0,0.0,0,7,,,
221,29733935,1686004247.69965,0.0,0.0,0.5,0.5,0.0,-10.47870922088623,-10.59777545928955,0.0,0.0,0.0,0,6,,,
222,29833895,1686004247.79961,0.0,0.0,0.5,0.5,0.0,-10.48545265197754,-10.696414947509766,0.0,0.0,0.0,0,5,,,
223,29933855,1686004247.89957,0.0,0.0,0.5,0.5,0.0,-10.495193481445312,-10.463380813598633,0.0,0.0,0.0,0,4,,,
224,30033815,1686004247.9995298,0.0,0.0,0.5,0.5,0.0,-10.499897003173828,-10.589531898498535,0.0,0.0,0.0,0,3,,,
225,30133775,1686004248.09949,0.0,0.0,0.5,0.5,0.0,-10.500938415527344,-10.512149810791016,0.0,0.0,0.0,0,3,,,
226,30233735,1686004248.19945,0.0,0.0,0.5,0.5,0.0,-10.499138832092283,-10.489659309387209,0.0,0.0,0.0,0,3,,,
227,30333695,1686004248.2994099,0.0,0.0,0.5,0.5,0.0,-10.493023872375488,-10.340520858764648,0.0,0.0,0.0,0,3,,,
228,30433655,1686004248.39937,0.0,0.0,0.5,0.5,0.0,-10.477909088134766,-10.608739852905272,0.0,0.0,0.0,0,4,,,
229,30533615,1686004248.49933,0.0,0.0,0.5,0.5,0.0,-10.46436882019043,-10.401461601257324,0.0,0.0,0.0,0,5,,,
230,30633575,1686004248.59929,0.0,0.0,0.5,0.5,0.0,-10.450265884399414,-10.561030387878418,0.0,0.0,0.0,0,5,,,
231,30733535,1686004248.69925,0.0,0.0,0.5,0.5,0.0,-10.438277244567873,-10.292899131774902,0.0,0.0,0.0,0,6,,,
232,30833495,1686004248.7992098,0.0,0.0,0.5,0.5,0.0,-10.4213228225708,-10.628836631774902,0.0,0.0,0.0,0,7,,,
233,30934288,1686004248.9000027,0.0,0.0,0.5,0.5,0.0,-10.408927917480469,-10.545769691467283,0.0,0.0,0.0,0,7,,,
234,31034248,1686004248.999963,0.0,0.0,0.5,0.5,0.0,-10.404427528381348,-10.567309379577637,0.0,0.0,0.0,0,6,,,
235,31134208,1686004249.099923,0.0,0.0,0.5,0.5,0.0,-10.404943466186523,-10.30626392364502,0.0,0.0,0.0,0,6,,,
236,31234168,1686004249.1998827,0.0,0.0,0.5,0.5,0.0,-10.399392127990724,-10.579340934753418,0.0,0.0,0.0,0,6,,,
237,31334128,1686004249.2998428,0.0,0.0,0.5,0.5,0.0,-10.394911766052246,-10.312237739562988,0.0,0.0,0.0,0,5,,,
238,31434088,1686004249.3998027,0.0,0.0,0.5,0.5,0.0,-10.386883735656738,-10.565752029418944,0.0,0.0,0.0,0,6,,,
239,31534048,1686004249.499763,0.0,0.0,0.5,0.5,0.0,-10.380990982055664,-10.420756340026855,0.0,0.0,0.0,0,5,,,
240,31634008,1686004249.5997229,0.0,0.0,0.5,0.5,0.0,-10.37674331665039,-10.395064353942873,0.0,0.0,0.0,0,5,,,
241,31733968,1686004249.6996827,0.0,0.0,0.5,0.5,0.0,-10.36990737915039,-10.504095077514648,0.0,0.0,0.0,0,5,,,
242,31833928,1686004249.799643,0.0,0.0,0.5,0.5,0.0,-10.365323066711426,-10.527817726135254,0.0,0.0,0.0,0,5,,,
243,31933888,1686004249.899603,0.0,0.0,0.5,0.5,0.0,-10.365924835205078,-10.44859790802002,0.0,0.0,0.0,0,5,,,
244,32033848,1686004249.9995627,0.0,0.0,0.5,0.5,0.0,-10.367785453796388,-10.424970626831056,0.0,0.0,0.0,0,4,,,
245,32133808,1686004250.0995228,0.0,0.0,0.5,0.5,0.0,-10.36799144744873,-10.410968780517578,0.0,0.0,0.0,0,4,,,
246,32233768,1686004250.199483,0.0,0.0,0.5,0.5,0.0,-10.366071701049805,-10.158531188964844,0.0,0.0,0.0,0,3,,,
247,32333728,1686004250.299443,0.0,0.0,0.5,0.5,0.0,-10.352663040161133,-10.389662742614746,0.0,0.0,0.0,0,4,,,
248,32433688,1686004250.3994029,0.0,0.0,0.5,0.5,0.0,-10.335307121276855,-10.372663497924805,0.0,0.0,0.0,0,5,,,
249,32533648,1686004250.4993627,0.0,0.0,0.5,0.5,0.0,-10.32020092010498,-10.45188331604004,0.0,0.0,0.0,0,6,,,
250,32633608,1686004250.599323,0.0,0.0,0.5,0.5,0.0,-10.310208320617676,-10.214144706726074,0.0,0.0,0.0,0,6,,,
251,32733568,1686004250.699283,0.0,0.0,0.5,0.5,0.0,-10.296812057495115,-10.14826488494873,0.0,0.0,0.0,0,6,,,
252,32833528,1686004250.7992427,0.0,0.0,0.5,0.5,0.0,-10.273970603942873,-10.13630199432373,0.0,0.0,0.0,0,8,,,
253,32933488,1686004250.8992028,0.0,0.0,0.5,0.5,0.0,-10.243474960327148,-10.245598793029783,0.0,0.0,0.0,0,9,,,
254,33034281,1686004250.999996,0.0,0.0,0.5,0.5,0.0,-10.212759971618652,-10.367971420288086,0.0,0.0,0.0,0,11,,,
255,33134241,1686004251.099956,0.0,0.0,0.5,0.5,0.0,-10.190491676330566,-10.20834255218506,0.0,0.0,0.0,0,12,,,
256,33234201,1686004251.199916,0.0,0.0,0.5,0.5,0.0,-10.171646118164062,-10.423476219177246,0.0,0.0,0.0,0,12,,,
257,33334161,1686004251.299876,0.0,0.0,0.5,0.5,0.0,-10.16113567352295,-10.38344669342041,0.0,0.0,0.0,0,12,,,
258,33434121,1686004251.3998358,0.0,0.0,0.5,0.5,0.0,-10.160188674926758,-10.365201950073242,0.0,0.0,0.0,0,11,,,
259,33534081,1686004251.499796,0.0,0.0,0.5,0.5,0.0,-10.164752960205078,-10.006600379943848,0.0,0.0,0.0,0,9,,,
260,33634041,1686004251.599756,0.0,0.0,0.5,0.5,0.0,-10.158855438232422,-10.229043960571287,0.0,0.0,0.0,0,9,,,
261,33734001,1686004251.6997159,0.0,0.0,0.5,0.5,0.0,-10.146881103515623,-10.223455429077148,0.0,0.0,0.0,0,10,,,
262,33833961,1686004251.799676,0.0,0.0,0.5,0.5,0.0,-10.135735511779783,-10.121732711791992,0.0,0.0,0.0,0,10,,,
263,33933921,1686004251.899636,0.0,0.0,0.5,0.5,0.0,-10.121789932250977,-9.997281074523926,0.0,0.0,0.0,0,10,,,
264,34033881,1686004251.9995959,0.0,0.0,0.5,0.5,0.0,-10.09958267211914,-10.265088081359863,0.0,0.0,0.0,0,11,,,
265,34133841,1686004252.099556,0.0,0.0,0.5,0.5,0.0,-10.08033561706543,-10.123594284057615,0.0,0.0,0.0,0,12,,,
266,34233801,1686004252.1995158,0.0,0.0,0.5,0.5,0.0,-10.064395904541016,-10.037637710571287,0.0,0.0,0.0,0,12,,,
267,34333761,1686004252.299476,0.0,0.0,0.5,0.5,0.0,-10.045318603515623,-10.127205848693848,0.0,0.0,0.0,0,13,,,
268,34433721,1686004252.399436,0.0,0.0,0.5,0.5,0.0,-10.026619911193848,-9.931836128234863,0.0,0.0,0.0,0,13,,,
269,34533681,1686004252.4993958,0.0,0.0,0.5,0.5,0.0,-10.003414154052734,-10.129249572753906,0.0,0.0,0.0,0,14,,,
270,34633641,1686004252.599356,0.0,0.0,0.5,0.5,0.0,-9.981672286987305,-9.907797813415527,0.0,0.0,0.0,0,14,,,
271,34733601,1686004252.699316,0.0,0.0,0.5,0.5,0.0,-9.957629203796388,-10.061209678649902,0.0,0.0,0.0,0,15,,,
272,34833561,1686004252.7992759,0.0,0.0,0.5,0.5,0.0,-9.93441104888916,-9.978727340698242,0.0,0.0,0.0,0,16,,,
273,34933521,1686004252.899236,0.0,0.0,0.5,0.5,0.0,-9.912992477416992,-9.922457695007324,0.0,0.0,0.0,0,16,,,
274,35033481,1686004252.9991958,0.0,0.0,0.5,0.5,0.0,-9.890021324157717,-10.198159217834473,0.0,0.0,0.0,0,17,,,
275,35134274,1686004253.0999887,0.0,0.0,0.5,0.5,0.0,-9.876553535461426,-10.101333618164062,0.0,0.0,0.0,0,16,,,
276,35234234,1686004253.199949,0.0,0.0,0.5,0.5,0.0,-9.873029708862305,-10.11637020111084,0.0,0.0,0.0,0,15,,,
277,35334194,1686004253.2999089,0.0,0.0,0.5,0.5,0.0,-9.875499725341797,-10.174766540527344,0.0,0.0,0.0,0,14,,,
278,35434154,1686004253.3998687,0.0,0.0,0.5,0.5,0.0,-9.885048866271973,-10.025548934936523,0.0,0.0,0.0,0,12,,,
279,35534114,1686004253.4998288,0.0,0.0,0.5,0.5,0.0,-9.894999504089355,-9.804890632629396,0.0,0.0,0.0,0,11,,,
280,35634074,1686004253.599789,0.0,0.0,0.5,0.5,0.0,-9.893308639526367,-9.902963638305664,0.0,0.0,0.0,0,10,,,
281,35734034,1686004253.6997488,0.0,0.0,0.5,0.5,0.0,-9.882723808288574,-10.117587089538574,0.0,0.0,0.0,0,10,,,
282,35833994,1686004253.7997088,0.0,0.0,0.5,0.5,0.0,-9.876977920532228,-9.837671279907228,0.0,0.0,0.0,0,10,,,
283,35933954,1686004253.8996687,0.0,0.0,0.5,0.5,0.0,-9.868903160095217,-9.807717323303224,0.0,0.0,0.0,0,10,,,
284,36033914,1686004253.999629,0.0,0.0,0.5,0.5,0.0,-9.852628707885742,-10.067527770996094,0.0,0.0,0.0,0,11,,,
285,36133874,1686004254.0995889,0.0,0.0,0.5,0.5,0.0,-9.840904235839844,-9.995002746582031,0.0,0.0,0.0,0,11,,,
286,36233834,1686004254.1995487,0.0,0.0,0.5,0.5,0.0,-9.835899353027344,-10.02578067779541,0.0,0.0,0.0,0,10,,,
287,36333794,1686004254.299509,0.0,0.0,0.5,0.5,0.0,-9.83584976196289,-9.991738319396973,0.0,0.0,0.0,0,9,,,
288,36433754,1686004254.399469,0.0,0.0,0.5,0.5,0.0,-9.838907241821287,-9.766630172729492,0.0,0.0,0.0,0,8,,,
289,36533714,1686004254.4994287,0.0,0.0,0.5,0.5,0.0,-9.83473300933838,-10.004195213317873,0.0,0.0,0.0,0,8,,,
290,36633674,1686004254.5993888,0.0,0.0,0.5,0.5,0.0,-9.830239295959473,-9.865324020385742,0.0,0.0,0.0,0,8,,,
291,36733634,1686004254.6993487,0.0,0.0,0.5,0.5,0.0,-9.825551986694336,-10.051852226257324,0.0,0.0,0.0,0,8,,,
292,36833594,1686004254.799309,0.0,0.0,0.5,0.5,0.0,-9.825502395629885,-9.94682788848877,0.0,0.0,0.0,0,7,,,
293,36933554,1686004254.8992689,0.0,0.0,0.5,0.5,0.0,-9.82887363433838,-9.747366905212402,0.0,0.0,0.0,0,6,,,
294,37033514,1686004254.9992287,0.0,0.0,0.5,0.5,0.0,-9.824705123901367,-9.89760398864746,0.0,0.0,0.0,0,6,,,
295,37133474,1686004255.099189,0.0,0.0,0.5,0.5,0.0,-9.817147254943848,-9.683357238769531,0.0,0.0,0.0,0,6,,,
296,37234267,1686004255.199982,0.0,0.0,0.5,0.5,0.0,-9.800848007202148,-9.711954116821287,0.0,0.0,0.0,0,7,,,
297,37334227,1686004255.299942,0.0,0.0,0.5,0.5,0.0,-9.777729034423828,-9.806086540222168,0.0,0.0,0.0,0,8,,,
298,37434187,1686004255.3999019,0.0,0.0,0.5,0.5,0.0,-9.75536823272705,-9.978699684143066,0.0,0.0,0.0,0,9,,,
299,37534147,1686004255.499862,0.0,0.0,0.5,0.5,0.0,-9.743887901306152,-9.714675903320312,0.0,0.0,0.0,0,9,,,
300,37634107,1686004255.599822,0.0,0.0,0.5,0.5,0.0,-9.731125831604004,-9.96679401397705,0.0,0.0,0.0,0,9,,,
301,37734067,1686004255.699782,0.0,0.0,0.5,0.5,0.0,-9.726033210754396,-9.75882053375244,0.0,0.0,0.0,0,9,,,
302,37834027,1686004255.799742,0.0,0.0,0.5,0.5,0.0,-9.72072696685791,-9.87440586090088,0.0,0.0,0.0,0,8,,,
303,37933987,1686004255.8997018,0.0,0.0,0.5,0.5,0.0,-9.718066215515137,-9.870183944702148,0.0,0.0,0.0,0,8,,,
304,38033947,1686004255.999662,0.0,0.0,0.5,0.5,0.0,-9.718982696533203,-9.593801498413086,0.0,0.0,0.0,0,7,,,
305,38133907,1686004256.099622,0.0,0.0,0.5,0.5,0.0,-9.709819793701172,-9.761150360107422,0.0,0.0,0.0,0,7,,,
306,38233867,1686004256.1995819,0.0,0.0,0.5,0.5,0.0,-9.697794914245604,-9.70418643951416,0.0,0.0,0.0,0,8,,,
307,38333827,1686004256.299542,0.0,0.0,0.5,0.5,0.0,-9.684078216552734,-9.699041366577148,0.0,0.0,0.0,0,8,,,
308,38433787,1686004256.399502,0.0,0.0,0.5,0.5,0.0,-9.668865203857422,-9.831690788269045,0.0,0.0,0.0,0,9,,,
309,38533747,1686004256.499462,0.0,0.0,0.5,0.5,0.0,-9.65941333770752,-9.788166999816896,0.0,0.0,0.0,0,9,,,
310,38633707,1686004256.599422,0.0,0.0,0.5,0.5,0.0,-9.65451717376709,-9.866923332214355,0.0,0.0,0.0,0,8,,,
311,38733667,1686004256.6993818,0.0,0.0,0.5,0.5,0.0,-9.65629768371582,-9.756446838378906,0.0,0.0,0.0,0,7,,,
312,38833627,1686004256.799342,0.0,0.0,0.5,0.5,0.0,-9.658964157104492,-9.484785079956056,0.0,0.0,0.0,0,6,,,
313,38933587,1686004256.899302,0.3583944439888,0.0,0.47381392121315,0.5,-9.650136947631836,-9.648234367370604,-9.668743133544922,0.0,0.0,0.0,6,7,,,
314,39033547,1686004256.9992619,0.3711918890476227,0.0,0.3826706111431122,0.5,-9.644449234008787,-9.63414478302002,-9.807785987854004,0.0,0.0,0.0,1,4,,,
315,39133507,1686004257.099222,0.4205431938171386,0.0,0.3931050896644592,0.5,-9.64064121246338,-9.63109016418457,-9.714128494262695,0.0,0.0,0.0,0,0,,,
316,39234300,1686004257.2000148,0.4687312543392181,0.0,0.4336552917957306,0.5,-9.638076782226562,-9.634632110595703,-9.800132751464844,0.0,0.0,0.0,1,-2,,,
317,39334260,1686004257.299975,0.5212570428848267,0.0,0.4787415564060211,0.5,-9.636378288269045,-9.64415454864502,-9.840206146240234,0.0,0.0,0.0,3,-3,,,
318,39434220,1686004257.399935,0.6275897026062012,0.0,0.5508036613464355,0.5,-9.635242462158203,-9.659415245056152,-9.68463134765625,0.0,0.0,0.0,8,-3,,,
319,39534180,1686004257.4998949,0.6220740675926208,0.0,0.6120457053184509,0.5,-9.634483337402344,-9.669785499572754,-9.596269607543944,0.0,0.0,0.0,11,0,,,
320,39634140,1686004257.5998547,0.55975341796875,0.0,0.5951557159423828,0.5,-9.6339750289917,-9.666363716125488,-9.655363082885742,0.0,0.0,0.0,10,4,,,
321,39734100,1686004257.699815,0.491874098777771,0.0,0.5425552129745483,0.5,-9.633633613586426,-9.654388427734377,-9.691813468933104,0.0,0.0,0.0,6,7,,,
322,39834060,1686004257.799775,0.4038683772087097,0.0,0.4728889763355255,0.5,-9.633404731750488,-9.64108943939209,-9.48196029663086,0.0,0.0,0.0,2,7,,,
323,39934020,1686004257.8997347,0.3384397029876709,0.0,0.3946542739868164,0.5,-9.63325309753418,-9.619621276855469,-9.79690933227539,0.0,0.0,0.0,-3,6,,,
324,40033980,1686004257.9996948,0.3770479559898376,0.0,0.363368958234787,0.5,-9.633150100708008,-9.608561515808104,-9.623516082763672,0.0,0.0,0.0,-7,1,,,
325,40133940,1686004258.099655,0.4159240126609802,0.0,0.3917136788368225,0.5,-9.63308334350586,-9.605341911315918,-9.572969436645508,0.0,0.0,0.0,-8,-3,,,
326,40233900,1686004258.199615,0.4262674450874328,0.0,0.4154370725154876,0.5,-9.633033752441406,-9.60294246673584,-9.707711219787598,0.0,0.0,0.0,-8,-6,,,
327,40333860,1686004258.2995749,0.4443062543869018,0.0,0.4280005395412445,0.5,-9.63300895690918,-9.605999946594238,-9.425312042236328,0.0,0.0,0.0,-8,-7,,,
328,40433820,1686004258.3995347,0.4296684861183166,0.0,0.4406623840332031,0.5,-9.632984161376951,-9.601190567016602,-9.562596321105955,0.0,0.0,0.0,-9,-7,,,
329,40533780,1686004258.499495,0.3854106664657593,0.0,0.4123972952365875,0.5,-9.63296604156494,-9.592982292175291,-9.542412757873535,0.0,0.0,0.0,-11,-6,,,
330,40633740,1686004258.5994549,0.3766984939575195,0.0,0.3891592025756836,0.5,-9.63296604156494,-9.584880828857422,-9.6670560836792,0.0,0.0,0.0,-14,-8,,,
331,40733700,1686004258.6994147,0.3983693122863769,0.0,0.3869728147983551,0.5,-9.63296604156494,-9.584394454956056,-9.494851112365724,0.0,0.0,0.0,-14,-10,,,
332,40833660,1686004258.7993748,0.4029397964477539,0.0,0.4007567763328552,0.5,-9.63296604156494,-9.583608627319336,-9.816545486450195,0.0,0.0,0.0,-14,-12,,,
333,40933620,1686004258.899335,0.439251959323883,0.0,0.410467118024826,0.5,-9.63296604156494,-9.594358444213867,-9.739900588989258,0.0,0.0,0.0,-11,-13,,,
334,41033580,1686004258.999295,0.5106907486915588,0.0,0.4594416320323944,0.5,-9.63296604156494,-9.61285400390625,-9.655844688415527,0.0,0.0,0.0,-6,-12,,,
335,41133540,1686004259.0992548,0.596665620803833,0.0,0.5302590131759644,0.5,-9.63296604156494,-9.628990173339844,-9.86856460571289,0.0,0.0,0.0,-1,-10,,,
336,41233500,1686004259.1992147,0.6405143737792969,0.0,0.5964567065238953,0.5,-9.63296604156494,-9.649581909179688,-9.772071838378906,0.0,0.0,0.0,4,-8,,,
337,41334293,1686004259.3000078,0.6364737749099731,0.0,0.6286607384681702,0.5,-9.63296604156494,-9.667550086975098,-9.951602935791016,0.0,0.0,0.0,10,-2,,,
338,41434253,1686004259.399968,0.6353356838226318,0.0,0.6302808523178101,0.5,-9.63296604156494,-9.685938835144045,-9.675874710083008,0.0,0.0,0.0,15,3,,,
339,41534213,1686004259.499928,0.598750114440918,0.0,0.6226201057434082,0.5,-9.63296604156494,-9.691269874572754,-9.647561073303224,0.0,0.0,0.0,17,9,,,
340,41634173,1686004259.5998878,0.5345857739448547,0.0,0.5814686417579651,0.5,-9.63296604156494,-9.681100845336914,-9.867219924926758,0.0,0.0,0.0,14,13,,,
341,41734133,1686004259.699848,0.4888338148593902,0.0,0.525091290473938,0.5,-9.63296604156494,-9.67182445526123,-9.673850059509276,0.0,0.0,0.0,11,13,,,
342,41834093,1686004259.799808,0.4345084428787231,0.0,0.4812763333320617,0.5,-9.63296604156494,-9.659844398498535,-9.778106689453123,0.0,0.0,0.0,8,13,,,
343,41934053,1686004259.8997679,0.3973021805286407,0.0,0.4262901842594147,0.5,-9.63296604156494,-9.649470329284668,-9.771454811096191,0.0,0.0,0.0,4,11,,,
344,42034013,1686004259.999728,0.4176241457462311,0.0,0.4126472175121307,0.5,-9.63296604156494,-9.64381217956543,-9.65369987487793,0.0,0.0,0.0,3,8,,,
345,42104000,1686004259.999728,0.4176241457462311,0.0,0.4126472175121307,0.5,-9.63296604156494,-9.64381217956543,-9.65369987487793,0.0,0.0,0.0,3,8,-20.0,-9.66106631544736,10.24393368455264
346,42133973,1686004260.0996878,0.4231728315353393,0.0,0.4208784699440002,0.5,-9.63296604156494,-9.637788772583008,-9.615446090698242,0.0,10.22,0.0,1,5,-20.0,-9.66106631544736,10.24393368455264
347,42204000,1686004260.0996878,0.4231728315353393,0.0,0.4208784699440002,0.5,-9.63296604156494,-9.637788772583008,-9.615446090698242,0.0,10.22,0.0,1,5,-20.0,-9.673423816813582,10.231576183186418
348,42233933,1686004260.199648,0.4057912826538086,0.0,0.4167256355285644,0.5,-9.63296604156494,-9.628865242004396,-9.745100021362305,0.0,10.21,0.0,-1,4,-20.0,-9.673423816813582,10.231576183186418
349,42305000,1686004260.199648,0.4057912826538086,0.0,0.4167256355285644,0.5,-9.63296604156494,-9.628865242004396,-9.745100021362305,0.0,10.21,0.0,-1,4,-20.0,-9.679086356652933,10.225913643347068
350,42333893,1686004260.299608,0.4139383435249328,0.0,0.4085994064807892,0.5,-9.63296604156494,-9.624542236328123,-9.85541534423828,0.0,10.2,0.0,-2,1,-20.0,-9.679086356652933,10.225913643347068
351,42407000,1686004260.299608,0.4139383435249328,0.0,0.4085994064807892,0.5,-9.63296604156494,-9.624542236328123,-9.85541534423828,0.0,10.2,0.0,-2,1,-20.0,-9.684853152315608,10.220146847684392
352,42433853,1686004260.3995678,0.4690827429294586,0.0,0.4313133060932159,0.5,-9.63296604156494,-9.631622314453123,-9.699058532714844,0.0,10.2,0.0,0,-1,-20.0,-9.684853152315608,10.220146847684392
353,42507000,1686004260.3995678,0.4690827429294586,0.0,0.4313133060932159,0.5,-9.63296604156494,-9.631622314453123,-9.699058532714844,0.0,10.2,0.0,0,-1,-20.0,-9.673488698628422,10.231511301371578
354,42533813,1686004260.499528,0.5250518321990967,0.0,0.4838234782218933,0.5,-9.63296604156494,-9.640515327453612,-9.522449493408203,0.0,10.21,0.0,2,-1,-20.0,-9.673488698628422,10.231511301371578
355,42609000,1686004260.499528,0.5250518321990967,0.0,0.4838234782218933,0.5,-9.63296604156494,-9.640515327453612,-9.522449493408203,0.0,10.21,0.0,2,-1,-20.0,-9.661846263033969,10.243153736966033
356,42633773,1686004260.599488,0.5447797775268555,0.0,0.5284830331802368,0.5,-9.63296604156494,-9.638934135437012,-9.6444730758667,0.0,10.22,0.0,1,0,-20.0,-9.661846263033969,10.243153736966033
357,42710000,1686004260.599488,0.5447797775268555,0.0,0.5284830331802368,0.5,-9.63296604156494,-9.638934135437012,-9.6444730758667,0.0,10.22,0.0,1,0,-20.0,-9.652946031761688,10.252053968238313
358,42733733,1686004260.6994479,0.489161878824234,0.0,0.5177661776542664,0.5,-9.63296604156494,-9.632591247558594,-9.704512596130373,0.0,10.24,0.0,0,0,-20.0,-9.652946031761688,10.252053968238313
359,42810000,1686004260.6994479,0.489161878824234,0.0,0.5177661776542664,0.5,-9.63296604156494,-9.632591247558594,-9.704512596130373,0.0,10.24,0.0,0,0,-20.0,-9.64597901511448,10.25902098488552
360,42833693,1686004260.799408,0.4225347936153412,0.0,0.4689775109291076,0.5,-9.63296604156494,-9.62735080718994,-9.632732391357422,0.0,10.24,0.0,-1,1,-20.0,-9.64597901511448,10.25902098488552
361,42912000,1686004260.799408,0.4225347936153412,0.0,0.4689775109291076,0.5,-9.63296604156494,-9.62735080718994,-9.632732391357422,0.0,10.24,0.0,-1,1,-20.0,-9.63906998494202,10.26593001505798
362,42933653,1686004260.899368,0.4028550982475281,0.0,0.4265308380126953,0.5,-9.63296604156494,-9.620975494384766,-9.59809684753418,0.0,10.25,0.0,-3,1,-20.0,-9.63906998494202,10.26593001505798
363,43012000,1686004260.899368,0.4028550982475281,0.0,0.4265308380126953,0.5,-9.63296604156494,-9.620975494384766,-9.59809684753418,0.0,10.25,0.0,-3,1,-20.0,-9.634002506502885,10.270997493497116
364,43033613,1686004260.999328,0.3974208235740661,0.0,0.4078918099403381,0.5,-9.63296604156494,-9.612991333007812,-9.866094589233398,0.0,10.25,0.0,-5,0,-20.0,-9.634002506502885,10.270997493497116
365,43114000,1686004260.999328,0.3974208235740661,0.0,0.4078918099403381,0.5,-9.63296604156494,-9.612991333007812,-9.866094589233398,0.0,10.25,0.0,-5,0,-20.0,-9.628850137161429,10.276149862838572
366,43133573,1686004261.099288,0.5067199468612671,0.0,0.4345684349536896,0.5,-9.613497734069824,-9.617533683776855,-9.50795555114746,10.22,10.25,0.0,0,-3,-20.0,-9.628850137161429,10.276149862838572
367,43214000,1686004261.099288,0.5067199468612671,0.0,0.4345684349536896,0.5,-9.613497734069824,-9.617533683776855,-9.50795555114746,10.22,10.25,0.0,0,-3,-20.0,-9.624794809266897,10.280205190733104
368,43233533,1686004261.1992478,0.4881880581378937,0.0,0.4781826734542846,0.5,-9.615301132202148,-9.617647171020508,-9.48263454437256,10.22,10.26,0.0,0,-2,-20.0,-9.624794809266897,10.280205190733104
369,43315000,1686004261.1992478,0.4881880581378937,0.0,0.4781826734542846,0.5,-9.615301132202148,-9.617647171020508,-9.48263454437256,10.22,10.26,0.0,0,-2,-20.0,-9.632681571086954,10.272318428913046
370,43333493,1686004261.299208,0.4129306674003601,0.0,0.4541872143745422,0.5,-9.616901397705078,-9.607040405273438,-9.515408515930176,10.22,10.25,0.0,-4,-1,-20.0,-9.632681571086954,10.272318428913046
371,43419000,1686004261.299208,0.4129306674003601,0.0,0.4541872143745422,0.5,-9.616901397705078,-9.607040405273438,-9.515408515930176,10.22,10.25,0.0,-4,-1,-20.0,-9.63958455420093,10.26541544579907
372,43434286,1686004261.400001,0.3458843231201172,0.0,0.3903645575046539,0.5,-9.618443489074709,-9.59091854095459,-9.70396900177002,10.22,10.25,0.0,-9,-1,-20.0,-9.63958455420093,10.26541544579907
373,43519000,1686004261.400001,0.3458843231201172,0.0,0.3903645575046539,0.5,-9.618443489074709,-9.59091854095459,-9.70396900177002,10.22,10.25,0.0,-9,-1,-20.0,-9.634992342858636,10.270007657141363
374,43534246,1686004261.499961,0.3817598521709442,0.0,0.3681654036045074,0.5,-9.6199312210083,-9.584024429321287,-9.694029808044434,10.22,10.25,0.0,-12,-6,-20.0,-9.634992342858636,10.270007657141363
375,43627000,1686004261.499961,0.3817598521709442,0.0,0.3681654036045074,0.5,-9.6199312210083,-9.584024429321287,-9.694029808044434,10.22,10.25,0.0,-12,-6,-20.0,-9.630060324735409,10.27493967526459
376,43634206,1686004261.5999207,0.4214489758014679,0.0,0.3916507363319397,0.5,-9.621426582336426,-9.588229179382324,-9.550416946411133,10.22,10.25,0.0,-11,-10,-20.0,-9.630060324735409,10.27493967526459
377,43728000,1686004261.5999207,0.4214489758014679,0.0,0.3916507363319397,0.5,-9.621426582336426,-9.588229179382324,-9.550416946411133,10.22,10.25,0.0,-11,-10,-20.0,-9.62532442277102,10.27967557722898
378,43734166,1686004261.6998808,0.4413261115550995,0.0,0.4229939877986908,0.5,-9.622962951660156,-9.594050407409668,-9.685123443603516,10.22,10.25,0.0,-10,-10,-20.0,-9.62532442277102,10.27967557722898
379,43829000,1686004261.6998808,0.4413261115550995,0.0,0.4229939877986908,0.5,-9.622962951660156,-9.594050407409668,-9.685123443603516,10.22,10.25,0.0,-10,-10,-20.0,-9.619902486731045,10.285097513268957
380,43834126,1686004261.7998407,0.4491193890571594,0.0,0.4360746443271637,0.5,-9.624549865722656,-9.601204872131348,-9.83238124847412,10.22,10.25,0.0,-8,-10,-20.0,-9.619902486731045,10.285097513268957
381,43932000,1686004261.7998407,0.4491193890571594,0.0,0.4360746443271637,0.5,-9.624549865722656,-9.601204872131348,-9.83238124847412,10.22,10.25,0.0,-8,-10,-20.0,-9.614620045754908,10.290379954245092
382,43934086,1686004261.899801,0.4956676363945007,0.0,0.4576214551925659,0.5,-9.626206398010254,-9.616604804992676,-9.734138488769531,10.22,10.26,0.0,-4,-10,-20.0,-9.614620045754908,10.290379954245092
383,44033000,1686004261.899801,0.4956676363945007,0.0,0.4576214551925659,0.5,-9.626206398010254,-9.616604804992676,-9.734138488769531,10.22,10.26,0.0,-4,-10,-20.0,-9.610885150280073,10.294114849719929
384,44034046,1686004261.9997609,0.583975076675415,0.0,0.5153718590736389,0.5,-9.628033638000488,-9.635384559631348,-9.93111515045166,10.22,10.27,0.0,0,-9,-20.0,-9.610885150280073,10.294114849719929
385,44134006,1686004262.0997207,0.6623436212539673,0.0,0.5960296392440796,0.5,-9.63010311126709,-9.66001033782959,-9.694644927978516,10.22,10.27,0.0,6,-7,-20.0,-9.610885150280073,10.294114849719929
386,44135000,1686004262.0997207,0.6623436212539673,0.0,0.5960296392440796,0.5,-9.63010311126709,-9.66001033782959,-9.694644927978516,10.22,10.27,0.0,6,-7,-20.0,-9.607102742561723,10.297897257438274
387,44233966,1686004262.199681,0.6386668682098389,0.0,0.6374297142028809,0.5,-9.632404327392578,-9.679078102111816,-9.615306854248049,10.22,10.27,0.0,11,-1,-20.0,-9.607102742561723,10.297897257438274
388,44235000,1686004262.199681,0.6386668682098389,0.0,0.6374297142028809,0.5,-9.632404327392578,-9.679078102111816,-9.615306854248049,10.22,10.27,0.0,11,-1,-20.0,-9.60253000600614,10.30246999399386
389,44333926,1686004262.299641,0.5682545900344849,0.0,0.6067457795143127,0.5,-9.634937286376951,-9.680953979492188,-9.808077812194824,10.22,10.29,0.0,11,5,-20.0,-9.60253000600614,10.30246999399386
390,44336000,1686004262.299641,0.5682545900344849,0.0,0.6067457795143127,0.5,-9.634937286376951,-9.680953979492188,-9.808077812194824,10.22,10.29,0.0,11,5,-20.0,-9.593817361437935,10.311182638562064
391,44433886,1686004262.3996007,0.5075329542160034,0.0,0.5472326874732971,0.5,-9.637825965881348,-9.676304817199709,-9.639328002929688,10.22,10.29,0.0,8,7,-20.0,-9.593817361437935,10.311182638562064
392,44440000,1686004262.3996007,0.5075329542160034,0.0,0.5472326874732971,0.5,-9.637825965881348,-9.676304817199709,-9.639328002929688,10.22,10.29,0.0,8,7,-20.0,-9.586877929555593,10.318122070444408
393,44533846,1686004262.4995608,0.4330033957958221,0.0,0.4903584420681,0.5,-9.641058921813965,-9.666830062866213,-9.61606788635254,10.22,10.29,0.0,4,8,-20.0,-9.586877929555593,10.318122070444408
394,44540000,1686004262.4995608,0.4330033957958221,0.0,0.4903584420681,0.5,-9.641058921813965,-9.666830062866213,-9.61606788635254,10.22,10.29,0.0,4,8,-20.0,-9.59246943821094,10.31253056178906
395,44633806,1686004262.5995207,0.3414161801338196,0.0,0.401791363954544,0.5,-9.644601821899414,-9.650968551635742,-9.790362358093262,10.22,10.29,0.0,-1,8,-20.0,-9.59246943821094,10.31253056178906
396,44648000,1686004262.5995207,0.3414161801338196,0.0,0.401791363954544,0.5,-9.644601821899414,-9.650968551635742,-9.790362358093262,10.22,10.29,0.0,-1,8,-20.0,-9.5984530223031,10.3065469776969
397,44733766,1686004262.699481,0.3734172284603119,0.0,0.363377571105957,0.5,-9.64841651916504,-9.640941619873049,-9.615962028503418,10.22,10.29,0.0,-6,2,-20.0,-9.5984530223031,10.3065469776969
398,44749000,1686004262.699481,0.3734172284603119,0.0,0.363377571105957,0.5,-9.64841651916504,-9.640941619873049,-9.615962028503418,10.22,10.29,0.0,-6,2,-20.0,-9.607344082590544,10.297655917409456
399,44833726,1686004262.7994409,0.3961898386478424,0.0,0.383770078420639,0.5,-9.652430534362791,-9.636476516723633,-9.78631591796875,10.22,10.27,0.0,-8,-2,-20.0,-9.607344082590544,10.297655917409456
400,44849000,1686004262.7994409,0.3961898386478424,0.0,0.383770078420639,0.5,-9.652430534362791,-9.636476516723633,-9.78631591796875,10.22,10.27,0.0,-8,-2,-20.0,-9.632037058489091,10.272962941510908
401,44933686,1686004262.8994007,0.4203002452850342,0.0,0.401861697435379,0.5,-9.656423568725586,-9.639616012573242,-9.654547691345217,10.22,10.25,0.0,-8,-5,-20.0,-9.632037058489091,10.272962941510908
402,44954000,1686004262.8994007,0.4203002452850342,0.0,0.401861697435379,0.5,-9.656423568725586,-9.639616012573242,-9.654547691345217,10.22,10.25,0.0,-8,-5,-20.0,-9.654640381309862,10.250359618690135
403,45033646,1686004262.999361,0.4469406902790069,0.0,0.432337075471878,0.5,-9.660196304321287,-9.646024703979492,-9.803836822509766,10.22,10.24,0.0,-7,-7,-20.0,-9.654640381309862,10.250359618690135
404,45054000,1686004262.999361,0.4469406902790069,0.0,0.432337075471878,0.5,-9.660196304321287,-9.646024703979492,-9.803836822509766,10.22,10.24,0.0,-7,-7,-20.0,-9.663487678575123,10.241512321424874
405,45133606,1686004263.099321,0.4761579930782318,0.0,0.4569210708141327,0.5,-9.663649559020996,-9.656248092651367,-9.613396644592283,10.22,10.22,0.0,-5,-7,-20.0,-9.663487678575123,10.241512321424874
406,45156000,1686004263.099321,0.4761579930782318,0.0,0.4569210708141327,0.5,-9.663649559020996,-9.656248092651367,-9.613396644592283,10.22,10.22,0.0,-5,-7,-20.0,-9.672448775540555,10.232551224459442
407,45233566,1686004263.1992807,0.5060044527053833,0.0,0.4912046194076538,0.5,-9.666655540466309,-9.663434982299805,-9.908310890197754,10.22,10.21,0.0,-3,-6,-20.0,-9.672448775540555,10.232551224459442
408,45257000,1686004263.1992807,0.5060044527053833,0.0,0.4912046194076538,0.5,-9.666655540466309,-9.663434982299805,-9.908310890197754,10.22,10.21,0.0,-3,-6,-20.0,-9.67759621846234,10.227403781537658
409,45333526,1686004263.2992408,0.5439148545265198,0.0,0.5172992944717407,0.5,-9.669151306152344,-9.674660682678224,-9.647892951965332,10.22,10.2,0.0,0,-5,-20.0,-9.67759621846234,10.227403781537658
410,45358000,1686004263.2992408,0.5439148545265198,0.0,0.5172992944717407,0.5,-9.669151306152344,-9.674660682678224,-9.647892951965332,10.22,10.2,0.0,0,-5,-20.0,-9.665753874434138,10.23924612556586
411,45433486,1686004263.399201,0.5852268934249878,0.0,0.5668606162071228,0.5,-9.671106338500977,-9.68386459350586,-9.829055786132812,10.22,10.21,0.0,2,-4,-20.0,-9.665753874434138,10.23924612556586
412,45459000,1686004263.399201,0.5852268934249878,0.0,0.5668606162071228,0.5,-9.671106338500977,-9.68386459350586,-9.829055786132812,10.22,10.21,0.0,2,-4,-20.0,-9.654771821742589,10.250228178257412
413,45534279,1686004263.499994,0.570851743221283,0.0,0.5729997754096985,0.5,-9.672677993774414,-9.691033363342283,-9.855694770812988,10.22,10.24,0.0,4,-1,-20.0,-9.654771821742589,10.250228178257412
414,45559000,1686004263.499994,0.570851743221283,0.0,0.5729997754096985,0.5,-9.672677993774414,-9.691033363342283,-9.855694770812988,10.22,10.24,0.0,4,-1,-20.0,-9.648275882361006,10.256724117638994
415,45634239,1686004263.599954,0.579961895942688,0.0,0.5740693211555481,0.5,-9.674137115478516,-9.699986457824709,-10.016088485717772,10.22,10.24,0.0,6,0,-20.0,-9.648275882361006,10.256724117638994
416,45661000,1686004263.599954,0.579961895942688,0.0,0.5740693211555481,0.5,-9.674137115478516,-9.699986457824709,-10.016088485717772,10.22,10.24,0.0,6,0,-20.0,-9.64167835224168,10.26332164775832
417,45734199,1686004263.699914,0.6146841049194336,0.0,0.5869580507278442,0.5,-9.67557144165039,-9.71568489074707,-9.894975662231444,10.22,10.25,0.0,10,1,-20.0,-9.64167835224168,10.26332164775832
418,45761000,1686004263.699914,0.6146841049194336,0.0,0.5869580507278442,0.5,-9.67557144165039,-9.71568489074707,-9.894975662231444,10.22,10.25,0.0,10,1,-20.0,-9.636434939106053,10.268565060893946
419,45834159,1686004263.7998738,0.6363481283187866,0.0,0.6175545454025269,0.5,-9.677074432373049,-9.732563018798828,-9.62099266052246,10.22,10.25,0.0,15,4,-20.0,-9.636434939106053,10.268565060893946
420,45863000,1686004263.7998738,0.6363481283187866,0.0,0.6175545454025269,0.5,-9.677074432373049,-9.732563018798828,-9.62099266052246,10.22,10.25,0.0,15,4,-20.0,-9.64508159262355,10.25991840737645
421,45934119,1686004263.899834,0.5829070806503296,0.0,0.6148971915245056,0.5,-9.678633689880373,-9.73359489440918,-9.841005325317385,10.22,10.24,0.0,14,10,-20.0,-9.64508159262355,10.25991840737645
422,45963000,1686004263.899834,0.5829070806503296,0.0,0.6148971915245056,0.5,-9.678633689880373,-9.73359489440918,-9.841005325317385,10.22,10.24,0.0,14,10,-20.0,-9.653888162619658,10.25111183738034
423,46034079,1686004263.999794,0.5277494788169861,0.0,0.5667516589164734,0.5,-9.680170059204102,-9.725333213806152,-9.59618854522705,10.22,10.24,0.0,12,12,-20.0,-9.653888162619658,10.25111183738034
424,46064000,1686004263.999794,0.5277494788169861,0.0,0.5667516589164734,0.5,-9.680170059204102,-9.725333213806152,-9.59618854522705,10.22,10.24,0.0,12,12,-20.0,-9.666396189364932,10.238603810635068
425,46134039,1686004264.0997539,0.4559335112571716,0.0,0.5173577666282654,0.5,-9.68163013458252,-9.708125114440918,-9.722755432128906,10.22,10.21,0.0,6,12,-20.0,-9.666396189364932,10.238603810635068
426,46166000,1686004264.0997539,0.4559335112571716,0.0,0.5173577666282654,0.5,-9.68163013458252,-9.708125114440918,-9.722755432128906,10.22,10.21,0.0,6,12,-20.0,-9.678623146481945,10.226376853518056
427,46233999,1686004264.199714,0.3285127580165863,0.0,0.4199161827564239,0.5,-9.682775497436523,-9.686704635620115,-9.611427307128906,10.22,10.2,0.0,0,12,-20.0,-9.678623146481945,10.226376853518056
428,46266000,1686004264.199714,0.3285127580165863,0.0,0.4199161827564239,0.5,-9.682775497436523,-9.686704635620115,-9.611427307128906,10.22,10.2,0.0,0,12,-20.0,-9.685082803033586,10.219917196966414
429,46333959,1686004264.299674,0.3329819440841675,0.0,0.3601217865943908,0.5,-9.68353271484375,-9.664578437805176,-9.907798767089844,10.22,10.2,0.0,-6,7,-20.0,-9.685082803033586,10.219917196966414
430,46368000,1686004264.299674,0.3329819440841675,0.0,0.3601217865943908,0.5,-9.68353271484375,-9.664578437805176,-9.907798767089844,10.22,10.2,0.0,-6,7,-20.0,-9.691667442694245,10.213332557305757
431,46433919,1686004264.399634,0.3899767994880676,0.0,0.362305223941803,0.5,-9.683923721313477,-9.657034873962402,-9.788363456726074,10.22,10.2,0.0,-8,0,-20.0,-9.691667442694245,10.213332557305757
432,46469000,1686004264.399634,0.3899767994880676,0.0,0.362305223941803,0.5,-9.683923721313477,-9.657034873962402,-9.788363456726074,10.22,10.2,0.0,-8,0,-20.0,-9.699159053480916,10.205840946519084
433,46533879,1686004264.499594,0.4589071571826935,0.0,0.4164735972881317,0.5,-9.683964729309082,-9.663678169250488,-9.752341270446776,10.22,10.18,0.0,-5,-4,-20.0,-9.699159053480916,10.205840946519084
434,46569000,1686004264.499594,0.4589071571826935,0.0,0.4164735972881317,0.5,-9.683964729309082,-9.663678169250488,-9.752341270446776,10.22,10.18,0.0,-5,-4,-20.0,-9.71817351379427,10.18682648620573
435,46633839,1686004264.5995538,0.5240454077720642,0.0,0.4801966845989227,0.5,-9.683544158935549,-9.674304962158203,-9.934470176696776,10.22,10.16,0.0,-2,-5,-20.0,-9.71817351379427,10.18682648620573
436,46671000,1686004264.5995538,0.5240454077720642,0.0,0.4801966845989227,0.5,-9.683544158935549,-9.674304962158203,-9.934470176696776,10.22,10.16,0.0,-2,-5,-20.0,-9.73534768343577,10.16965231656423
437,46733799,1686004264.699514,0.6402418613433838,0.0,0.5639359951019287,0.5,-9.682535171508787,-9.691594123840332,-9.608906745910645,10.22,10.14,0.0,4,-5,-20.0,-9.73534768343577,10.16965231656423
438,46771000,1686004264.699514,0.6402418613433838,0.0,0.5639359951019287,0.5,-9.682535171508787,-9.691594123840332,-9.608906745910645,10.22,10.14,0.0,4,-5,-20.0,-9.72803314539433,10.17696685460567
439,46833759,1686004264.799474,0.6129963994026184,0.0,0.6263905763626099,0.5,-9.68085765838623,-9.701753616333008,-9.745012283325195,10.22,10.16,0.0,8,-1,-20.0,-9.72803314539433,10.17696685460567
440,46874000,1686004264.799474,0.6129963994026184,0.0,0.6263905763626099,0.5,-9.68085765838623,-9.701753616333008,-9.745012283325195,10.22,10.16,0.0,8,-1,-20.0,-9.720534802975727,10.184465197024272
441,46933719,1686004264.8994339,0.5630311369895935,0.0,0.5986984968185425,0.5,-9.67864227294922,-9.700387954711914,-9.774547576904297,10.22,10.16,0.0,8,4,-20.0,-9.720534802975727,10.184465197024272
442,46974000,1686004264.8994339,0.5630311369895935,0.0,0.5986984968185425,0.5,-9.67864227294922,-9.700387954711914,-9.774547576904297,10.22,10.16,0.0,8,4,-20.0,-9.711511919609215,10.193488080390784
443,47033679,1686004264.999394,0.5342322587966919,0.0,0.5638533234596252,0.5,-9.67599105834961,-9.694769859313965,-9.834466934204102,10.22,10.17,0.0,8,7,-20.0,-9.711511919609215,10.193488080390784
444,47075000,1686004264.999394,0.5342322587966919,0.0,0.5638533234596252,0.5,-9.67599105834961,-9.694769859313965,-9.834466934204102,10.22,10.17,0.0,8,7,-20.0,-9.68476313690167,10.220236863098329
445,47133639,1686004265.099354,0.5267021059989929,0.0,0.54000324010849,0.5,-9.673036575317385,-9.690546989440918,-9.749680519104004,10.22,10.2,0.0,8,7,-20.0,-9.68476313690167,10.220236863098329
446,47176000,1686004265.099354,0.5267021059989929,0.0,0.54000324010849,0.5,-9.673036575317385,-9.690546989440918,-9.749680519104004,10.22,10.2,0.0,8,7,-20.0,-9.66023815301433,10.24476184698567
447,47233599,1686004265.1993139,0.5345115661621094,0.0,0.5302429795265198,0.5,-9.670025825500488,-9.68635082244873,-9.85216236114502,10.22,10.22,0.0,7,7,-20.0,-9.66023815301433,10.24476184698567
