,TimeUS,timestamp,ThI,ABst,ThO,ThH,DAlt,Alt,BAlt,DSAlt,SAlt,TAlt,DCRt,CRt,terrain_z,sub_z,rf
0,22333563,1686415191.279968,0.0,0.0,0.5,0.5,0.0,-0.0518147461116313,-0.038433514535427,0.0,0.0,0.0,0,-3,,,
1,22433523,1686415191.3799279,0.0,0.0,0.5,0.5,0.0,-0.0514020584523677,-0.033190369606018,0.0,0.0,0.0,0,-2,,,
2,22533483,1686415191.479888,0.0,0.0,0.5,0.5,0.0,-0.0509826876223087,-0.0532844401895999,0.0,0.0,0.0,0,-2,,,
3,22634276,1686415191.5806808,0.0,0.0,0.5,0.5,0.0,-0.0511851832270622,-0.0426331311464309,0.0,0.0,0.0,0,-2,,,
4,22734236,1686415191.6806407,0.0,0.0,0.5,0.5,0.0,-0.0517190769314765,-0.02954719401896,0.0,0.0,0.0,0,-2,,,
5,22834196,1686415191.780601,0.0,0.0,0.5,0.5,0.0,-0.0516551621258258,-0.0217546243220567,0.0,0.0,0.0,0,-1,,,
6,22934156,1686415191.8805609,0.0,0.0,0.5,0.5,0.0,-0.0504912734031677,-0.057794164866209,0.0,0.0,0.0,0,-1,,,
7,23034116,1686415191.9805207,0.0,0.0,0.5,0.5,0.0,-0.0497484430670738,-0.0473389662802219,0.0,0.0,0.0,0,-1,,,
8,23134076,1686415192.080481,0.0,0.0,0.5,0.5,0.0,-0.0496275164186954,-0.0297624357044696,0.0,0.0,0.0,0,-1,,,
9,23234036,1686415192.180441,0.0,0.0,0.5,0.5,0.0,-0.0489731207489967,-0.0356329716742038,0.0,0.0,0.0,0,0,,,
10,23333996,1686415192.2804008,0.0,0.0,0.5,0.5,0.0,-0.0477444790303707,-0.0305468756705522,0.0,0.0,0.0,0,0,,,
11,23433956,1686415192.3803608,0.0,0.0,0.5,0.5,0.0,-0.0460152700543403,-0.0648294016718864,0.0,0.0,0.0,0,0,,,
12,23533916,1686415192.4803207,0.0,0.0,0.5,0.5,0.0,-0.0451742783188819,-0.0664086416363716,0.0,0.0,0.0,0,0,,,
13,23633876,1686415192.580281,0.0,0.0,0.5,0.5,0.0,-0.0457428395748138,-0.0605205669999122,0.0,0.0,0.0,0,0,,,
14,23733836,1686415192.6802409,0.0,0.0,0.5,0.5,0.0,-0.0470572039484977,-0.0466509871184825,0.0,0.0,0.0,0,0,,,
15,23833796,1686415192.7802007,0.0,0.0,0.5,0.5,0.0,-0.0481345728039741,-0.0545105226337909,0.0,0.0,0.0,0,0,,,
16,23933756,1686415192.880161,0.0,0.0,0.4762499928474426,0.5,0.0,-0.0489604510366916,-0.0535076521337032,0.0,0.0,0.0,0,0,,,
17,24033716,1686415192.980121,0.0,0.0,0.25,0.5,0.0,-0.0520537570118904,-0.052855547517538,0.0,0.0,0.0,0,-9,,,
18,24133676,1686415193.0800807,0.0,0.0,0.25,0.5,0.0,-0.0732620283961296,-0.0588823333382606,0.0,0.0,0.0,0,-30,,,
19,24233636,1686415193.1800408,0.0,0.0,0.25,0.5,0.0,-0.1122717335820198,-0.1056664511561393,0.0,0.0,0.0,0,-45,,,
20,24333596,1686415193.2800007,0.0,0.0,0.25,0.5,0.0,-0.1627681851387024,-0.1831656545400619,0.0,0.0,0.0,0,-53,,,
21,24433556,1686415193.379961,0.0,0.0,0.25,0.5,0.0,-0.2209068089723587,-0.2031871825456619,0.0,0.0,0.0,0,-57,,,
22,24533516,1686415193.4799209,0.0,0.0,0.25,0.5,0.0,-0.2825453877449035,-0.2771579921245575,0.0,0.0,0.0,0,-59,,,
23,24633476,1686415193.5798807,0.0,0.0,0.25,0.5,0.0,-0.3458614349365234,-0.3246707618236542,0.0,0.0,0.0,0,-60,,,
24,24734269,1686415193.6806738,0.0,0.0,0.25,0.5,0.0,-0.4106876254081726,-0.4077726304531097,0.0,0.0,0.0,0,-61,,,
25,24834229,1686415193.780634,0.0,0.0,0.25,0.5,0.0,-0.4756113588809967,-0.4566278755664825,0.0,0.0,0.0,0,-61,,,
26,24934189,1686415193.880594,0.0,0.0,0.25,0.5,0.0,-0.5408492684364319,-0.5113599896430969,0.0,0.0,0.0,0,-61,,,
27,25034149,1686415193.9805539,0.0,0.0,0.25,0.5,0.0,-0.6056693196296692,-0.6026690006256104,0.0,0.0,0.0,0,-62,,,
28,25134109,1686415194.080514,0.0,0.0,0.25,0.5,0.0,-0.6713454127311707,-0.6578077077865601,0.0,0.0,0.0,0,-62,,,
29,25234069,1686415194.180474,0.0,0.0,0.25,0.5,0.0,-0.737605631351471,-0.6979814767837524,0.0,0.0,0.0,0,-62,,,
30,25334029,1686415194.280434,0.0,0.0,0.25,0.5,0.0,-0.8030304312705994,-0.7786463499069214,0.0,0.0,0.0,0,-62,,,
31,25433989,1686415194.380394,0.0,0.0,0.25,0.5,0.0,-0.8682896494865417,-0.8328707218170166,0.0,0.0,0.0,0,-63,,,
32,25533949,1686415194.4803538,0.0,0.0,0.25,0.5,0.0,-0.9332167506217957,-0.9016286730766296,0.0,0.0,0.0,0,-63,,,
33,25633909,1686415194.580314,0.0,0.0,0.25,0.5,0.0,-0.9980270862579346,-0.9671556353569032,0.0,0.0,0.0,0,-63,,,
34,25733869,1686415194.680274,0.0,0.0,0.25,0.5,0.0,-1.0629138946533203,-0.9977853894233704,0.0,0.0,0.0,0,-63,,,
35,25833829,1686415194.7802339,0.0,0.0,0.25,0.5,0.0,-1.1263433694839478,-1.06211256980896,0.0,0.0,0.0,0,-63,,,
36,25933789,1686415194.880194,0.0,0.0,0.25,0.5,0.0,-1.188334822654724,-1.155492663383484,0.0,0.0,0.0,0,-63,,,
37,26033749,1686415194.980154,0.0,0.0,0.25,0.5,0.0,-1.250767946243286,-1.2153667211532593,0.0,0.0,0.0,0,-63,,,
38,26133709,1686415195.080114,0.0,0.0,0.25,0.5,0.0,-1.3138116598129272,-1.270672082901001,0.0,0.0,0.0,0,-63,,,
39,26233669,1686415195.180074,0.0,0.0,0.25,0.5,0.0,-1.3768988847732544,-1.324473857879639,0.0,0.0,0.0,0,-63,,,
40,26333629,1686415195.2800338,0.0,0.0,0.25,0.5,0.0,-1.4394874572753906,-1.3760993480682373,0.0,0.0,0.0,0,-63,,,
41,26433589,1686415195.379994,0.0,0.0,0.25,0.5,0.0,-1.5010818243026731,-1.4598357677459717,0.0,0.0,0.0,0,-63,,,
42,26533549,1686415195.479954,0.0,0.0,0.25,0.5,0.0,-1.562819004058838,-1.5007294416427612,0.0,0.0,0.0,0,-63,,,
43,26633509,1686415195.5799139,0.0,0.0,0.25,0.5,0.0,-1.6239804029464722,-1.5921516418457031,0.0,0.0,0.0,0,-63,,,
44,26734302,1686415195.6807067,0.0,0.0,0.25,0.5,0.0,-1.6863259077072144,-1.6389819383621216,0.0,0.0,0.0,0,-62,,,
45,26834262,1686415195.7806668,0.0,0.0,0.25,0.5,0.0,-1.7483251094818115,-1.7030069828033447,0.0,0.0,0.0,0,-62,,,
46,26934222,1686415195.880627,0.0,0.0,0.25,0.5,0.0,-1.8103629350662231,-1.748988389968872,0.0,0.0,0.0,0,-62,,,
47,27034182,1686415195.980587,0.0,0.0,0.25,0.5,0.0,-1.8717103004455569,-1.81209659576416,0.0,0.0,0.0,0,-62,,,
48,27134142,1686415196.0805469,0.0,0.0,0.25,0.5,0.0,-1.932396650314331,-1.8718677759170528,0.0,0.0,0.0,0,-62,,,
49,27234102,1686415196.1805067,0.0,0.0,0.25,0.5,0.0,-1.9925549030303955,-1.9537253379821775,0.0,0.0,0.0,0,-62,,,
50,27334062,1686415196.280467,0.0,0.0,0.25,0.5,0.0,-2.053275346755981,-2.0250535011291504,0.0,0.0,0.0,0,-62,,,
51,27434022,1686415196.380427,0.0,0.0,0.25,0.5,0.0,-2.115150213241577,-2.063553094863892,0.0,0.0,0.0,0,-62,,,
52,27533982,1686415196.4803867,0.0,0.0,0.25,0.5,0.0,-2.1768898963928223,-2.1161160469055176,0.0,0.0,0.0,0,-62,,,
53,27633942,1686415196.5803468,0.0,0.0,0.25,0.5,0.0,-2.2377614974975586,-2.200568437576294,0.0,0.0,0.0,0,-62,,,
54,27733902,1686415196.680307,0.0,0.0,0.25,0.5,0.0,-2.2989437580108643,-2.2548508644104004,0.0,0.0,0.0,0,-62,,,
55,27833862,1686415196.780267,0.0,0.0,0.25,0.5,0.0,-2.3603217601776123,-2.308911085128784,0.0,0.0,0.0,0,-62,,,
56,27933822,1686415196.8802269,0.0,0.0,0.25,0.5,0.0,-2.4213833808898926,-2.362987995147705,0.0,0.0,0.0,0,-62,,,
57,28033782,1686415196.9801867,0.0,0.0,0.25,0.5,0.0,-2.481771945953369,-2.4265496730804443,0.0,0.0,0.0,0,-61,,,
58,28133742,1686415197.080147,0.0,0.0,0.25,0.5,0.0,-2.541691303253174,-2.482637882232666,0.0,0.0,0.0,0,-61,,,
59,28233702,1686415197.1801069,0.0,0.0,0.25,0.5,0.0,-2.601101875305176,-2.5450844764709477,0.0,0.0,0.0,0,-61,,,
60,28333662,1686415197.2800667,0.0,0.0,0.25,0.5,0.0,-2.66018295288086,-2.603954792022705,0.0,0.0,0.0,0,-61,,,
61,28433622,1686415197.3800268,0.0,0.0,0.25,0.5,0.0,-2.719000577926636,-2.669102430343628,0.0,0.0,0.0,0,-61,,,
62,28533582,1686415197.479987,0.0,0.0,0.25,0.5,0.0,-2.7778608798980717,-2.7358171939849854,0.0,0.0,0.0,0,-61,,,
63,28633542,1686415197.5799468,0.0,0.0,0.25,0.5,0.0,-2.8371386528015137,-2.797356605529785,0.0,0.0,0.0,0,-60,,,
64,28733502,1686415197.6799068,0.0,0.0,0.25,0.5,0.0,-2.8968751430511475,-2.8863296508789062,0.0,0.0,0.0,0,-60,,,
65,28834295,1686415197.7807,0.0,0.0,0.25,0.5,0.0,-2.95878529548645,-2.920572280883789,0.0,0.0,0.0,0,-60,,,
66,28934255,1686415197.8806598,0.0,0.0,0.25,0.5,0.0,-3.020507335662842,-2.993809700012207,0.0,0.0,0.0,0,-61,,,
67,29034215,1686415197.98062,0.0,0.0,0.25,0.5,0.0,-3.0822741985321045,-3.074866771697998,0.0,0.0,0.0,0,-61,,,
68,29134175,1686415198.08058,0.0,0.0,0.25,0.5,0.0,-3.1449313163757324,-3.1094698905944824,0.0,0.0,0.0,0,-61,,,
69,29234135,1686415198.1805398,0.0,0.0,0.25,0.5,0.0,-3.207542896270752,-3.203996419906616,0.0,0.0,0.0,0,-61,,,
70,29334095,1686415198.2805,0.0,0.0,0.25,0.5,0.0,-3.270801305770874,-3.235797882080078,0.0,0.0,0.0,0,-61,,,
71,29434055,1686415198.38046,0.0,0.0,0.25,0.5,0.0,-3.3339998722076416,-3.3184494972229004,0.0,0.0,0.0,0,-61,,,
72,29534015,1686415198.4804199,0.0,0.0,0.25,0.5,0.0,-3.397284984588623,-3.353463888168335,0.0,0.0,0.0,0,-61,,,
73,29633975,1686415198.58038,0.0,0.0,0.25,0.5,0.0,-3.459984302520752,-3.4485673904418945,0.0,0.0,0.0,0,-61,,,
74,29733935,1686415198.68034,0.0,0.0,0.25,0.5,0.0,-3.522970199584961,-3.496558427810669,0.0,0.0,0.0,0,-61,,,
75,29833895,1686415198.7803,0.0,0.0,0.25,0.5,0.0,-3.5862972736358643,-3.568927764892578,0.0,0.0,0.0,0,-61,,,
76,29933855,1686415198.88026,0.0,0.0,0.25,0.5,0.0,-3.6499388217926025,-3.608132123947144,0.0,0.0,0.0,0,-62,,,
77,30033815,1686415198.9802198,0.0,0.0,0.25,0.5,0.0,-3.713082790374756,-3.683253288269043,0.0,0.0,0.0,0,-62,,,
78,30133775,1686415199.08018,0.0,0.0,0.25,0.5,0.0,-3.775858879089356,-3.7380220890045166,0.0,0.0,0.0,0,-62,,,
79,30233735,1686415199.18014,0.0,0.0,0.25,0.5,0.0,-3.8383476734161377,-3.79827880859375,0.0,0.0,0.0,0,-62,,,
80,30333695,1686415199.2800999,0.0,0.0,0.25,0.5,0.0,-3.9003963470458975,-3.844846248626709,0.0,0.0,0.0,0,-62,,,
81,30433655,1686415199.38006,0.0,0.0,0.25,0.5,0.0,-3.961493968963623,-3.9341750144958496,0.0,0.0,0.0,0,-62,,,
82,30533615,1686415199.48002,0.0,0.0,0.25,0.5,0.0,-4.022686958312988,-3.975954294204712,0.0,0.0,0.0,0,-61,,,
83,30633575,1686415199.57998,0.0,0.0,0.25,0.5,0.0,-4.083778858184815,-4.054417133331299,0.0,0.0,0.0,0,-61,,,
84,30733535,1686415199.67994,0.0,0.0,0.25,0.5,0.0,-4.145053386688232,-4.090110778808594,0.0,0.0,0.0,0,-61,,,
85,30833495,1686415199.7798998,0.0,0.0,0.25,0.5,0.0,-4.205814838409424,-4.186209201812744,0.0,0.0,0.0,0,-61,,,
86,30934288,1686415199.8806927,0.0,0.0,0.25,0.5,0.0,-4.267544746398926,-4.240408897399902,0.0,0.0,0.0,0,-61,,,
87,31034248,1686415199.980653,0.0,0.0,0.25,0.5,0.0,-4.32953691482544,-4.305070877075195,0.0,0.0,0.0,0,-61,,,
88,31134208,1686415200.080613,0.0,0.0,0.25,0.5,0.0,-4.392009258270264,-4.341472625732422,0.0,0.0,0.0,0,-61,,,
89,31234168,1686415200.1805727,0.0,0.0,0.25,0.5,0.0,-4.45385217666626,-4.431285858154297,0.0,0.0,0.0,0,-61,,,
90,31334128,1686415200.2805328,0.0,0.0,0.25,0.5,0.0,-4.515792369842529,-4.467081546783447,0.0,0.0,0.0,0,-61,,,
91,31434088,1686415200.3804927,0.0,0.0,0.25,0.5,0.0,-4.5773701667785645,-4.554940223693848,0.0,0.0,0.0,0,-61,,,
92,31534048,1686415200.480453,0.0,0.0,0.25,0.5,0.0,-4.639162540435791,-4.602947235107422,0.0,0.0,0.0,0,-61,,,
93,31634008,1686415200.5804129,0.0,0.0,0.25,0.5,0.0,-4.70112419128418,-4.6628851890563965,0.0,0.0,0.0,0,-61,,,
94,31733968,1686415200.6803727,0.0,0.0,0.25,0.5,0.0,-4.7628374099731445,-4.736293792724609,0.0,0.0,0.0,0,-61,,,
95,31833928,1686415200.780333,0.0,0.0,0.25,0.5,0.0,-4.824790000915527,-4.801172733306885,0.0,0.0,0.0,0,-61,,,
96,31933888,1686415200.880293,0.0,0.0,0.25,0.5,0.0,-4.887272834777832,-4.864978313446045,0.0,0.0,0.0,0,-61,,,
97,32033848,1686415200.9802527,0.0,0.0,0.25,0.5,0.0,-4.950254440307617,-4.925121784210205,0.0,0.0,0.0,0,-62,,,
98,32133808,1686415201.0802128,0.0,0.0,0.25,0.5,0.0,-5.01352596282959,-4.986228466033936,0.0,0.0,0.0,0,-62,,,
99,32233768,1686415201.1801727,0.0,0.0,0.25,0.5,0.0,-5.076884746551514,-5.023490905761719,0.0,0.0,0.0,0,-62,,,
100,32333728,1686415201.280133,0.0,0.0,0.25,0.5,0.0,-5.13926362991333,-5.109111309051514,0.0,0.0,0.0,0,-62,,,
101,32433688,1686415201.3800929,0.0,0.0,0.25,0.5,0.0,-5.20131778717041,-5.169918060302734,0.0,0.0,0.0,0,-62,,,
102,32533648,1686415201.4800527,0.0,0.0,0.25,0.5,0.0,-5.263596534729004,-5.240346908569336,0.0,0.0,0.0,0,-62,,,
103,32633608,1686415201.580013,0.0,0.0,0.25,0.5,0.0,-5.326338768005371,-5.279079437255859,0.0,0.0,0.0,0,-62,,,
104,32733568,1686415201.679973,0.0,0.0,0.25,0.5,0.0,-5.3886590003967285,-5.334996223449707,0.0,0.0,0.0,0,-62,,,
105,32833528,1686415201.7799327,0.0,0.0,0.25,0.5,0.0,-5.449927806854248,-5.39630651473999,0.0,0.0,0.0,0,-62,,,
106,32933488,1686415201.8798928,0.0,0.0,0.25,0.5,0.0,-5.510317325592041,-5.469742298126221,0.0,0.0,0.0,0,-62,,,
107,33034281,1686415201.980686,0.0,0.0,0.25,0.5,0.0,-5.57108736038208,-5.544486045837402,0.0,0.0,0.0,0,-61,,,
108,33134241,1686415202.080646,0.0,0.0,0.25,0.5,0.0,-5.632094383239746,-5.591030597686768,0.0,0.0,0.0,0,-61,,,
109,33234201,1686415202.180606,0.0,0.0,0.25,0.5,0.0,-5.6933770179748535,-5.675050258636475,0.0,0.0,0.0,0,-61,,,
110,33334161,1686415202.280566,0.0,0.0,0.25,0.5,0.0,-5.755411624908447,-5.733552932739258,0.0,0.0,0.0,0,-61,,,
111,33434121,1686415202.3805258,0.0,0.0,0.25,0.5,0.0,-5.8183135986328125,-5.794235706329346,0.0,0.0,0.0,0,-61,,,
112,33534081,1686415202.480486,0.0,0.0,0.25,0.5,0.0,-5.881677627563477,-5.820882320404053,0.0,0.0,0.0,0,-62,,,
113,33634041,1686415202.580446,0.0,0.0,0.25,0.5,0.0,-5.943906307220459,-5.905632019042969,0.0,0.0,0.0,0,-62,,,
114,33734001,1686415202.6804059,0.0,0.0,0.25,0.5,0.0,-6.005440711975098,-5.967578887939453,0.0,0.0,0.0,0,-62,,,
115,33833961,1686415202.780366,0.0,0.0,0.25,0.5,0.0,-6.066977024078369,-6.019913196563721,0.0,0.0,0.0,0,-62,,,
116,33933921,1686415202.880326,0.0,0.0,0.25,0.5,0.0,-6.128159046173096,-6.068950176239014,0.0,0.0,0.0,0,-61,,,
117,34033881,1686415202.980286,0.0,0.0,0.25,0.5,0.0,-6.188429355621338,-6.158237457275391,0.0,0.0,0.0,0,-61,,,
118,34133841,1686415203.080246,0.0,0.0,0.25,0.5,0.0,-6.248911380767822,-6.2065935134887695,0.0,0.0,0.0,0,-61,,,
119,34233801,1686415203.1802058,0.0,0.0,0.25,0.5,0.0,-6.3096604347229,-6.2605061531066895,0.0,0.0,0.0,0,-61,,,
120,34333761,1686415203.280166,0.0,0.0,0.25,0.5,0.0,-6.370046138763428,-6.331968307495117,0.0,0.0,0.0,0,-61,,,
121,34433721,1686415203.380126,0.0,0.0,0.25,0.5,0.0,-6.43041467666626,-6.374938488006592,0.0,0.0,0.0,0,-61,,,
122,34533681,1686415203.4800858,0.0,0.0,0.25,0.5,0.0,-6.490283012390137,-6.4571852684021,0.0,0.0,0.0,0,-61,,,
123,34633641,1686415203.580046,0.0,0.0,0.25,0.5,0.0,-6.550262928009033,-6.49754524230957,0.0,0.0,0.0,0,-61,,,
124,34733601,1686415203.680006,0.0,0.0,0.25,0.5,0.0,-6.609996795654297,-6.575394630432129,0.0,0.0,0.0,0,-61,,,
125,34833561,1686415203.7799659,0.0,0.0,0.25,0.5,0.0,-6.669807434082031,-6.629651546478272,0.0,0.0,0.0,0,-61,,,
126,34933521,1686415203.879926,0.0,0.0,0.25,0.5,0.0,-6.729798316955566,-6.696778774261475,0.0,0.0,0.0,0,-60,,,
127,35033481,1686415203.9798858,0.0,0.0,0.25,0.5,0.0,-6.790046215057373,-6.786855220794678,0.0,0.0,0.0,0,-60,,,
128,35134274,1686415204.0806787,0.0,0.0,0.25,0.5,0.0,-6.852273941040039,-6.839680194854736,0.0,0.0,0.0,0,-60,,,
129,35234234,1686415204.180639,0.0,0.0,0.25,0.5,0.0,-6.915353775024414,-6.903690338134766,0.0,0.0,0.0,0,-61,,,
130,35334194,1686415204.2805989,0.0,0.0,0.25,0.5,0.0,-6.979285717010498,-6.97203540802002,0.0,0.0,0.0,0,-61,,,
131,35434154,1686415204.3805587,0.0,0.0,0.25,0.5,0.0,-7.04405689239502,-7.019619941711426,0.0,0.0,0.0,0,-61,,,
132,35534114,1686415204.4805188,0.0,0.0,0.25,0.5,0.0,-7.10890531539917,-7.060061454772949,0.0,0.0,0.0,0,-61,,,
133,35634074,1686415204.580479,0.0,0.0,0.25,0.5,0.0,-7.172562599182129,-7.1323747634887695,0.0,0.0,0.0,0,-61,,,
134,35734034,1686415204.680439,0.0,0.0,0.25,0.5,0.0,-7.235247611999512,-7.216343402862549,0.0,0.0,0.0,0,-61,,,
135,35833994,1686415204.7803988,0.0,0.0,0.25,0.5,0.0,-7.298305988311768,-7.250858783721924,0.0,0.0,0.0,0,-62,,,
136,35933954,1686415204.8803587,0.0,0.0,0.25,0.5,0.0,-7.36100435256958,-7.31036901473999,0.0,0.0,0.0,0,-62,,,
137,36033914,1686415204.980319,0.0,0.0,0.25,0.5,0.0,-7.4227471351623535,-7.398856163024902,0.0,0.0,0.0,0,-62,,,
138,36133874,1686415205.0802789,0.0,0.0,0.25,0.5,0.0,-7.48480749130249,-7.453085899353027,0.0,0.0,0.0,0,-62,,,
139,36233834,1686415205.1802387,0.0,0.0,0.25,0.5,0.0,-7.547365665435791,-7.518671035766602,0.0,0.0,0.0,0,-62,,,
140,36333794,1686415205.280199,0.0,0.0,0.25,0.5,0.0,-7.610244750976562,-7.5777716636657715,0.0,0.0,0.0,0,-62,,,
141,36433754,1686415205.380159,0.0,0.0,0.25,0.5,0.0,-7.673283576965332,-7.617766857147217,0.0,0.0,0.0,0,-62,,,
142,36533714,1686415205.4801188,0.0,0.0,0.25,0.5,0.0,-7.735469341278076,-7.704031467437744,0.0,0.0,0.0,0,-62,,,
143,36633674,1686415205.5800788,0.0,0.0,0.25,0.5,0.0,-7.7975172996521,-7.752649307250977,0.0,0.0,0.0,0,-62,,,
144,36733634,1686415205.6800387,0.0,0.0,0.25,0.5,0.0,-7.859457015991211,-7.833808422088623,0.0,0.0,0.0,0,-62,,,
145,36833594,1686415205.779999,0.0,0.0,0.25,0.5,0.0,-7.921792984008789,-7.885812282562256,0.0,0.0,0.0,0,-62,,,
146,36933554,1686415205.8799589,0.0,0.0,0.25,0.5,0.0,-7.984415054321289,-7.928372859954834,0.0,0.0,0.0,0,-62,,,
147,37033514,1686415205.9799187,0.0,0.0,0.25,0.5,0.0,-8.046239852905273,-8.005905151367188,0.0,0.0,0.0,0,-62,,,
148,37133474,1686415206.079879,0.0,0.0,0.25,0.5,0.0,-8.10716724395752,-8.046985626220703,0.0,0.0,0.0,0,-62,,,
149,37234267,1686415206.180672,0.0,0.0,0.25,0.5,0.0,-8.168696403503418,-8.112350463867188,0.0,0.0,0.0,0,-62,,,
150,37334227,1686415206.280632,0.0,0.0,0.25,0.5,0.0,-8.228606224060059,-8.184270858764648,0.0,0.0,0.0,0,-61,,,
151,37434187,1686415206.3805919,0.0,0.0,0.25,0.5,0.0,-8.288640975952148,-8.2640380859375,0.0,0.0,0.0,0,-61,,,
152,37534147,1686415206.480552,0.0,0.0,0.25,0.5,0.0,-8.349798202514648,-8.300142288208008,0.0,0.0,0.0,0,-61,,,
153,37634107,1686415206.580512,0.0,0.0,0.25,0.5,0.0,-8.41085147857666,-8.387861251831055,0.0,0.0,0.0,0,-61,,,
154,37734067,1686415206.680472,0.0,0.0,0.25,0.5,0.0,-8.47269058227539,-8.439817428588867,0.0,0.0,0.0,0,-61,,,
155,37834027,1686415206.780432,0.0,0.0,0.25,0.5,0.0,-8.534989356994629,-8.51388168334961,0.0,0.0,0.0,0,-61,,,
156,37933987,1686415206.8803918,0.0,0.0,0.25,0.5,0.0,-8.59802532196045,-8.57596492767334,0.0,0.0,0.0,0,-61,,,
157,38033947,1686415206.980352,0.0,0.0,0.25,0.5,0.0,-8.66171932220459,-8.610833168029785,0.0,0.0,0.0,0,-62,,,
158,38133907,1686415207.080312,0.0,0.0,0.25,0.5,0.0,-8.724597930908203,-8.690075874328613,0.0,0.0,0.0,0,-62,,,
159,38233867,1686415207.1802719,0.0,0.0,0.25,0.5,0.0,-8.787278175354004,-8.74586009979248,0.0,0.0,0.0,0,-62,,,
160,38333827,1686415207.280232,0.0,0.0,0.25,0.5,0.0,-8.849749565124512,-8.807852745056152,0.0,0.0,0.0,0,-62,,,
161,38433787,1686415207.380192,0.0,0.0,0.25,0.5,0.0,-8.911969184875488,-8.883623123168945,0.0,0.0,0.0,0,-62,,,
162,38533747,1686415207.480152,0.0,0.0,0.25,0.5,0.0,-8.97463607788086,-8.941777229309082,0.0,0.0,0.0,0,-62,,,
163,38633707,1686415207.580112,0.0,0.0,0.25,0.5,0.0,-9.03759479522705,-9.01215934753418,0.0,0.0,0.0,0,-62,,,
164,38733667,1686415207.6800718,0.0,0.0,0.25,0.5,0.0,-9.10105037689209,-9.063616752624512,0.0,0.0,0.0,0,-62,,,
165,38833627,1686415207.780032,0.0,0.0,0.25,0.5,0.0,-9.164438247680664,-9.098959922790527,0.0,0.0,0.0,0,-62,,,
166,38933587,1686415207.879992,0.0,0.0,0.25,0.5,0.0,-9.226346015930176,-9.17986011505127,0.0,0.0,0.0,0,-62,,,
167,39033547,1686415207.9799519,0.0,0.0,0.25,0.5,0.0,-9.28768825531006,-9.256271362304688,0.0,0.0,0.0,0,-62,,,
168,39133507,1686415208.079912,0.0,0.0,0.25,0.5,0.0,-9.349575996398926,-9.30838680267334,0.0,0.0,0.0,0,-62,,,
169,39234300,1686415208.1807048,0.0,0.0,0.25,0.5,0.0,-9.412131309509276,-9.378470420837402,0.0,0.0,0.0,0,-62,,,
170,39334260,1686415208.2806647,0.0,0.0,0.25,0.5,0.0,-9.47450828552246,-9.443958282470703,0.0,0.0,0.0,0,-62,,,
171,39434220,1686415208.380625,0.0,0.0,0.25,0.5,0.0,-9.537357330322266,-9.489882469177246,0.0,0.0,0.0,0,-62,,,
172,39534180,1686415208.4805849,0.0,0.0,0.25,0.5,0.0,-9.59980297088623,-9.54252815246582,0.0,0.0,0.0,0,-62,,,
173,39634140,1686415208.5805447,0.0,0.0,0.25,0.5,0.0,-9.661273002624512,-9.610942840576172,0.0,0.0,0.0,0,-62,,,
174,39734100,1686415208.680505,0.0,0.0,0.25,0.5,0.0,-9.722227096557615,-9.677095413208008,0.0,0.0,0.0,0,-62,,,
175,39834060,1686415208.780465,0.0,0.0,0.25,0.5,0.0,-9.78312873840332,-9.718616485595703,0.0,0.0,0.0,0,-62,,,
176,39934020,1686415208.8804247,0.0,0.0,0.25,0.5,0.0,-9.843146324157717,-9.812617301940918,0.0,0.0,0.0,0,-61,,,
177,40033980,1686415208.9803848,0.0,0.0,0.25,0.5,0.0,-9.903796195983888,-9.857784271240234,0.0,0.0,0.0,0,-61,,,
178,40133940,1686415209.080345,0.0,0.0,0.25,0.5,0.0,-9.964621543884276,-9.91421127319336,0.0,0.0,0.0,0,-61,,,
179,40233900,1686415209.180305,0.0,0.0,0.25,0.5,0.0,-10.025148391723633,-9.98814296722412,0.0,0.0,0.0,0,-61,,,
180,40333860,1686415209.2802649,0.0,0.0,0.5,0.5,0.0,-10.077089309692385,-10.021385192871094,0.0,0.0,0.0,0,-44,,,
181,40433820,1686415209.3802247,0.0,0.0,0.5,0.5,0.0,-10.114663124084473,-10.06482982635498,0.0,0.0,0.0,0,-34,,,
182,40533780,1686415209.480185,0.0,0.0,0.5,0.5,0.0,-10.143075942993164,-10.092528343200684,0.0,0.0,0.0,0,-27,,,
183,40633740,1686415209.580145,0.0,0.0,0.5,0.5,0.0,-10.164963722229004,-10.1347074508667,0.0,0.0,0.0,0,-22,,,
184,40733700,1686415209.6801047,0.0,0.0,0.5,0.5,0.0,-10.182790756225586,-10.136957168579102,0.0,0.0,0.0,0,-19,,,
185,40833660,1686415209.7800648,0.0,0.0,0.5,0.5,0.0,-10.196863174438477,-10.187570571899414,0.0,0.0,0.0,0,-16,,,
186,40933620,1686415209.880025,0.0,0.0,0.5,0.5,0.0,-10.2092866897583,-10.189126968383787,0.0,0.0,0.0,0,-14,,,
187,41033580,1686415209.979985,0.0,0.0,0.5,0.5,0.0,-10.22011947631836,-10.188920974731444,0.0,0.0,0.0,0,-12,,,
188,41133540,1686415210.0799448,0.0,0.0,0.5,0.5,0.0,-10.228764533996582,-10.228635787963867,0.0,0.0,0.0,0,-10,,,
189,41233500,1686415210.1799047,0.0,0.0,0.5,0.5,0.0,-10.236756324768066,-10.22821044921875,0.0,0.0,0.0,0,-8,,,
190,41334293,1686415210.2806978,0.0,0.0,0.5,0.5,0.0,-10.244054794311523,-10.255385398864746,0.0,0.0,0.0,0,-7,,,
191,41434253,1686415210.380658,0.0,0.0,0.5,0.5,0.0,-10.251224517822266,-10.227813720703123,0.0,0.0,0.0,0,-6,,,
192,41534213,1686415210.480618,0.0,0.0,0.5,0.5,0.0,-10.256763458251951,-10.236250877380373,0.0,0.0,0.0,0,-5,,,
193,41634173,1686415210.5805779,0.0,0.0,0.5,0.5,0.0,-10.26052188873291,-10.269490242004396,0.0,0.0,0.0,0,-4,,,
194,41734133,1686415210.680538,0.0,0.0,0.5,0.5,0.0,-10.264147758483888,-10.251177787780762,0.0,0.0,0.0,0,-3,,,
195,41834093,1686415210.780498,0.0,0.0,0.5,0.5,0.0,-10.266825675964355,-10.272875785827637,0.0,0.0,0.0,0,-3,,,
196,41934053,1686415210.8804579,0.0,0.0,0.5,0.5,0.0,-10.269170761108398,-10.274261474609377,0.0,0.0,0.0,0,-2,,,
197,42034013,1686415210.980418,0.0,0.0,0.5,0.5,0.0,-10.27126407623291,-10.263508796691896,0.0,0.0,0.0,0,-1,,,
198,42133973,1686415211.0803778,0.0,0.0,0.5,0.5,0.0,-10.27237033843994,-10.270954132080078,0.0,0.0,0.0,0,0,,,
199,42233933,1686415211.180338,0.0,0.0,0.5,0.5,0.0,-10.272669792175291,-10.283918380737305,0.0,0.0,0.0,0,0,,,
200,42333893,1686415211.280298,0.0,0.0,0.5,0.5,0.0,-10.272854804992676,-10.295978546142578,0.0,0.0,0.0,0,0,,,
201,42433853,1686415211.3802578,0.0,0.0,0.5,0.5,0.0,-10.273473739624023,-10.280339241027832,0.0,0.0,0.0,0,0,,,
202,42533813,1686415211.480218,0.0,0.0,0.5,0.5,0.0,-10.273639678955078,-10.26267910003662,0.0,0.0,0.0,0,1,,,
203,42633773,1686415211.580178,0.0,0.0,0.5,0.5,0.0,-10.272257804870604,-10.27488136291504,0.0,0.0,0.0,0,2,,,
204,42733733,1686415211.6801379,0.0,0.0,0.5,0.5,0.0,-10.26996898651123,-10.280887603759766,0.0,0.0,0.0,0,2,,,
205,42833693,1686415211.780098,0.0,0.0,0.5,0.5,0.0,-10.267403602600098,-10.273707389831545,0.0,0.0,0.0,0,3,,,
206,42933653,1686415211.880058,0.0,0.0,0.5,0.5,0.0,-10.264379501342772,-10.259997367858888,0.0,0.0,0.0,0,3,,,
207,43033613,1686415211.980018,0.0,0.0,0.5,0.5,0.0,-10.26030158996582,-10.286797523498535,0.0,0.0,0.0,0,4,,,
208,43133573,1686415212.079978,0.0,0.0,0.5,0.5,0.0,-10.256576538085938,-10.250983238220217,0.0,0.0,0.0,0,4,,,
209,43233533,1686415212.1799378,0.0,0.0,0.5,0.5,0.0,-10.251914978027344,-10.237178802490234,0.0,0.0,0.0,0,5,,,
210,43333493,1686415212.279898,0.0,0.0,0.5,0.5,0.0,-10.245598793029783,-10.240456581115724,0.0,0.0,0.0,0,6,,,
211,43434286,1686415212.380691,0.0,0.0,0.5,0.5,0.0,-10.238210678100586,-10.259315490722656,0.0,0.0,0.0,0,6,,,
212,43534246,1686415212.480651,0.0,0.0,0.5,0.5,0.0,-10.23133659362793,-10.247048377990724,0.0,0.0,0.0,0,7,,,
213,43634206,1686415212.5806108,0.0,0.0,0.5,0.5,0.0,-10.22473430633545,-10.221413612365724,0.0,0.0,0.0,0,7,,,
214,43734166,1686415212.6805708,0.0,0.0,0.5,0.5,0.0,-10.217496871948242,-10.232837677001951,0.0,0.0,0.0,0,7,,,
215,43834126,1686415212.7805307,0.0,0.0,0.5,0.5,0.0,-10.210033416748049,-10.23629093170166,0.0,0.0,0.0,0,8,,,
216,43934086,1686415212.880491,0.0,0.0,0.5,0.5,0.0,-10.20314121246338,-10.224417686462402,0.0,0.0,0.0,0,8,,,
217,44034046,1686415212.9804509,0.0,0.0,0.5,0.5,0.0,-10.196619987487791,-10.232842445373535,0.0,0.0,0.0,0,8,,,
218,44134006,1686415213.0804107,0.0,0.0,0.5,0.5,0.0,-10.190791130065918,-10.19792366027832,0.0,0.0,0.0,0,8,,,
219,44233966,1686415213.180371,0.0,0.0,0.5,0.5,0.0,-10.184614181518556,-10.178718566894531,0.0,0.0,0.0,0,8,,,
220,44333926,1686415213.280331,0.0,0.0,0.5,0.5,0.0,-10.17707633972168,-10.19799518585205,0.0,0.0,0.0,0,8,,,
221,44433886,1686415213.3802907,0.0,0.0,0.5,0.5,0.0,-10.169318199157717,-10.171897888183594,0.0,0.0,0.0,0,8,,,
222,44533846,1686415213.4802508,0.0,0.0,0.5,0.5,0.0,-10.161247253417969,-10.159324645996094,0.0,0.0,0.0,0,9,,,
223,44633806,1686415213.5802107,0.0,0.0,0.5,0.5,0.0,-10.152376174926758,-10.167532920837402,0.0,0.0,0.0,0,9,,,
224,44733766,1686415213.680171,0.0,0.0,0.5,0.5,0.0,-10.143489837646484,-10.140870094299316,0.0,0.0,0.0,0,9,,,
225,44833726,1686415213.7801309,0.0,0.0,0.5,0.5,0.0,-10.134241104125977,-10.156880378723145,0.0,0.0,0.0,0,9,,,
226,44933686,1686415213.8800907,0.0,0.0,0.5,0.5,0.0,-10.125314712524414,-10.13345718383789,0.0,0.0,0.0,0,9,,,
227,45033646,1686415213.980051,0.0,0.0,0.5,0.5,0.0,-10.116564750671388,-10.137114524841309,0.0,0.0,0.0,0,9,,,
228,45133606,1686415214.080011,0.0,0.0,0.5,0.5,0.0,-10.10810661315918,-10.106797218322754,0.0,0.0,0.0,0,9,,,
229,45233566,1686415214.1799707,0.0,0.0,0.5,0.5,0.0,-10.099271774291992,-10.125018119812012,0.0,0.0,0.0,0,9,,,
230,45333526,1686415214.2799308,0.0,0.0,0.5,0.5,0.0,-10.090757369995115,-10.0877046585083,0.0,0.0,0.0,0,9,,,
231,45433486,1686415214.379891,0.0,0.0,0.5,0.5,0.0,-10.081931114196776,-10.094549179077148,0.0,0.0,0.0,0,9,,,
232,45534279,1686415214.480684,0.0,0.0,0.5,0.5,0.0,-10.072813034057615,-10.086966514587402,0.0,0.0,0.0,0,9,,,
233,45634239,1686415214.580644,0.0,0.0,0.5,0.5,0.0,-10.063998222351074,-10.091733932495115,0.0,0.0,0.0,0,9,,,
234,45734199,1686415214.680604,0.0,0.0,0.5,0.5,0.0,-10.055891036987305,-10.080646514892578,0.0,0.0,0.0,0,9,,,
235,45834159,1686415214.7805638,0.0,0.0,0.5,0.5,0.0,-10.048466682434082,-10.04300308227539,0.0,0.0,0.0,0,9,,,
236,45934119,1686415214.880524,0.0,0.0,0.5,0.5,0.0,-10.040348052978516,-10.055782318115234,0.0,0.0,0.0,0,9,,,
237,46034079,1686415214.980484,0.0,0.0,0.5,0.5,0.0,-10.03193473815918,-10.02207851409912,0.0,0.0,0.0,0,9,,,
238,46134039,1686415215.0804439,0.0,0.0,0.5,0.5,0.0,-10.022808074951172,-10.026535987854004,0.0,0.0,0.0,0,9,,,
239,46233999,1686415215.180404,0.0,0.0,0.5,0.5,0.0,-10.01318073272705,-10.006182670593262,0.0,0.0,0.0,0,9,,,
240,46333959,1686415215.280364,0.0,0.0,0.5,0.5,0.0,-10.00308322906494,-10.02762222290039,0.0,0.0,0.0,0,9,,,
241,46433919,1686415215.380324,0.0,0.0,0.5,0.5,0.0,-9.99361801147461,-10.0054292678833,0.0,0.0,0.0,0,9,,,
242,46533879,1686415215.480284,0.0,0.0,0.5,0.5,0.0,-9.98476219177246,-9.991580963134766,0.0,0.0,0.0,0,9,,,
243,46633839,1686415215.5802438,0.0,0.0,0.5,0.5,0.0,-9.97589111328125,-9.99954605102539,0.0,0.0,0.0,0,9,,,
244,46733799,1686415215.680204,0.0,0.0,0.5,0.5,0.0,-9.967551231384276,-9.95571994781494,0.0,0.0,0.0,0,9,,,
245,46833759,1686415215.780164,0.0,0.0,0.5,0.5,0.0,-9.95860767364502,-9.95908260345459,0.0,0.0,0.0,0,9,,,
246,46933719,1686415215.8801239,0.0,0.0,0.5,0.5,0.0,-9.948989868164062,-9.952813148498535,0.0,0.0,0.0,0,9,,,
247,47033679,1686415215.980084,0.0,0.0,0.5,0.5,0.0,-9.939275741577148,-9.948559761047363,0.0,0.0,0.0,0,9,,,
248,47133639,1686415216.080044,0.0,0.0,0.5,0.5,0.0,-9.929774284362791,-9.931883811950684,0.0,0.0,0.0,0,9,,,
249,47233599,1686415216.180004,0.0,0.0,0.5,0.5,0.0,-9.920262336730955,-9.93290901184082,0.0,0.0,0.0,0,9,,,
250,47333559,1686415216.279964,0.0,0.0,0.5,0.5,0.0,-9.910990715026855,-9.90893268585205,0.0,0.0,0.0,0,9,,,
251,47433519,1686415216.3799238,0.0,0.0,0.5,0.5,0.0,-9.901548385620115,-9.927972793579102,0.0,0.0,0.0,0,9,,,
252,47533479,1686415216.479884,0.0,0.0,0.5,0.5,0.0,-9.892765045166016,-9.909259796142578,0.0,0.0,0.0,0,9,,,
253,47634272,1686415216.580677,0.0,0.0,0.5,0.5,0.0,-9.884591102600098,-9.90572738647461,0.0,0.0,0.0,0,9,,,
254,47734232,1686415216.680637,0.0,0.0,0.5,0.5,0.0,-9.87696647644043,-9.8684720993042,0.0,0.0,0.0,0,9,,,
255,47834192,1686415216.7805967,0.0,0.0,0.5,0.5,0.0,-9.868674278259276,-9.868361473083496,0.0,0.0,0.0,0,9,,,
256,47934152,1686415216.8805568,0.0,0.0,0.5,0.5,0.0,-9.859630584716797,-9.864895820617676,0.0,0.0,0.0,0,9,,,
257,48034112,1686415216.980517,0.0,0.0,0.5,0.5,0.0,-9.850452423095703,-9.865318298339844,0.0,0.0,0.0,0,9,,,
258,48134072,1686415217.080477,0.0,0.0,0.5,0.5,0.0,-9.841663360595703,-9.834837913513184,0.0,0.0,0.0,0,9,,,
259,48234032,1686415217.1804368,0.0,0.0,0.5,0.5,0.0,-9.83253574371338,-9.842474937438965,0.0,0.0,0.0,0,9,,,
260,48333992,1686415217.2803967,0.0,0.0,0.5,0.5,0.0,-9.823362350463867,-9.813374519348145,0.0,0.0,0.0,0,9,,,
261,48433952,1686415217.380357,0.0,0.0,0.5,0.5,0.0,-9.813751220703123,-9.797941207885742,0.0,0.0,0.0,0,9,,,
262,48533912,1686415217.4803169,0.0,0.0,0.5,0.5,0.0,-9.80319881439209,-9.796852111816406,0.0,0.0,0.0,0,9,,,
263,48633872,1686415217.5802767,0.0,0.0,0.5,0.5,0.0,-9.792200088500977,-9.780007362365724,0.0,0.0,0.0,0,9,,,
264,48733832,1686415217.6802368,0.0,0.0,0.5,0.5,0.0,-9.780824661254885,-9.793620109558104,0.0,0.0,0.0,0,9,,,
265,48833792,1686415217.780197,0.0,0.0,0.5,0.5,0.0,-9.769967079162598,-9.751171112060549,0.0,0.0,0.0,0,9,,,
266,48933752,1686415217.8801568,0.0,0.0,0.5,0.5,0.0,-9.758758544921877,-9.766067504882812,0.0,0.0,0.0,0,9,,,
267,49033712,1686415217.9801168,0.0,0.0,0.5,0.5,0.0,-9.747605323791504,-9.736791610717772,0.0,0.0,0.0,0,9,,,
268,49133672,1686415218.0800767,0.0,0.0,0.5,0.5,0.0,-9.736312866210938,-9.750884056091309,0.0,0.0,0.0,0,9,,,
269,49233632,1686415218.180037,0.0,0.0,0.5,0.5,0.0,-9.725473403930664,-9.716425895690918,0.0,0.0,0.0,0,10,,,
270,49333592,1686415218.2799969,0.0,0.0,0.5,0.5,0.0,-9.714548110961914,-9.722291946411133,0.0,0.0,0.0,0,10,,,
271,49433552,1686415218.3799567,0.0,0.0,0.5,0.5,0.0,-9.703682899475098,-9.711016654968262,0.0,0.0,0.0,0,10,,,
272,49533512,1686415218.479917,0.0,0.0,0.5,0.5,0.0,-9.69316864013672,-9.71360683441162,0.0,0.0,0.0,0,10,,,
273,49634305,1686415218.58071,0.0,0.0,0.5,0.5,0.0,-9.683279037475586,-9.691452026367188,0.0,0.0,0.0,0,10,,,
274,49734265,1686415218.68067,0.0,0.0,0.5,0.5,0.0,-9.6737699508667,-9.68183422088623,0.0,0.0,0.0,0,10,,,
275,49834225,1686415218.7806299,0.0,0.0,0.5,0.5,0.0,-9.66420555114746,-9.679486274719238,0.0,0.0,0.0,0,10,,,
276,49934185,1686415218.88059,0.0,0.0,0.5,0.5,0.0,-9.654874801635742,-9.67190933227539,0.0,0.0,0.0,0,9,,,
277,50034145,1686415218.98055,0.0,0.0,0.5,0.5,0.0,-9.645930290222168,-9.65498161315918,0.0,0.0,0.0,0,9,,,
278,50134105,1686415219.08051,0.0,0.0,0.5,0.5,0.0,-9.637006759643556,-9.625606536865234,0.0,0.0,0.0,0,9,,,
279,50234065,1686415219.18047,0.0,0.0,0.5,0.5,0.0,-9.627180099487305,-9.643421173095703,0.0,0.0,0.0,0,9,,,
280,50334025,1686415219.2804298,0.0,0.0,0.5,0.5,0.0,-9.617359161376951,-9.610109329223633,0.0,0.0,0.0,0,9,,,
281,50433985,1686415219.38039,0.0,0.0,0.5,0.5,0.0,-9.607216835021973,-9.600479125976562,0.0,0.0,0.0,0,9,,,
282,50533945,1686415219.48035,0.0,0.0,0.5,0.5,0.0,-9.596386909484863,-9.587894439697266,0.0,0.0,0.0,0,9,,,
283,50633905,1686415219.5803099,0.0,0.0,0.5,0.5,0.0,-9.585001945495604,-9.606903076171877,0.0,0.0,0.0,0,10,,,
284,50733865,1686415219.68027,0.0,0.0,0.5,0.5,0.0,-9.57431697845459,-9.590219497680664,0.0,0.0,0.0,0,10,,,
285,50833825,1686415219.78023,0.0,0.0,0.5,0.5,0.0,-9.564507484436035,-9.575166702270508,0.0,0.0,0.0,0,10,,,
286,50838000,1686415219.78023,0.0,0.0,0.5,0.5,0.0,-9.564507484436035,-9.575166702270508,0.0,0.0,0.0,0,10,-20.0,-9.644745677158973,10.260254322841028
287,50933785,1686415219.88019,0.0,0.0,0.5,0.5,0.0,-9.554984092712402,-9.563379287719728,0.0,10.25,0.0,0,10,-20.0,-9.644745677158973,10.260254322841028
288,50939000,1686415219.88019,0.0,0.0,0.5,0.5,0.0,-9.554984092712402,-9.563379287719728,0.0,10.25,0.0,0,10,-20.0,-9.63505862987207,10.26994137012793
289,51033745,1686415219.98015,0.0,0.0,0.5,0.5,0.0,-9.545472145080566,-9.564202308654783,0.0,10.25,0.0,0,10,-20.0,-9.63505862987207,10.26994137012793
290,51040000,1686415219.98015,0.0,0.0,0.5,0.5,0.0,-9.545472145080566,-9.564202308654783,0.0,10.25,0.0,0,10,-20.0,-9.62531933337158,10.27968066662842
291,51133705,1686415220.0801098,0.0,0.0,0.5,0.5,0.0,-9.536321640014648,-9.537378311157228,0.0,10.25,0.0,0,9,-20.0,-9.62531933337158,10.27968066662842
292,51142000,1686415220.0801098,0.0,0.0,0.5,0.5,0.0,-9.536321640014648,-9.537378311157228,0.0,10.25,0.0,0,9,-20.0,-9.615428610299857,10.289571389700145
293,51233665,1686415220.18007,0.0,0.0,0.5,0.5,0.0,-9.526978492736816,-9.52148723602295,0.0,10.26,0.0,0,9,-20.0,-9.615428610299857,10.289571389700145
294,51242000,1686415220.18007,0.0,0.0,0.5,0.5,0.0,-9.526978492736816,-9.52148723602295,0.0,10.26,0.0,0,9,-20.0,-9.60461415403223,10.300385845967767
295,51333625,1686415220.28003,0.0,0.0,0.5,0.5,0.0,-9.516901969909668,-9.50384521484375,0.0,10.29,0.0,0,9,-20.0,-9.60461415403223,10.300385845967767
296,51344000,1686415220.28003,0.0,0.0,0.5,0.5,0.0,-9.516901969909668,-9.50384521484375,0.0,10.29,0.0,0,9,-20.0,-9.59361156707458,10.31138843292542
297,51433585,1686415220.3799899,0.0,0.0,0.5,0.5,0.0,-9.505885124206545,-9.52699375152588,0.0,10.29,0.0,0,10,-20.0,-9.59361156707458,10.31138843292542
298,51444000,1686415220.3799899,0.0,0.0,0.5,0.5,0.0,-9.505885124206545,-9.52699375152588,0.0,10.29,0.0,0,10,-20.0,-9.582951954261214,10.322048045738786
299,51533545,1686415220.47995,0.0,0.0,0.5,0.5,0.0,-9.49533748626709,-9.511517524719238,0.0,10.3,0.0,0,10,-20.0,-9.582951954261214,10.322048045738786
300,51545000,1686415220.47995,0.0,0.0,0.5,0.5,0.0,-9.49533748626709,-9.511517524719238,0.0,10.3,0.0,0,10,-20.0,-9.57243001612337,10.33256998387663
301,51633505,1686415220.57991,0.0,0.0,0.5,0.5,0.0,-9.485624313354492,-9.518993377685549,0.0,10.31,0.0,0,10,-20.0,-9.57243001612337,10.33256998387663
302,51646000,1686415220.57991,0.0,0.0,0.5,0.5,0.0,-9.485624313354492,-9.518993377685549,0.0,10.31,0.0,0,10,-20.0,-9.561963872271352,10.343036127728649
303,51734298,1686415220.6807027,0.0,0.0,0.5,0.5,0.0,-9.477191925048828,-9.4794921875,0.0,10.33,0.0,0,9,-20.0,-9.561963872271352,10.343036127728649
304,51747000,1686415220.6807027,0.0,0.0,0.5,0.5,0.0,-9.477191925048828,-9.4794921875,0.0,10.33,0.0,0,9,-20.0,-9.554164718570908,10.350835281429092
305,51834258,1686415220.780663,0.0,0.0,0.5,0.5,0.0,-9.46850872039795,-9.467308044433594,0.0,10.33,0.0,0,9,-20.0,-9.554164718570908,10.350835281429092
306,51850000,1686415220.780663,0.0,0.0,0.5,0.5,0.0,-9.46850872039795,-9.467308044433594,0.0,10.33,0.0,0,9,-20.0,-9.546155412975851,10.358844587024146
307,51934218,1686415220.8806229,0.0,0.0,0.5,0.5,0.0,-9.45908260345459,-9.47585105895996,0.0,10.33,0.0,0,9,-20.0,-9.546155412975851,10.358844587024146
308,51950000,1686415220.8806229,0.0,0.0,0.5,0.5,0.0,-9.45908260345459,-9.47585105895996,0.0,10.33,0.0,0,9,-20.0,-9.53796196452095,10.36703803547905
309,52034178,1686415220.9805827,0.0,0.0,0.5,0.5,0.0,-9.449892044067385,-9.449101448059082,0.0,10.34,0.0,0,9,-20.0,-9.53796196452095,10.36703803547905
310,52051000,1686415220.9805827,0.0,0.0,0.5,0.5,0.0,-9.449892044067385,-9.449101448059082,0.0,10.34,0.0,0,9,-20.0,-9.525922588881226,10.379077411118772
311,52134138,1686415221.080543,0.0,0.0,0.5,0.5,0.0,-9.440343856811523,-9.464652061462402,0.0,10.35,0.0,0,9,-20.0,-9.525922588881226,10.379077411118772
312,52152000,1686415221.080543,0.0,0.0,0.5,0.5,0.0,-9.440343856811523,-9.464652061462402,0.0,10.35,0.0,0,9,-20.0,-9.514018865844534,10.390981134155464
313,52234098,1686415221.180503,0.0,0.0,0.5,0.5,0.0,-9.43143367767334,-9.439435005187988,0.0,10.37,0.0,0,9,-20.0,-9.514018865844534,10.390981134155464
314,52253000,1686415221.180503,0.0,0.0,0.5,0.5,0.0,-9.43143367767334,-9.439435005187988,0.0,10.37,0.0,0,9,-20.0,-9.505301548939755,10.399698451060244
315,52334058,1686415221.2804627,0.0,0.0,0.5,0.5,0.0,-9.42260456085205,-9.419788360595703,0.0,10.37,0.0,0,9,-20.0,-9.505301548939755,10.399698451060244
316,52355000,1686415221.2804627,0.0,0.0,0.5,0.5,0.0,-9.42260456085205,-9.419788360595703,0.0,10.37,0.0,0,9,-20.0,-9.496414819303936,10.408585180696065
317,52434018,1686415221.3804228,0.0,0.0,0.5,0.5,0.0,-9.413156509399414,-9.431464195251465,0.0,10.38,0.0,0,9,-20.0,-9.496414819303936,10.408585180696065
318,52455000,1686415221.3804228,0.0,0.0,0.5,0.5,0.0,-9.413156509399414,-9.431464195251465,0.0,10.38,0.0,0,9,-20.0,-9.487503418372896,10.417496581627102
319,52533978,1686415221.4803827,0.0,0.0,0.5,0.5,0.0,-9.404075622558594,-9.402950286865234,0.0,10.39,0.0,0,9,-20.0,-9.487503418372896,10.417496581627102
320,52556000,1686415221.4803827,0.0,0.0,0.5,0.5,0.0,-9.404075622558594,-9.402950286865234,0.0,10.39,0.0,0,9,-20.0,-9.476700900597834,10.428299099402166
321,52633938,1686415221.580343,0.0,0.0,0.5,0.5,0.0,-9.39468002319336,-9.39366626739502,0.0,10.41,0.0,0,9,-20.0,-9.476700900597834,10.428299099402166
322,52660000,1686415221.580343,0.0,0.0,0.5,0.5,0.0,-9.39468002319336,-9.39366626739502,0.0,10.41,0.0,0,9,-20.0,-9.465829956898402,10.439170043101598
323,52733898,1686415221.6803029,0.0,0.0,0.5,0.5,0.0,-9.38481616973877,-9.39162826538086,0.0,10.41,0.0,0,9,-20.0,-9.465829956898402,10.439170043101598
324,52760000,1686415221.6803029,0.0,0.0,0.5,0.5,0.0,-9.38481616973877,-9.39162826538086,0.0,10.41,0.0,0,9,-20.0,-9.458071589159646,10.446928410840354
325,52833858,1686415221.7802627,0.0,0.0,0.5,0.5,0.0,-9.374963760375977,-9.390958786010742,0.0,10.42,0.0,0,9,-20.0,-9.458071589159646,10.446928410840354
326,52864000,1686415221.7802627,0.0,0.0,0.5,0.5,0.0,-9.374963760375977,-9.390958786010742,0.0,10.42,0.0,0,9,-20.0,-9.450073698549485,10.454926301450516
327,52933818,1686415221.880223,0.0,0.0,0.5,0.5,0.0,-9.365633964538574,-9.351729393005373,0.0,10.43,0.0,0,9,-20.0,-9.450073698549485,10.454926301450516
328,52964000,1686415221.880223,0.0,0.0,0.5,0.5,0.0,-9.365633964538574,-9.351729393005373,0.0,10.43,0.0,0,9,-20.0,-9.44191766219809,10.463082337801907
329,53033778,1686415221.980183,0.0,0.0,0.5,0.5,0.0,-9.355470657348633,-9.375425338745115,0.0,10.45,0.0,0,9,-20.0,-9.44191766219809,10.463082337801907
330,53064000,1686415221.980183,0.0,0.0,0.5,0.5,0.0,-9.355470657348633,-9.375425338745115,0.0,10.45,0.0,0,9,-20.0,-9.430752444923035,10.474247555076962
331,53133738,1686415222.0801427,0.0,0.0,0.5,0.5,0.0,-9.345819473266602,-9.329981803894045,0.0,10.45,0.0,0,9,-20.0,-9.430752444923035,10.474247555076962
332,53168000,1686415222.0801427,0.0,0.0,0.5,0.5,0.0,-9.345819473266602,-9.329981803894045,0.0,10.45,0.0,0,9,-20.0,-9.419712372021532,10.485287627978469
333,53233698,1686415222.1801028,0.0,0.0,0.5,0.5,0.0,-9.33538818359375,-9.329910278320312,0.0,10.46,0.0,0,9,-20.0,-9.419712372021532,10.485287627978469
334,53268000,1686415222.1801028,0.0,0.0,0.5,0.5,0.0,-9.33538818359375,-9.329910278320312,0.0,10.46,0.0,0,9,-20.0,-9.41205642969965,10.49294357030035
335,53333658,1686415222.280063,0.0,0.0,0.5,0.5,0.0,-9.324382781982422,-9.306681632995604,0.0,10.47,0.0,0,9,-20.0,-9.41205642969965,10.49294357030035
336,53372000,1686415222.280063,0.0,0.0,0.5,0.5,0.0,-9.324382781982422,-9.306681632995604,0.0,10.47,0.0,0,9,-20.0,-9.404152499758858,10.50084750024114
337,53433618,1686415222.380023,0.0,0.0,0.5,0.5,0.0,-9.312536239624023,-9.31078052520752,0.0,10.49,0.0,0,9,-20.0,-9.404152499758858,10.50084750024114
338,53472000,1686415222.380023,0.0,0.0,0.5,0.5,0.0,-9.312536239624023,-9.31078052520752,0.0,10.49,0.0,0,9,-20.0,-9.395895600361698,10.509104399638302
339,53533578,1686415222.4799829,0.0,0.0,0.5,0.5,0.0,-9.300603866577148,-9.28808879852295,0.0,10.49,0.0,0,10,-20.0,-9.395895600361698,10.509104399638302
340,53573000,1686415222.4799829,0.0,0.0,0.5,0.5,0.0,-9.300603866577148,-9.28808879852295,0.0,10.49,0.0,0,10,-20.0,-9.38381981535758,10.521180184642418
341,53633538,1686415222.5799427,0.0,0.0,0.5,0.5,0.0,-9.28829574584961,-9.298103332519531,0.0,10.5,0.0,0,10,-20.0,-9.38381981535758,10.521180184642418
342,53677000,1686415222.5799427,0.0,0.0,0.5,0.5,0.0,-9.28829574584961,-9.298103332519531,0.0,10.5,0.0,0,10,-20.0,-9.371865978565868,10.533134021434131
343,53733498,1686415222.679903,0.0,0.0,0.5,0.5,0.0,-9.276529312133787,-9.304391860961914,0.0,10.51,0.0,0,10,-20.0,-9.371865978565868,10.533134021434131
344,53777000,1686415222.679903,0.0,0.0,0.5,0.5,0.0,-9.276529312133787,-9.304391860961914,0.0,10.51,0.0,0,10,-20.0,-9.363831157509816,10.541168842490183
345,53834291,1686415222.780696,0.0,0.0,0.5,0.5,0.0,-9.266112327575684,-9.302142143249512,0.0,10.52,0.0,0,10,-20.0,-9.363831157509816,10.541168842490183
346,53879000,1686415222.780696,0.0,0.0,0.5,0.5,0.0,-9.266112327575684,-9.302142143249512,0.0,10.52,0.0,0,10,-20.0,-9.35566981481607,10.54933018518393
347,53934251,1686415222.880656,0.0,0.0,0.5,0.5,0.0,-9.2573823928833,-9.270657539367676,0.0,10.52,0.0,0,10,-20.0,-9.35566981481607,10.54933018518393
348,53979000,1686415222.880656,0.0,0.0,0.5,0.5,0.0,-9.2573823928833,-9.270657539367676,0.0,10.52,0.0,0,10,-20.0,-9.347025992515077,10.557974007484924
349,54034211,1686415222.9806159,0.0,0.0,0.5,0.5,0.0,-9.248889923095703,-9.26956272125244,0.0,10.54,0.0,0,10,-20.0,-9.347025992515077,10.557974007484924
350,54080000,1686415222.9806159,0.0,0.0,0.5,0.5,0.0,-9.248889923095703,-9.26956272125244,0.0,10.54,0.0,0,10,-20.0,-9.334052259702789,10.570947740297212
351,54134171,1686415223.080576,0.0,0.0,0.5,0.5,0.0,-9.240612030029297,-9.259949684143066,0.0,10.55,0.0,0,9,-20.0,-9.334052259702789,10.570947740297212
352,54182000,1686415223.080576,0.0,0.0,0.5,0.5,0.0,-9.240612030029297,-9.259949684143066,0.0,10.55,0.0,0,9,-20.0,-9.321202381278711,10.583797618721286
353,54234131,1686415223.180536,0.0,0.0,0.5,0.5,0.0,-9.232550621032717,-9.256712913513184,0.0,10.56,0.0,0,9,-20.0,-9.321202381278711,10.583797618721286
354,54282000,1686415223.180536,0.0,0.0,0.5,0.5,0.0,-9.232550621032717,-9.256712913513184,0.0,10.56,0.0,0,9,-20.0,-9.311302762681896,10.593697237318104
355,54334091,1686415223.280496,0.0,0.0,0.5,0.5,0.0,-9.22487449645996,-9.236308097839355,0.0,10.58,0.0,0,9,-20.0,-9.311302762681896,10.593697237318104
356,54384000,1686415223.280496,0.0,0.0,0.5,0.5,0.0,-9.22487449645996,-9.236308097839355,0.0,10.58,0.0,0,9,-20.0,-9.301244338374914,10.603755661625083
357,54434051,1686415223.380456,0.0,0.0,0.5,0.5,0.0,-9.217019081115724,-9.2418212890625,0.0,10.58,0.0,0,9,-20.0,-9.301244338374914,10.603755661625083
358,54484000,1686415223.380456,0.0,0.0,0.5,0.5,0.0,-9.217019081115724,-9.2418212890625,0.0,10.58,0.0,0,9,-20.0,-9.29100525547372,10.61399474452628
359,54534011,1686415223.4804158,0.0,0.0,0.5,0.5,0.0,-9.20949935913086,-9.206781387329102,0.0,10.59,0.0,0,9,-20.0,-9.29100525547372,10.61399474452628
360,54585000,1686415223.4804158,0.0,0.0,0.5,0.5,0.0,-9.20949935913086,-9.206781387329102,0.0,10.59,0.0,0,9,-20.0,-9.277094286203642,10.627905713796356
361,54633971,1686415223.580376,0.0,0.0,0.5,0.5,0.0,-9.201227188110352,-9.188384056091309,0.0,10.6,0.0,0,9,-20.0,-9.277094286203642,10.627905713796356
362,54687000,1686415223.580376,0.0,0.0,0.5,0.5,0.0,-9.201227188110352,-9.188384056091309,0.0,10.6,0.0,0,9,-20.0,-9.263514866174972,10.641485133825029
363,54733931,1686415223.680336,0.0,0.0,0.5,0.5,0.0,-9.191645622253418,-9.193175315856934,0.0,10.62,0.0,0,9,-20.0,-9.263514866174972,10.641485133825029
364,54787000,1686415223.680336,0.0,0.0,0.5,0.5,0.0,-9.191645622253418,-9.193175315856934,0.0,10.62,0.0,0,9,-20.0,-9.256510609589425,10.648489390410576
365,54833891,1686415223.7802958,0.0,0.0,0.5,0.5,0.0,-9.181647300720217,-9.196889877319336,0.0,10.62,0.0,0,9,-20.0,-9.256510609589425,10.648489390410576
366,54889000,1686415223.7802958,0.0,0.0,0.5,0.5,0.0,-9.181647300720217,-9.196889877319336,0.0,10.62,0.0,0,9,-20.0,-9.249380775929309,10.655619224070692
367,54933851,1686415223.880256,0.0,0.0,0.5,0.5,0.0,-9.172155380249023,-9.16400146484375,0.0,10.63,0.0,0,9,-20.0,-9.249380775929309,10.655619224070692
368,54990000,1686415223.880256,0.0,0.0,0.5,0.5,0.0,-9.172155380249023,-9.16400146484375,0.0,10.63,0.0,0,9,-20.0,-9.242146397094118,10.662853602905882
369,55033811,1686415223.980216,0.0,0.0,0.5,0.5,0.0,-9.162169456481934,-9.147665023803713,0.0,10.64,0.0,0,9,-20.0,-9.242146397094118,10.662853602905882
370,55092000,1686415223.980216,0.0,0.0,0.5,0.5,0.0,-9.162169456481934,-9.147665023803713,0.0,10.64,0.0,0,9,-20.0,-9.23208703822902,10.67291296177098
371,55133771,1686415224.0801759,0.0,0.0,0.5,0.5,0.0,-9.151246070861816,-9.162220001220703,0.0,10.66,0.0,0,9,-20.0,-9.23208703822902,10.67291296177098
372,55193000,1686415224.0801759,0.0,0.0,0.5,0.5,0.0,-9.151246070861816,-9.162220001220703,0.0,10.66,0.0,0,9,-20.0,-9.222596898571194,10.682403101428806
373,55233731,1686415224.180136,0.0,0.0,0.5,0.5,0.0,-9.140680313110352,-9.149930953979492,0.0,10.66,0.0,0,9,-20.0,-9.222596898571194,10.682403101428806
374,55293000,1686415224.180136,0.0,0.0,0.5,0.5,0.0,-9.140680313110352,-9.149930953979492,0.0,10.66,0.0,0,9,-20.0,-9.21614817914929,10.68885182085071
375,55333691,1686415224.2800958,0.0,0.0,0.5,0.5,0.0,-9.130608558654783,-9.130949020385742,0.0,10.66,0.0,0,9,-20.0,-9.21614817914929,10.68885182085071
376,55395000,1686415224.2800958,0.0,0.0,0.5,0.5,0.0,-9.130608558654783,-9.130949020385742,0.0,10.66,0.0,0,9,-20.0,-9.209593243577991,10.695406756422008
377,55433651,1686415224.380056,0.0,0.0,0.5,0.5,0.0,-9.12046241760254,-9.129403114318848,0.0,10.67,0.0,0,9,-20.0,-9.209593243577991,10.695406756422008
378,55495000,1686415224.380056,0.0,0.0,0.5,0.5,0.0,-9.12046241760254,-9.129403114318848,0.0,10.67,0.0,0,9,-20.0,-9.202648893855748,10.702351106144253
379,55533611,1686415224.480016,0.0,0.0,0.5,0.5,0.0,-9.110514640808104,-9.101442337036133,0.0,10.68,0.0,0,9,-20.0,-9.202648893855748,10.702351106144253
380,55597000,1686415224.480016,0.0,0.0,0.5,0.5,0.0,-9.110514640808104,-9.101442337036133,0.0,10.68,0.0,0,9,-20.0,-9.190524307177254,10.714475692822743
381,55633571,1686415224.5799758,0.0,0.0,0.5,0.5,0.0,-9.10000991821289,-9.117051124572754,0.0,10.7,0.0,0,9,-20.0,-9.190524307177254,10.714475692822743
382,55698000,1686415224.5799758,0.0,0.0,0.5,0.5,0.0,-9.10000991821289,-9.117051124572754,0.0,10.7,0.0,0,9,-20.0,-9.178567442714831,10.726432557285166
383,55733531,1686415224.679936,0.0,0.0,0.5,0.5,0.0,-9.090011596679688,-9.105640411376951,0.0,10.7,0.0,0,9,-20.0,-9.178567442714831,10.726432557285166
384,55798000,1686415224.679936,0.0,0.0,0.5,0.5,0.0,-9.090011596679688,-9.105640411376951,0.0,10.7,0.0,0,9,-20.0,-9.166218423247711,10.738781576752288
385,55833491,1686415224.779896,0.311319351196289,0.0,0.4369517862796783,0.5,-9.080509185791016,-9.080655097961426,-9.075885772705078,10.64,10.71,0.0,8,9,-20.0,-9.166218423247711,10.738781576752288
386,55900000,1686415224.779896,0.311319351196289,0.0,0.4369517862796783,0.5,-9.080509185791016,-9.080655097961426,-9.075885772705078,10.64,10.71,0.0,8,9,-20.0,-9.153988194369807,10.751011805630192
387,55934284,1686415224.880689,0.4146985709667206,0.0,0.3847460448741913,0.5,-9.073441505432127,-9.072808265686035,-9.071510314941406,10.64,10.74,0.0,5,5,-20.0,-9.153988194369807,10.751011805630192
388,56001000,1686415224.880689,0.4146985709667206,0.0,0.3847460448741913,0.5,-9.073441505432127,-9.072808265686035,-9.071510314941406,10.64,10.74,0.0,5,5,-20.0,-9.145341644339824,10.759658355660177
389,56034244,1686415224.9806488,0.4348624944686889,0.0,0.4045487642288208,0.5,-9.06949234008789,-9.069165229797363,-9.074053764343262,10.64,10.74,0.0,2,1,-20.0,-9.145341644339824,10.759658355660177
390,56111000,1686415224.9806488,0.4348624944686889,0.0,0.4045487642288208,0.5,-9.06949234008789,-9.069165229797363,-9.074053764343262,10.64,10.74,0.0,2,1,-20.0,-9.135877571992031,10.769122428007968
391,56134204,1686415225.0806088,0.450573593378067,0.0,0.4239743649959564,0.5,-9.067764282226562,-9.06871223449707,-9.08828830718994,10.64,10.75,0.0,1,0,-20.0,-9.135877571992031,10.769122428007968
392,56212000,1686415225.0806088,0.450573593378067,0.0,0.4239743649959564,0.5,-9.067764282226562,-9.06871223449707,-9.08828830718994,10.64,10.75,0.0,1,0,-20.0,-9.126533101917984,10.778466898082016
393,56234164,1686415225.1805687,0.4639977216720581,0.0,0.4392356872558594,0.5,-9.067620277404783,-9.070931434631348,-9.069927215576172,10.64,10.75,0.0,0,-2,-20.0,-9.126533101917984,10.778466898082016
394,56312000,1686415225.1805687,0.4639977216720581,0.0,0.4392356872558594,0.5,-9.067620277404783,-9.070931434631348,-9.069927215576172,10.64,10.75,0.0,0,-2,-20.0,-9.113912116135058,10.79108788386494
395,56334124,1686415225.280529,0.4734477698802948,0.0,0.4531676769256592,0.5,-9.068642616271973,-9.074030876159668,-9.087305068969728,10.64,10.77,0.0,0,-2,-20.0,-9.113912116135058,10.79108788386494
396,56416000,1686415225.280529,0.4734477698802948,0.0,0.4531676769256592,0.5,-9.068642616271973,-9.074030876159668,-9.087305068969728,10.64,10.77,0.0,0,-2,-20.0,-9.10178033674414,10.80321966325586
397,56434084,1686415225.3804889,0.4764249920845032,0.0,0.4595377743244171,0.5,-9.070562362670898,-9.077820777893066,-9.05923557281494,10.64,10.77,0.0,0,-2,-20.0,-9.10178033674414,10.80321966325586
398,56516000,1686415225.3804889,0.4764249920845032,0.0,0.4595377743244171,0.5,-9.070562362670898,-9.077820777893066,-9.05923557281494,10.64,10.77,0.0,0,-2,-20.0,-9.093672562745253,10.811327437254748
399,56534044,1686415225.4804487,0.4713714718818664,0.0,0.4616127014160156,0.5,-9.073235511779783,-9.08072280883789,-9.090453147888184,10.64,10.79,0.0,0,-2,-20.0,-9.093672562745253,10.811327437254748
400,56628000,1686415225.4804487,0.4713714718818664,0.0,0.4616127014160156,0.5,-9.073235511779783,-9.08072280883789,-9.090453147888184,10.64,10.79,0.0,0,-2,-20.0,-9.08463698448737,10.82036301551263
401,56634004,1686415225.580409,0.4642106890678406,0.0,0.4565745294094085,0.5,-9.07657527923584,-9.083775520324709,-9.09919548034668,10.64,10.79,0.0,-1,-2,-20.0,-9.08463698448737,10.82036301551263
402,56729000,1686415225.580409,0.4642106890678406,0.0,0.4565745294094085,0.5,-9.07657527923584,-9.083775520324709,-9.09919548034668,10.64,10.79,0.0,-1,-2,-20.0,-9.077412294749754,10.827587705250243
403,56733964,1686415225.680369,0.4621444046497345,0.0,0.452242910861969,0.5,-9.080456733703612,-9.087691307067873,-9.097766876220703,10.64,10.8,0.0,-1,-2,-20.0,-9.077412294749754,10.827587705250243
404,56829000,1686415225.680369,0.4621444046497345,0.0,0.452242910861969,0.5,-9.080456733703612,-9.087691307067873,-9.097766876220703,10.64,10.8,0.0,-1,-2,-20.0,-9.072462898049611,10.832537101950388
405,56833924,1686415225.7803288,0.4647389054298401,0.0,0.4521592557430267,0.5,-9.084816932678224,-9.092238426208496,-9.080233573913574,10.64,10.8,0.0,-2,-3,-20.0,-9.072462898049611,10.832537101950388
406,56933884,1686415225.8802888,0.4617213904857635,0.0,0.4524816870689392,0.5,-9.089574813842772,-9.096293449401855,-9.089168548583984,10.64,10.81,0.0,-2,-3,-20.0,-9.072462898049611,10.832537101950388
407,56937000,1686415225.8802888,0.4617213904857635,0.0,0.4524816870689392,0.5,-9.089574813842772,-9.096293449401855,-9.089168548583984,10.64,10.81,0.0,-2,-3,-20.0,-9.069197906372388,10.835802093627612
408,57033844,1686415225.9802487,0.4555133581161499,0.0,0.4490533173084259,0.5,-9.094700813293455,-9.100008964538574,-9.09196949005127,10.64,10.81,0.0,-3,-3,-20.0,-9.069197906372388,10.835802093627612
409,57038000,1686415225.9802487,0.4555133581161499,0.0,0.4490533173084259,0.5,-9.094700813293455,-9.100008964538574,-9.09196949005127,10.64,10.81,0.0,-3,-3,-20.0,-9.071169021148156,10.833830978851845
410,57133804,1686415226.080209,0.4500913619995117,0.0,0.4443800747394562,0.5,-9.100135803222656,-9.1037015914917,-9.101511001586914,10.64,10.81,0.0,-4,-4,-20.0,-9.071169021148156,10.833830978851845
411,57143000,1686415226.080209,0.4500913619995117,0.0,0.4443800747394562,0.5,-9.100135803222656,-9.1037015914917,-9.101511001586914,10.64,10.81,0.0,-4,-4,-20.0,-9.073219188321564,10.831780811678437
412,57233764,1686415226.1801689,0.4484379291534424,0.0,0.4411533772945404,0.5,-9.105816841125488,-9.107898712158203,-9.102581977844238,10.64,10.81,0.0,-5,-4,-20.0,-9.073219188321564,10.831780811678437
413,57243000,1686415226.1801689,0.4484379291534424,0.0,0.4411533772945404,0.5,-9.105816841125488,-9.107898712158203,-9.102581977844238,10.64,10.81,0.0,-5,-4,-20.0,-9.07573818608568,10.829261813914318
414,57333724,1686415226.2801287,0.4503237307071686,0.0,0.4421950280666351,0.5,-9.111682891845703,-9.11266040802002,-9.129465103149414,10.64,10.81,0.0,-5,-5,-20.0,-9.07573818608568,10.829261813914318
415,57347000,1686415226.2801287,0.4503237307071686,0.0,0.4421950280666351,0.5,-9.111682891845703,-9.11266040802002,-9.129465103149414,10.64,10.81,0.0,-5,-5,-20.0,-9.07975591765338,10.82524408234662
416,57433684,1686415226.380089,0.455202579498291,0.0,0.4438252747058868,0.5,-9.117673873901367,-9.118903160095217,-9.12740707397461,10.64,10.81,0.0,-5,-5,-20.0,-9.07975591765338,10.82524408234662
417,57452000,1686415226.380089,0.455202579498291,0.0,0.4438252747058868,0.5,-9.117673873901367,-9.118903160095217,-9.12740707397461,10.64,10.81,0.0,-5,-5,-20.0,-9.083679042027503,10.821320957972496
418,57533644,1686415226.480049,0.4638252258300781,0.0,0.4507741630077362,0.5,-9.12380027770996,-9.1261625289917,-9.127609252929688,10.64,10.81,0.0,-5,-6,-20.0,-9.083679042027503,10.821320957972496
419,57553000,1686415226.480049,0.4638252258300781,0.0,0.4507741630077362,0.5,-9.12380027770996,-9.1261625289917,-9.127609252929688,10.64,10.81,0.0,-5,-6,-20.0,-9.087019965887206,10.817980034112791
420,57633604,1686415226.5800087,0.4706223607063293,0.0,0.4601499140262604,0.5,-9.130010604858398,-9.133593559265137,-9.12060546875,10.64,10.8,0.0,-5,-6,-20.0,-9.087019965887206,10.817980034112791
421,57658000,1686415226.5800087,0.4706223607063293,0.0,0.4601499140262604,0.5,-9.130010604858398,-9.133593559265137,-9.12060546875,10.64,10.8,0.0,-5,-6,-20.0,-9.090521281457583,10.814478718542414
422,57733564,1686415226.6799688,0.4703119695186615,0.0,0.4659681022167206,0.5,-9.136200904846191,-9.140169143676758,-9.134944915771484,10.64,10.8,0.0,-4,-5,-20.0,-9.090521281457583,10.814478718542414
423,57758000,1686415226.6799688,0.4703119695186615,0.0,0.4659681022167206,0.5,-9.136200904846191,-9.140169143676758,-9.134944915771484,10.64,10.8,0.0,-4,-5,-20.0,-9.094157474830372,10.810842525169626
424,57833524,1686415226.7799287,0.4644097685813904,0.0,0.465015172958374,0.5,-9.14236831665039,-9.14609432220459,-9.147083282470703,10.64,10.8,0.0,-5,-5,-20.0,-9.094157474830372,10.810842525169626
425,57862000,1686415226.7799287,0.4644097685813904,0.0,0.465015172958374,0.5,-9.14236831665039,-9.14609432220459,-9.147083282470703,10.64,10.8,0.0,-5,-5,-20.0,-9.09892641390072,10.80607358609928
426,57933484,1686415226.879889,0.4593706130981445,0.0,0.4609245955944061,0.5,-9.148520469665527,-9.15186882019043,-9.12460994720459,10.64,10.8,0.0,-5,-5,-20.0,-9.09892641390072,10.80607358609928
427,57962000,1686415226.879889,0.4593706130981445,0.0,0.4609245955944061,0.5,-9.148520469665527,-9.15186882019043,-9.12460994720459,10.64,10.8,0.0,-5,-5,-20.0,-9.103343476043705,10.801656523956296
428,58034277,1686415226.980682,0.4512289762496948,0.0,0.4557802379131317,0.5,-9.15471363067627,-9.156465530395508,-9.16027545928955,10.64,10.8,0.0,-5,-5,-20.0,-9.103343476043705,10.801656523956296
429,58063000,1686415226.980682,0.4512289762496948,0.0,0.4557802379131317,0.5,-9.15471363067627,-9.156465530395508,-9.16027545928955,10.64,10.8,0.0,-5,-5,-20.0,-9.106966420953334,10.798033579046663
430,58134237,1686415227.080642,0.4446690678596496,0.0,0.4479692578315735,0.5,-9.160844802856444,-9.161177635192873,-9.158429145812988,10.64,10.78,0.0,-6,-5,-20.0,-9.106966420953334,10.798033579046663
431,58166000,1686415227.080642,0.4446690678596496,0.0,0.4479692578315735,0.5,-9.160844802856444,-9.161177635192873,-9.158429145812988,10.64,10.78,0.0,-6,-5,-20.0,-9.110690831756123,10.794309168243874
432,58234197,1686415227.1806018,0.4466919302940368,0.0,0.4493670463562011,0.5,-9.166830062866213,-9.166430473327637,-9.141494750976562,10.64,10.78,0.0,-6,-5,-20.0,-9.110690831756123,10.794309168243874
433,58267000,1686415227.1806018,0.4466919302940368,0.0,0.4493670463562011,0.5,-9.166830062866213,-9.166430473327637,-9.141494750976562,10.64,10.78,0.0,-6,-5,-20.0,-9.115134184118924,10.789865815881075
434,58334157,1686415227.280562,0.4460069239139557,0.0,0.450193703174591,0.5,-9.172607421875,-9.171142578125,-9.184582710266112,10.64,10.77,0.0,-6,-5,-20.0,-9.115134184118924,10.789865815881075
435,58370000,1686415227.280562,0.4460069239139557,0.0,0.450193703174591,0.5,-9.172607421875,-9.171142578125,-9.184582710266112,10.64,10.77,0.0,-6,-5,-20.0,-9.123922911258774,10.781077088741226
436,58434117,1686415227.380522,0.4469397068023681,0.0,0.4508105814456939,0.5,-9.178177833557127,-9.176462173461914,-9.190220832824709,10.64,10.77,0.0,-5,-5,-20.0,-9.123922911258774,10.781077088741226
437,58470000,1686415227.380522,0.4469397068023681,0.0,0.4508105814456939,0.5,-9.178177833557127,-9.176462173461914,-9.190220832824709,10.64,10.77,0.0,-5,-5,-20.0,-9.13235737298559,10.77264262701441
438,58534077,1686415227.4804819,0.4558993577957153,0.0,0.4548307061195373,0.5,-9.183557510375977,-9.182998657226562,-9.171012878417969,10.64,10.76,0.0,-5,-5,-20.0,-9.13235737298559,10.77264262701441
439,58571000,1686415227.4804819,0.4558993577957153,0.0,0.4548307061195373,0.5,-9.183557510375977,-9.182998657226562,-9.171012878417969,10.64,10.76,0.0,-5,-5,-20.0,-9.140182255075397,10.764817744924605
440,58634037,1686415227.580442,0.4654943943023681,0.0,0.4656441807746887,0.5,-9.188729286193848,-9.189321517944336,-9.165423393249512,10.64,10.75,0.0,-4,-5,-20.0,-9.140182255075397,10.764817744924605
441,58672000,1686415227.580442,0.4654943943023681,0.0,0.4656441807746887,0.5,-9.188729286193848,-9.189321517944336,-9.165423393249512,10.64,10.75,0.0,-4,-5,-20.0,-9.147698658677683,10.757301341322316
442,58733997,1686415227.680402,0.4548664689064026,0.0,0.466287225484848,0.5,-9.193632125854492,-9.194137573242188,-9.186964988708496,10.64,10.74,0.0,-4,-5,-20.0,-9.147698658677683,10.757301341322316
443,58773000,1686415227.680402,0.4548664689064026,0.0,0.466287225484848,0.5,-9.193632125854492,-9.194137573242188,-9.186964988708496,10.64,10.74,0.0,-4,-5,-20.0,-9.151796405687872,10.753203594312128
444,58833957,1686415227.780362,0.454133003950119,0.0,0.4653364419937134,0.5,-9.19827938079834,-9.198070526123049,-9.17501163482666,10.64,10.74,0.0,-4,-4,-20.0,-9.151796405687872,10.753203594312128
445,58877000,1686415227.780362,0.454133003950119,0.0,0.4653364419937134,0.5,-9.19827938079834,-9.198070526123049,-9.17501163482666,10.64,10.74,0.0,-4,-4,-20.0,-9.156033428018713,10.748966571981288
446,58933917,1686415227.880322,0.4470674991607666,0.0,0.4600421786308288,0.5,-9.202691078186035,-9.20118522644043,-9.190403938293455,10.64,10.72,0.0,-4,-4,-20.0,-9.156033428018713,10.748966571981288
447,58977000,1686415227.880322,0.4470674991607666,0.0,0.4600421786308288,0.5,-9.202691078186035,-9.20118522644043,-9.190403938293455,10.64,10.72,0.0,-4,-4,-20.0,-9.160361327857114,10.744638672142884
448,59033877,1686415227.9802818,0.4419444501399994,0.0,0.455658882856369,0.5,-9.206842422485352,-9.20389175415039,-9.210561752319336,10.64,10.72,0.0,-4,-4,-20.0,-9.160361327857114,10.744638672142884
449,59077000,1686415227.9802818,0.4419444501399994,0.0,0.455658882856369,0.5,-9.206842422485352,-9.20389175415039,-9.210561752319336,10.64,10.72,0.0,-4,-4,-20.0,-9.16643487426672,10.73856512573328
450,59133837,1686415228.080242,0.4425477981567383,0.0,0.4517726898193359,0.5,-9.210708618164062,-9.20728588104248,-9.187045097351074,10.64,10.71,0.0,-4,-4,-20.0,-9.16643487426672,10.73856512573328
451,59181000,1686415228.080242,0.4425477981567383,0.0,0.4517726898193359,0.5,-9.210708618164062,-9.20728588104248,-9.187045097351074,10.64,10.71,0.0,-4,-4,-20.0,-9.1725795186765,10.7324204813235
