,TimeUS,timestamp,ThI,ABst,ThO,ThH,DAlt,Alt,BAlt,DSAlt,SAlt,TAlt,DCRt,CRt,terrain_z,sub_z,rf
0,6634845,1685897804.580568,0.0,0.0,0.5,0.5,0.0,-0.3111017048358917,-0.2272919267416,0.0,0.0,0.0,0,9,,,
1,6734805,1685897804.680528,0.0,0.0,0.5,0.5,0.0,-0.3075524568557739,-0.4706433415412903,0.0,0.0,0.0,0,9,,,
2,6834765,1685897804.780488,0.0,0.0,0.5,0.5,0.0,-0.3077257871627807,-0.1070065349340438,0.0,0.0,0.0,0,8,,,
3,6934725,1685897804.880448,0.0,0.0,0.5,0.5,0.0,-0.2950025796890259,-0.4119786322116852,0.0,0.0,0.0,0,9,,,
4,7034685,1685897804.980408,0.0,0.0,0.5,0.5,0.0,-0.2803858816623688,-0.4711487591266632,0.0,0.0,0.0,0,10,,,
5,7134645,1685897805.080368,0.0,0.0,0.5,0.5,0.0,-0.2832725644111633,-0.1793733984231948,0.0,0.0,0.0,0,8,,,
6,7234605,1685897805.180328,0.0,0.0,0.5,0.5,0.0,-0.2813209891319275,-0.2111049145460128,0.0,0.0,0.0,0,8,,,
7,7334565,1685897805.280288,0.0,0.0,0.5,0.5,0.0,-0.2666506469249725,-0.1588910967111587,0.0,0.0,0.0,0,9,,,
8,7434525,1685897805.380248,0.0,0.0,0.5,0.5,0.0,-0.2420428246259689,-0.3592426776885986,0.0,0.0,0.0,0,12,,,
9,7534485,1685897805.480208,0.0,0.0,0.4937500059604645,0.5,0.0,-0.223206877708435,-0.2167442589998245,0.0,0.0,0.0,0,13,,,
10,7634445,1685897805.580168,0.0,0.0,0.25,0.5,0.0,-0.2103226035833358,-0.3381505012512207,0.0,0.0,0.0,0,5,,,
11,7734405,1685897805.680128,0.0,0.0,0.25,0.5,0.0,-0.2218546867370605,-0.3793997168540954,0.0,0.0,0.0,0,-17,,,
12,7834365,1685897805.780088,0.0,0.0,0.25,0.5,0.0,-0.2648899257183075,-0.4238576292991638,0.0,0.0,0.0,0,-36,,,
13,7934325,1685897805.880048,0.0,0.0,0.25,0.5,0.0,-0.3311403691768646,-0.4571866989135742,0.0,0.0,0.0,0,-48,,,
14,8034285,1685897805.980008,0.0,0.0,0.25,0.5,0.0,-0.4144535064697265,-0.42001673579216,0.0,0.0,0.0,0,-56,,,
15,8134245,1685897806.079968,0.0,0.0,0.25,0.5,0.0,-0.4942485690116882,-0.3180883228778839,0.0,0.0,0.0,0,-60,,,
16,8234205,1685897806.179928,0.0,0.0,0.25,0.5,0.0,-0.5603652000427246,-0.3492195606231689,0.0,0.0,0.0,0,-61,,,
17,8334165,1685897806.279888,0.0,0.0,0.25,0.5,0.0,-0.6113048791885376,-0.5074585676193237,0.0,0.0,0.0,0,-60,,,
18,8434125,1685897806.379848,0.0,0.0,0.25,0.5,0.0,-0.657344400882721,-0.5833801031112671,0.0,0.0,0.0,0,-58,,,
19,8534085,1685897806.479808,0.0,0.0,0.25,0.5,0.0,-0.7035171985626221,-0.5889189839363098,0.0,0.0,0.0,0,-57,,,
20,8634878,1685897806.5806007,0.0,0.0,0.25,0.5,0.0,-0.7481344938278198,-0.6887707114219666,0.0,0.0,0.0,0,-55,,,
21,8734838,1685897806.680561,0.0,0.0,0.25,0.5,0.0,-0.7929892539978027,-0.6517291069030762,0.0,0.0,0.0,0,-54,,,
22,8834798,1685897806.7805212,0.0,0.0,0.25,0.5,0.0,-0.8342770338058472,-1.0483481884002686,0.0,0.0,0.0,0,-53,,,
23,8934758,1685897806.880481,0.0,0.0,0.25,0.5,0.0,-0.8911594152450562,-1.130471110343933,0.0,0.0,0.0,0,-53,,,
24,9034718,1685897806.980441,0.0,0.0,0.25,0.5,0.0,-0.9662525653839112,-0.7947544455528259,0.0,0.0,0.0,0,-55,,,
25,9134678,1685897807.0804007,0.0,0.0,0.25,0.5,0.0,-1.0322006940841677,-1.151355266571045,0.0,0.0,0.0,0,-56,,,
26,9234638,1685897807.180361,0.0,0.0,0.25,0.5,0.0,-1.1007202863693235,-0.9524641036987304,0.0,0.0,0.0,0,-56,,,
27,9334598,1685897807.2803211,0.0,0.0,0.25,0.5,0.0,-1.1616859436035156,-1.0241470336914062,0.0,0.0,0.0,0,-56,,,
28,9434558,1685897807.3802807,0.0,0.0,0.25,0.5,0.0,-1.2136833667755127,-1.265254259109497,0.0,0.0,0.0,0,-56,,,
29,9534518,1685897807.480241,0.0,0.0,0.25,0.5,0.0,-1.2693949937820437,-1.4714444875717163,0.0,0.0,0.0,0,-55,,,
30,9634478,1685897807.5802011,0.0,0.0,0.25,0.5,0.0,-1.3385039567947388,-1.3531696796417236,0.0,0.0,0.0,0,-56,,,
31,9734438,1685897807.680161,0.0,0.0,0.25,0.5,0.0,-1.4094632863998413,-1.229327917098999,0.0,0.0,0.0,0,-57,,,
32,9834398,1685897807.780121,0.0,0.0,0.25,0.5,0.0,-1.4699114561080933,-1.5879623889923096,0.0,0.0,0.0,0,-57,,,
33,9934358,1685897807.8800807,0.0,0.0,0.25,0.5,0.0,-1.5347591638565063,-1.435154676437378,0.0,0.0,0.0,0,-58,,,
34,10034318,1685897807.980041,0.0,0.0,0.25,0.5,0.0,-1.5964785814285278,-1.5745089054107666,0.0,0.0,0.0,0,-58,,,
35,10134278,1685897808.080001,0.0,0.0,0.25,0.5,0.0,-1.6571413278579712,-1.827968716621399,0.0,0.0,0.0,0,-58,,,
36,10234238,1685897808.1799607,0.0,0.0,0.25,0.5,0.0,-1.727067232131958,-1.8050135374069212,0.0,0.0,0.0,0,-59,,,
37,10334198,1685897808.279921,0.0,0.0,0.25,0.5,0.0,-1.8024353981018064,-1.914491415023804,0.0,0.0,0.0,0,-60,,,
38,10434158,1685897808.3798811,0.0,0.0,0.25,0.5,0.0,-1.8822455406188965,-1.7583951950073242,0.0,0.0,0.0,0,-61,,,
39,10534118,1685897808.4798408,0.0,0.0,0.25,0.5,0.0,-1.954591155052185,-1.8016302585601809,0.0,0.0,0.0,0,-62,,,
40,10634078,1685897808.579801,0.0,0.0,0.25,0.5,0.0,-2.017062187194824,-1.976823210716248,0.0,0.0,0.0,0,-62,,,
41,10734871,1685897808.680594,0.0,0.0,0.25,0.5,0.0,-2.0781991481781006,-2.22977352142334,0.0,0.0,0.0,0,-61,,,
42,10834831,1685897808.780554,0.0,0.0,0.25,0.5,0.0,-2.148476839065552,-2.254741668701172,0.0,0.0,0.0,0,-62,,,
43,10934791,1685897808.880514,0.0,0.0,0.25,0.5,0.0,-2.226370334625244,-2.179290533065796,0.0,0.0,0.0,0,-63,,,
44,11034751,1685897808.980474,0.0,0.0,0.25,0.5,0.0,-2.3019559383392334,-2.2874481678009038,0.0,0.0,0.0,0,-64,,,
45,11134711,1685897809.080434,0.0,0.0,0.25,0.5,0.0,-2.375516176223755,-2.278179168701172,0.0,0.0,0.0,0,-65,,,
46,11234671,1685897809.180394,0.0,0.0,0.25,0.5,0.0,-2.444415330886841,-2.386027574539185,0.0,0.0,0.0,0,-65,,,
47,11334631,1685897809.280354,0.0,0.0,0.25,0.5,0.0,-2.5108425617218018,-2.323982000350952,0.0,0.0,0.0,0,-65,,,
48,11434591,1685897809.380314,0.0,0.0,0.25,0.5,0.0,-2.5701234340667725,-2.564368724822998,0.0,0.0,0.0,0,-65,,,
49,11534551,1685897809.480274,0.0,0.0,0.25,0.5,0.0,-2.6310219764709477,-2.725529432296753,0.0,0.0,0.0,0,-64,,,
50,11634511,1685897809.580234,0.0,0.0,0.25,0.5,0.0,-2.700291633605957,-2.5055062770843506,0.0,0.0,0.0,0,-65,,,
51,11734471,1685897809.680194,0.0,0.0,0.25,0.5,0.0,-2.7628962993621826,-2.482698440551758,0.0,0.0,0.0,0,-65,,,
52,11834431,1685897809.780154,0.0,0.0,0.25,0.5,0.0,-2.8136160373687744,-2.8245208263397217,0.0,0.0,0.0,0,-63,,,
53,11934391,1685897809.880114,0.0,0.0,0.25,0.5,0.0,-2.8676795959472656,-2.8919594287872314,0.0,0.0,0.0,0,-63,,,
54,12034351,1685897809.980074,0.0,0.0,0.25,0.5,0.0,-2.928614377975464,-2.9086663722991943,0.0,0.0,0.0,0,-63,,,
55,12134311,1685897810.080034,0.0,0.0,0.25,0.5,0.0,-2.992471218109131,-2.7748923301696777,0.0,0.0,0.0,0,-63,,,
56,12234271,1685897810.179994,0.0,0.0,0.25,0.5,0.0,-3.0490994453430176,-2.907670497894287,0.0,0.0,0.0,0,-62,,,
57,12334231,1685897810.279954,0.0,0.0,0.25,0.5,0.0,-3.100302696228028,-3.105876207351685,0.0,0.0,0.0,0,-61,,,
58,12434191,1685897810.379914,0.0,0.0,0.25,0.5,0.0,-3.155665874481201,-2.9577455520629883,0.0,0.0,0.0,0,-61,,,
59,12534151,1685897810.479874,0.0,0.0,0.25,0.5,0.0,-3.206444263458252,-3.3549513816833496,0.0,0.0,0.0,0,-60,,,
60,12634111,1685897810.579834,0.0,0.0,0.25,0.5,0.0,-3.2669034004211426,-3.3200342655181885,0.0,0.0,0.0,0,-60,,,
61,12734071,1685897810.679794,0.0,0.0,0.25,0.5,0.0,-3.334536552429199,-3.1684319972991943,0.0,0.0,0.0,0,-61,,,
62,12834864,1685897810.7805867,0.0,0.0,0.25,0.5,0.0,-3.396376848220825,-3.234535217285156,0.0,0.0,0.0,0,-61,,,
63,12934824,1685897810.880547,0.0,0.0,0.25,0.5,0.0,-3.4503719806671143,-3.2764103412628174,0.0,0.0,0.0,0,-60,,,
64,13034784,1685897810.9805071,0.0,0.0,0.25,0.5,0.0,-3.4990336894989014,-3.350825071334839,0.0,0.0,0.0,0,-59,,,
65,13134744,1685897811.0804667,0.0,0.0,0.25,0.5,0.0,-3.5436697006225586,-3.5746214389801025,0.0,0.0,0.0,0,-58,,,
66,13234704,1685897811.180427,0.0,0.0,0.25,0.5,0.0,-3.5927696228027344,-3.593688726425171,0.0,0.0,0.0,0,-57,,,
67,13334664,1685897811.2803872,0.0,0.0,0.25,0.5,0.0,-3.6473910808563232,-3.54297423362732,0.0,0.0,0.0,0,-57,,,
68,13434624,1685897811.380347,0.0,0.0,0.25,0.5,0.0,-3.70097017288208,-3.667792558670044,0.0,0.0,0.0,0,-57,,,
69,13534584,1685897811.480307,0.0,0.0,0.25,0.5,0.0,-3.754178285598755,-3.827341318130493,0.0,0.0,0.0,0,-56,,,
70,13634544,1685897811.5802667,0.0,0.0,0.25,0.5,0.0,-3.812629222869873,-3.645656108856201,0.0,0.0,0.0,0,-57,,,
71,13734504,1685897811.680227,0.0,0.0,0.25,0.5,0.0,-3.867597341537476,-4.089927673339844,0.0,0.0,0.0,0,-56,,,
72,13834464,1685897811.7801871,0.0,0.0,0.25,0.5,0.0,-3.929625988006592,-3.797154903411865,0.0,0.0,0.0,0,-57,,,
73,13934424,1685897811.8801467,0.0,0.0,0.25,0.5,0.0,-3.991868495941162,-4.12445068359375,0.0,0.0,0.0,0,-57,,,
74,14034384,1685897811.980107,0.0,0.0,0.25,0.5,0.0,-4.056773662567139,-3.9326331615448,0.0,0.0,0.0,0,-58,,,
75,14134344,1685897812.0800672,0.0,0.0,0.25,0.5,0.0,-4.119265556335449,-4.105286121368408,0.0,0.0,0.0,0,-58,,,
76,14234304,1685897812.180027,0.0,0.0,0.25,0.5,0.0,-4.179486274719238,-4.066936492919922,0.0,0.0,0.0,0,-58,,,
77,14334264,1685897812.279987,0.0,0.0,0.25,0.5,0.0,-4.235827922821045,-4.219039440155029,0.0,0.0,0.0,0,-57,,,
78,14434224,1685897812.3799467,0.0,0.0,0.25,0.5,0.0,-4.291421413421631,-4.377586841583252,0.0,0.0,0.0,0,-57,,,
79,14534184,1685897812.479907,0.0,0.0,0.25,0.5,0.0,-4.352511882781982,-4.409369468688965,0.0,0.0,0.0,0,-57,,,
80,14634144,1685897812.5798671,0.0,0.0,0.25,0.5,0.0,-4.41855525970459,-4.413358688354492,0.0,0.0,0.0,0,-58,,,
81,14734104,1685897812.6798267,0.0,0.0,0.25,0.5,0.0,-4.485162258148193,-4.434348583221436,0.0,0.0,0.0,0,-59,,,
82,14834064,1685897812.779787,0.0,0.0,0.25,0.5,0.0,-4.549200534820557,-4.756616115570068,0.0,0.0,0.0,0,-59,,,
83,14934857,1685897812.88058,0.0,0.0,0.25,0.5,0.0,-4.62117338180542,-4.6359686851501465,0.0,0.0,0.0,0,-60,,,
84,15034817,1685897812.98054,0.0,0.0,0.25,0.5,0.0,-4.696107387542725,-4.638068199157715,0.0,0.0,0.0,0,-61,,,
85,15134777,1685897813.0805,0.0,0.0,0.25,0.5,0.0,-4.76681661605835,-4.774473190307617,0.0,0.0,0.0,0,-61,,,
86,15234737,1685897813.18046,0.0,0.0,0.25,0.5,0.0,-4.83585786819458,-4.834702491760254,0.0,0.0,0.0,0,-62,,,
87,15334697,1685897813.28042,0.0,0.0,0.25,0.5,0.0,-4.905029296875,-4.937612533569336,0.0,0.0,0.0,0,-62,,,
88,15434657,1685897813.38038,0.0,0.0,0.25,0.5,0.0,-4.975636959075928,-5.117803573608398,0.0,0.0,0.0,0,-63,,,
89,15534617,1685897813.48034,0.0,0.0,0.25,0.5,0.0,-5.05247974395752,-4.921327114105225,0.0,0.0,0.0,0,-64,,,
90,15634577,1685897813.5803,0.0,0.0,0.25,0.5,0.0,-5.125665664672852,-5.244654655456543,0.0,0.0,0.0,0,-65,,,
91,15734537,1685897813.68026,0.0,0.0,0.25,0.5,0.0,-5.200494766235352,-4.952414512634277,0.0,0.0,0.0,0,-65,,,
92,15834497,1685897813.78022,0.0,0.0,0.25,0.5,0.0,-5.267706871032715,-5.2751665115356445,0.0,0.0,0.0,0,-65,,,
93,15934457,1685897813.88018,0.0,0.0,0.25,0.5,0.0,-5.331343173980713,-5.379613399505615,0.0,0.0,0.0,0,-65,,,
94,16034417,1685897813.98014,0.0,0.0,0.25,0.5,0.0,-5.400482177734375,-5.233516216278076,0.0,0.0,0.0,0,-65,,,
95,16134377,1685897814.0801,0.0,0.0,0.25,0.5,0.0,-5.465695858001709,-5.420370578765869,0.0,0.0,0.0,0,-65,,,
96,16234337,1685897814.18006,0.0,0.0,0.25,0.5,0.0,-5.528375625610352,-5.600543022155762,0.0,0.0,0.0,0,-65,,,
97,16334297,1685897814.28002,0.0,0.0,0.25,0.5,0.0,-5.59757137298584,-5.631504535675049,0.0,0.0,0.0,0,-66,,,
98,16434257,1685897814.37998,0.0,0.0,0.25,0.5,0.0,-5.670870304107666,-5.613600730895996,0.0,0.0,0.0,0,-66,,,
99,16534217,1685897814.47994,0.0,0.0,0.25,0.5,0.0,-5.742739677429199,-5.765310287475586,0.0,0.0,0.0,0,-67,,,
100,16634177,1685897814.5799,0.0,0.0,0.25,0.5,0.0,-5.81614875793457,-5.837540626525879,0.0,0.0,0.0,0,-67,,,
101,16734137,1685897814.67986,0.0,0.0,0.25,0.5,0.0,-5.891855239868164,-5.620882511138916,0.0,0.0,0.0,0,-68,,,
102,16834097,1685897814.77982,0.0,0.0,0.25,0.5,0.0,-5.955936908721924,-5.905951023101807,0.0,0.0,0.0,0,-68,,,
103,16934057,1685897814.87978,0.0,0.0,0.25,0.5,0.0,-6.017870903015137,-5.754308700561523,0.0,0.0,0.0,0,-67,,,
104,17034850,1685897814.9805727,0.0,0.0,0.25,0.5,0.0,-6.072012424468994,-5.81697940826416,0.0,0.0,0.0,0,-66,,,
105,17134810,1685897815.080533,0.0,0.0,0.25,0.5,0.0,-6.116996765136719,-6.074012279510498,0.0,0.0,0.0,0,-64,,,
106,17234770,1685897815.180493,0.0,0.0,0.25,0.5,0.0,-6.165386199951172,-6.083390235900879,0.0,0.0,0.0,0,-63,,,
107,17334730,1685897815.2804527,0.0,0.0,0.25,0.5,0.0,-6.216782569885254,-5.995139598846436,0.0,0.0,0.0,0,-62,,,
108,17434690,1685897815.380413,0.0,0.0,0.25,0.5,0.0,-6.263853549957275,-6.258325099945068,0.0,0.0,0.0,0,-61,,,
109,17534650,1685897815.4803731,0.0,0.0,0.25,0.5,0.0,-6.312986850738525,-6.413978576660156,0.0,0.0,0.0,0,-61,,,
110,17634610,1685897815.5803328,0.0,0.0,0.25,0.5,0.0,-6.372015476226807,-6.452347755432129,0.0,0.0,0.0,0,-61,,,
111,17734570,1685897815.680293,0.0,0.0,0.25,0.5,0.0,-6.439288139343262,-6.55772876739502,0.0,0.0,0.0,0,-61,,,
112,17834530,1685897815.7802532,0.0,0.0,0.25,0.5,0.0,-6.513382911682129,-6.304047584533691,0.0,0.0,0.0,0,-62,,,
113,17934490,1685897815.880213,0.0,0.0,0.25,0.5,0.0,-6.580399513244629,-6.535415172576904,0.0,0.0,0.0,0,-63,,,
114,18034450,1685897815.980173,0.0,0.0,0.25,0.5,0.0,-6.64142370223999,-6.429139614105225,0.0,0.0,0.0,0,-62,,,
115,18134410,1685897816.0801327,0.0,0.0,0.25,0.5,0.0,-6.636098384857178,-6.538136959075928,0.0,0.0,0.0,0,-62,,,
116,18234370,1685897816.180093,0.0,0.0,0.25,0.5,0.0,-6.68438720703125,-6.879520893096924,0.0,0.0,0.0,0,-60,,,
117,18334330,1685897816.2800531,0.0,0.0,0.25,0.5,0.0,-6.740525245666504,-6.773130416870117,0.0,0.0,0.0,0,-60,,,
118,18434290,1685897816.3800128,0.0,0.0,0.25,0.5,0.0,-6.802457332611084,-6.639830112457275,0.0,0.0,0.0,0,-60,,,
119,18534250,1685897816.479973,0.0,0.0,0.25,0.5,0.0,-6.856502532958984,-6.694457054138184,0.0,0.0,0.0,0,-60,,,
120,18634210,1685897816.5799332,0.0,0.0,0.25,0.5,0.0,-6.90104341506958,-7.048717498779297,0.0,0.0,0.0,0,-58,,,
121,18734170,1685897816.679893,0.0,0.0,0.25,0.5,0.0,-6.950675010681152,-7.171678066253662,0.0,0.0,0.0,0,-58,,,
122,18834130,1685897816.779853,0.0,0.0,0.25,0.5,0.0,-7.013094902038574,-7.006070613861084,0.0,0.0,0.0,0,-58,,,
123,18934090,1685897816.8798127,0.0,0.0,0.25,0.5,0.0,-7.077129364013672,-7.071239471435547,0.0,0.0,0.0,0,-59,,,
124,19034050,1685897816.979773,0.0,0.0,0.25,0.5,0.0,-7.137503623962402,-7.095923900604248,0.0,0.0,0.0,0,-59,,,
125,19134843,1685897817.080566,0.0,0.0,0.25,0.5,0.0,-7.19439697265625,-7.3562092781066895,0.0,0.0,0.0,0,-58,,,
126,19234803,1685897817.180526,0.0,0.0,0.25,0.5,0.0,-7.255125999450684,-7.446180820465088,0.0,0.0,0.0,0,-58,,,
127,19334763,1685897817.280486,0.0,0.0,0.25,0.5,0.0,-7.32436990737915,-7.491049766540527,0.0,0.0,0.0,0,-59,,,
128,19434723,1685897817.380446,0.0,0.0,0.25,0.5,0.0,-7.3994598388671875,-7.287055969238281,0.0,0.0,0.0,0,-60,,,
129,19534683,1685897817.480406,0.0,0.0,0.25,0.5,0.0,-7.467584609985352,-7.440990924835205,0.0,0.0,0.0,0,-61,,,
130,19634643,1685897817.580366,0.0,0.0,0.25,0.5,0.0,-7.528388500213623,-7.472145080566406,0.0,0.0,0.0,0,-61,,,
131,19734603,1685897817.680326,0.0,0.0,0.25,0.5,0.0,-7.584761142730713,-7.645707130432129,0.0,0.0,0.0,0,-60,,,
132,19834563,1685897817.780286,0.0,0.0,0.25,0.5,0.0,-7.6419358253479,-7.782985687255859,0.0,0.0,0.0,0,-60,,,
133,19934523,1685897817.880246,0.0,0.0,0.25,0.5,0.0,-7.70526123046875,-7.893513202667236,0.0,0.0,0.0,0,-60,,,
134,20034483,1685897817.980206,0.0,0.0,0.25,0.5,0.0,-7.776515960693359,-7.918151378631592,0.0,0.0,0.0,0,-61,,,
135,20134443,1685897818.080166,0.0,0.0,0.25,0.5,0.0,-7.852177619934082,-7.862306118011475,0.0,0.0,0.0,0,-62,,,
136,20234403,1685897818.180126,0.0,0.0,0.25,0.5,0.0,-7.925938129425049,-8.023343086242676,0.0,0.0,0.0,0,-63,,,
137,20334363,1685897818.280086,0.0,0.0,0.25,0.5,0.0,-7.9988532066345215,-8.155152320861816,0.0,0.0,0.0,0,-64,,,
138,20434323,1685897818.380046,0.0,0.0,0.25,0.5,0.0,-8.075572967529297,-8.123223304748535,0.0,0.0,0.0,0,-65,,,
139,20534283,1685897818.480006,0.0,0.0,0.25,0.5,0.0,-8.152826309204102,-7.912492752075195,0.0,0.0,0.0,0,-65,,,
140,20634243,1685897818.579966,0.0,0.0,0.25,0.5,0.0,-8.216402053833008,-8.056190490722656,0.0,0.0,0.0,0,-65,,,
141,20734203,1685897818.679926,0.0,0.0,0.25,0.5,0.0,-8.267875671386719,-8.156853675842285,0.0,0.0,0.0,0,-64,,,
142,20834163,1685897818.779886,0.0,0.0,0.25,0.5,0.0,-8.31429672241211,-8.296807289123535,0.0,0.0,0.0,0,-62,,,
143,20934123,1685897818.879846,0.0,0.0,0.25,0.5,0.0,-8.361593246459961,-8.516947746276855,0.0,0.0,0.0,0,-61,,,
144,21034083,1685897818.979806,0.0,0.0,0.25,0.5,0.0,-8.417957305908203,-8.599557876586914,0.0,0.0,0.0,0,-61,,,
145,21134876,1685897819.080599,0.0,0.0,0.25,0.5,0.0,-8.486808776855469,-8.621657371520996,0.0,0.0,0.0,0,-62,,,
146,21234836,1685897819.1805592,0.0,0.0,0.25,0.5,0.0,-8.56096076965332,-8.34102725982666,0.0,0.0,0.0,0,-63,,,
147,21334796,1685897819.280519,0.0,0.0,0.25,0.5,0.0,-8.622492790222168,-8.669063568115234,0.0,0.0,0.0,0,-63,,,
148,21434756,1685897819.380479,0.0,0.0,0.25,0.5,0.0,-8.682366371154785,-8.62758731842041,0.0,0.0,0.0,0,-62,,,
149,21534716,1685897819.4804387,0.0,0.0,0.25,0.5,0.0,-8.740086555480957,-8.7989501953125,0.0,0.0,0.0,0,-62,,,
150,21634676,1685897819.580399,0.0,0.0,0.25,0.5,0.0,-8.800026893615723,-8.859086036682129,0.0,0.0,0.0,0,-62,,,
151,21734636,1685897819.6803591,0.0,0.0,0.25,0.5,0.0,-8.863080024719238,-8.903847694396973,0.0,0.0,0.0,0,-62,,,
152,21834596,1685897819.7803187,0.0,0.0,0.25,0.5,0.0,-8.927513122558594,-8.992812156677246,0.0,0.0,0.0,0,-62,,,
153,21934556,1685897819.880279,0.0,0.0,0.25,0.5,0.0,-8.993827819824219,-9.03682804107666,0.0,0.0,0.0,0,-62,,,
154,22034516,1685897819.9802392,0.0,0.0,0.25,0.5,0.0,-9.06085205078125,-9.080421447753906,0.0,0.0,0.0,0,-63,,,
155,22134476,1685897820.080199,0.0,0.0,0.25,0.5,0.0,-9.127069473266602,-8.893798828125,0.0,0.0,0.0,0,-63,,,
156,22234436,1685897820.180159,0.0,0.0,0.25,0.5,0.0,-9.180268287658691,-9.043414115905762,0.0,0.0,0.0,0,-62,,,
157,22334396,1685897820.2801187,0.0,0.0,0.25,0.5,0.0,-9.225921630859377,-9.196151733398438,0.0,0.0,0.0,0,-61,,,
158,22434356,1685897820.380079,0.0,0.0,0.25,0.5,0.0,-9.271815299987791,-9.20520305633545,0.0,0.0,0.0,0,-59,,,
159,22534316,1685897820.4800391,0.0,0.0,0.25,0.5,0.0,-9.317365646362305,-9.467621803283691,0.0,0.0,0.0,0,-58,,,
160,22634276,1685897820.5799987,0.0,0.0,0.25,0.5,0.0,-9.37233543395996,-9.422585487365724,0.0,0.0,0.0,0,-58,,,
161,22734236,1685897820.679959,0.0,0.0,0.25,0.5,0.0,-9.43137264251709,-9.353206634521484,0.0,0.0,0.0,0,-58,,,
162,22834196,1685897820.7799191,0.0,0.0,0.25,0.5,0.0,-9.486212730407717,-9.336766242980955,0.0,0.0,0.0,0,-58,,,
163,22934156,1685897820.879879,0.0,0.0,0.25,0.5,0.0,-9.532824516296388,-9.768892288208008,0.0,0.0,0.0,0,-57,,,
164,23034116,1685897820.979839,0.0,0.0,0.25,0.5,0.0,-9.590152740478516,-9.72581672668457,0.0,0.0,0.0,0,-57,,,
165,23134076,1685897821.0797992,0.0,0.0,0.25,0.5,0.0,-9.65572452545166,-9.611536026000977,0.0,0.0,0.0,0,-58,,,
166,23234869,1685897821.180592,0.0,0.0,0.25,0.5,0.0,-9.71799087524414,-9.62925624847412,0.0,0.0,0.0,0,-58,,,
167,23334829,1685897821.280552,0.0,0.0,0.25,0.5,0.0,-9.772541999816896,-9.63987159729004,0.0,0.0,0.0,0,-58,,,
168,23434789,1685897821.380512,0.0,0.0,0.25,0.5,0.0,-9.819205284118652,-10.044189453125,0.0,0.0,0.0,0,-56,,,
169,23534749,1685897821.480472,0.0,0.0,0.25,0.5,0.0,-9.875988960266112,-10.121458053588867,0.0,0.0,0.0,0,-56,,,
170,23634709,1685897821.580432,0.0,0.0,0.25,0.5,0.0,-9.94420051574707,-10.124064445495604,0.0,0.0,0.0,0,-57,,,
171,23734669,1685897821.680392,0.0,0.0,0.5,0.5,0.0,-10.015616416931152,-10.036602973937988,0.0,0.0,0.0,0,-46,,,
172,23834629,1685897821.780352,0.0,0.0,0.5,0.5,0.0,-10.069869995117188,-10.16643238067627,0.0,0.0,0.0,0,-35,,,
173,23934589,1685897821.880312,0.0,0.0,0.5,0.5,0.0,-10.112436294555664,-10.187135696411133,0.0,0.0,0.0,0,-29,,,
174,24034549,1685897821.980272,0.0,0.0,0.5,0.5,0.0,-10.147966384887695,-10.20111846923828,0.0,0.0,0.0,0,-24,,,
175,24134509,1685897822.080232,0.0,0.0,0.5,0.5,0.0,-10.177240371704102,-10.08718967437744,0.0,0.0,0.0,0,-21,,,
176,24234469,1685897822.180192,0.0,0.0,0.5,0.5,0.0,-10.195751190185549,-10.155391693115234,0.0,0.0,0.0,0,-18,,,
177,24334429,1685897822.280152,0.0,0.0,0.5,0.5,0.0,-10.205573081970217,-10.438529014587402,0.0,0.0,0.0,0,-15,,,
178,24434389,1685897822.380112,0.0,0.0,0.5,0.5,0.0,-10.220484733581545,-10.136649131774902,0.0,0.0,0.0,0,-13,,,
179,24534349,1685897822.480072,0.0,0.0,0.5,0.5,0.0,-10.232121467590332,-10.282025337219238,0.0,0.0,0.0,0,-11,,,
180,24634309,1685897822.580032,0.0,0.0,0.5,0.5,0.0,-10.23962116241455,-10.152589797973633,0.0,0.0,0.0,0,-10,,,
181,24734269,1685897822.679992,0.0,0.0,0.5,0.5,0.0,-10.24142837524414,-10.379034996032717,0.0,0.0,0.0,0,-8,,,
182,24834229,1685897822.779952,0.0,0.0,0.5,0.5,0.0,-10.244542121887209,-10.263022422790527,0.0,0.0,0.0,0,-6,,,
183,24934189,1685897822.879912,0.0,0.0,0.5,0.5,0.0,-10.248391151428224,-10.195531845092772,0.0,0.0,0.0,0,-5,,,
184,25034149,1685897822.979872,0.0,0.0,0.5,0.5,0.0,-10.247121810913086,-10.504045486450195,0.0,0.0,0.0,0,-4,,,
185,25134109,1685897823.079832,0.0,0.0,0.5,0.5,0.0,-10.252429008483888,-10.440611839294434,0.0,0.0,0.0,0,-3,,,
186,25234069,1685897823.179792,0.0,0.0,0.5,0.5,0.0,-10.266013145446776,-10.237783432006836,0.0,0.0,0.0,0,-3,,,
187,25334862,1685897823.280585,0.0,0.0,0.5,0.5,0.0,-10.275457382202148,-10.429616928100586,0.0,0.0,0.0,0,-3,,,
188,25434822,1685897823.3805451,0.0,0.0,0.5,0.5,0.0,-10.28433609008789,-10.367279052734377,0.0,0.0,0.0,0,-3,,,
189,25534782,1685897823.4805048,0.0,0.0,0.5,0.5,0.0,-10.294538497924805,-10.440052032470703,0.0,0.0,0.0,0,-3,,,
190,25634742,1685897823.580465,0.0,0.0,0.5,0.5,0.0,-10.305744171142578,-10.48050594329834,0.0,0.0,0.0,0,-3,,,
191,25734702,1685897823.6804252,0.0,0.0,0.5,0.5,0.0,-10.320475578308104,-10.171977996826172,0.0,0.0,0.0,0,-3,,,
192,25834662,1685897823.780385,0.0,0.0,0.5,0.5,0.0,-10.323383331298828,-10.200437545776367,0.0,0.0,0.0,0,-2,,,
193,25934622,1685897823.880345,0.0,0.0,0.5,0.5,0.0,-10.314448356628418,-10.51941204071045,0.0,0.0,0.0,0,-1,,,
194,26034582,1685897823.9803047,0.0,0.0,0.5,0.5,0.0,-10.312152862548828,-10.400873184204102,0.0,0.0,0.0,0,0,,,
195,26134542,1685897824.080265,0.0,0.0,0.5,0.5,0.0,-10.31356430053711,-10.339116096496582,0.0,0.0,0.0,0,0,,,
196,26234502,1685897824.1802251,0.0,0.0,0.5,0.5,0.0,-10.312950134277344,-10.262309074401855,0.0,0.0,0.0,0,0,,,
197,26334462,1685897824.2801847,0.0,0.0,0.5,0.5,0.0,-10.306331634521484,-10.163752555847168,0.0,0.0,0.0,0,1,,,
198,26434422,1685897824.380145,0.0,0.0,0.5,0.5,0.0,-10.289865493774414,-10.386302947998049,0.0,0.0,0.0,0,3,,,
199,26534382,1685897824.4801052,0.0,0.0,0.5,0.5,0.0,-10.275697708129885,-10.170166969299316,0.0,0.0,0.0,0,4,,,
200,26634342,1685897824.580065,0.0,0.0,0.5,0.5,0.0,-10.25679874420166,-10.469578742980955,0.0,0.0,0.0,0,6,,,
201,26734302,1685897824.680025,0.0,0.0,0.5,0.5,0.0,-10.245885848999023,-10.3230619430542,0.0,0.0,0.0,0,7,,,
202,26834262,1685897824.7799847,0.0,0.0,0.5,0.5,0.0,-10.238601684570312,-10.338248252868652,0.0,0.0,0.0,0,7,,,
203,26934222,1685897824.879945,0.0,0.0,0.5,0.5,0.0,-10.232799530029297,-10.183245658874512,0.0,0.0,0.0,0,7,,,
204,27034182,1685897824.9799051,0.0,0.0,0.5,0.5,0.0,-10.221305847167969,-10.189264297485352,0.0,0.0,0.0,0,8,,,
205,27134142,1685897825.0798647,0.0,0.0,0.5,0.5,0.0,-10.20428466796875,-10.16191291809082,0.0,0.0,0.0,0,9,,,
206,27234102,1685897825.179825,0.0,0.0,0.5,0.5,0.0,-10.182812690734863,-10.365676879882812,0.0,0.0,0.0,0,10,,,
207,27334062,1685897825.2797852,0.0,0.0,0.5,0.5,0.0,-10.168086051940918,-10.453887939453123,0.0,0.0,0.0,0,11,,,
208,27434855,1685897825.380578,0.0,0.0,0.5,0.5,0.0,-10.16572380065918,-10.224072456359863,0.0,0.0,0.0,0,10,,,
209,27534815,1685897825.480538,0.0,0.0,0.5,0.5,0.0,-10.163236618041992,-10.124640464782717,0.0,0.0,0.0,0,10,,,
210,27634775,1685897825.580498,0.0,0.0,0.5,0.5,0.0,-10.15297794342041,-10.344090461730955,0.0,0.0,0.0,0,10,,,
211,27734735,1685897825.680458,0.0,0.0,0.5,0.5,0.0,-10.146364212036133,-10.261855125427246,0.0,0.0,0.0,0,10,,,
212,27834695,1685897825.780418,0.0,0.0,0.5,0.5,0.0,-10.142057418823242,-10.187639236450195,0.0,0.0,0.0,0,10,,,
213,27934655,1685897825.880378,0.0,0.0,0.5,0.5,0.0,-10.135204315185549,-10.103334426879885,0.0,0.0,0.0,0,10,,,
214,28034615,1685897825.980338,0.0,0.0,0.5,0.5,0.0,-10.12203598022461,-10.113897323608398,0.0,0.0,0.0,0,11,,,
215,28134575,1685897826.080298,0.0,0.0,0.5,0.5,0.0,-10.104337692260742,-10.04971408843994,0.0,0.0,0.0,0,11,,,
216,28234535,1685897826.180258,0.0,0.0,0.5,0.5,0.0,-10.08146858215332,-10.04910945892334,0.0,0.0,0.0,0,12,,,
217,28334495,1685897826.280218,0.0,0.0,0.5,0.5,0.0,-10.05507755279541,-10.012762069702148,0.0,0.0,0.0,0,14,,,
218,28434455,1685897826.380178,0.0,0.0,0.5,0.5,0.0,-10.025858879089355,-10.049415588378906,0.0,0.0,0.0,0,15,,,
219,28534415,1685897826.480138,0.0,0.0,0.5,0.5,0.0,-9.99696922302246,-10.091503143310549,0.0,0.0,0.0,0,16,,,
220,28634375,1685897826.580098,0.0,0.0,0.5,0.5,0.0,-9.972216606140137,-10.081828117370604,0.0,0.0,0.0,0,17,,,
221,28734335,1685897826.680058,0.0,0.0,0.5,0.5,0.0,-9.951791763305664,-10.346502304077148,0.0,0.0,0.0,0,17,,,
222,28834295,1685897826.780018,0.0,0.0,0.5,0.5,0.0,-9.947463989257812,-10.063854217529297,0.0,0.0,0.0,0,16,,,
223,28934255,1685897826.879978,0.0,0.0,0.5,0.5,0.0,-9.945999145507812,-10.17116641998291,0.0,0.0,0.0,0,15,,,
224,29034215,1685897826.979938,0.0,0.0,0.5,0.5,0.0,-9.94705867767334,-10.254206657409668,0.0,0.0,0.0,0,14,,,
225,29134175,1685897827.079898,0.0,0.0,0.5,0.5,0.0,-9.955751419067385,-9.975175857543944,0.0,0.0,0.0,0,12,,,
226,29234135,1685897827.179858,0.0,0.0,0.5,0.5,0.0,-9.960640907287598,-10.295381546020508,0.0,0.0,0.0,0,11,,,
227,29334095,1685897827.279818,0.0,0.0,0.5,0.5,0.0,-9.969470024108888,-9.98831844329834,0.0,0.0,0.0,0,10,,,
228,29434055,1685897827.379778,0.0,0.0,0.5,0.5,0.0,-9.975872993469238,-10.189774513244627,0.0,0.0,0.0,0,9,,,
229,29534848,1685897827.480571,0.0,0.0,0.5,0.5,0.0,-9.981809616088867,-9.925106048583984,0.0,0.0,0.0,0,8,,,
230,29634808,1685897827.5805311,0.0,0.0,0.5,0.5,0.0,-9.981549263000488,-10.251078605651855,0.0,0.0,0.0,0,7,,,
231,29734768,1685897827.6804907,0.0,0.0,0.5,0.5,0.0,-9.984132766723633,-10.10592269897461,0.0,0.0,0.0,0,6,,,
232,29834728,1685897827.780451,0.0,0.0,0.5,0.5,0.0,-9.990217208862305,-10.204560279846191,0.0,0.0,0.0,0,6,,,
233,29934688,1685897827.8804111,0.0,0.0,0.5,0.5,0.0,-9.999605178833008,-9.971527099609377,0.0,0.0,0.0,0,4,,,
234,30034648,1685897827.980371,0.0,0.0,0.5,0.5,0.0,-10.00422477722168,-10.097679138183594,0.0,0.0,0.0,0,4,,,
235,30134608,1685897828.080331,0.0,0.0,0.5,0.5,0.0,-10.005386352539062,-10.020298957824709,0.0,0.0,0.0,0,3,,,
236,30234568,1685897828.1802912,0.0,0.0,0.5,0.5,0.0,-10.003864288330078,-9.99780559539795,0.0,0.0,0.0,0,3,,,
237,30334528,1685897828.280251,0.0,0.0,0.5,0.5,0.0,-9.99813461303711,-9.838418960571287,0.0,0.0,0.0,0,3,,,
238,30434488,1685897828.380211,0.0,0.0,0.5,0.5,0.0,-9.98306655883789,-10.106639862060549,0.0,0.0,0.0,0,4,,,
239,30534448,1685897828.4801707,0.0,0.0,0.5,0.5,0.0,-9.96916961669922,-9.899361610412598,0.0,0.0,0.0,0,5,,,
240,30634408,1685897828.580131,0.0,0.0,0.5,0.5,0.0,-9.954374313354492,-10.058931350708008,0.0,0.0,0.0,0,6,,,
241,30734368,1685897828.6800911,0.0,0.0,0.5,0.5,0.0,-9.941513061523438,-9.79079818725586,0.0,0.0,0.0,0,6,,,
242,30834328,1685897828.7800508,0.0,0.0,0.5,0.5,0.0,-9.92358684539795,-10.126736640930176,0.0,0.0,0.0,0,7,,,
243,30934288,1685897828.880011,0.0,0.0,0.5,0.5,0.0,-9.910205841064451,-10.043667793273926,0.0,0.0,0.0,0,7,,,
244,31034248,1685897828.9799712,0.0,0.0,0.5,0.5,0.0,-9.904767990112305,-10.06520938873291,0.0,0.0,0.0,0,7,,,
245,31134208,1685897829.079931,0.3913915753364563,0.0,0.4967688918113708,0.5,-9.904422760009766,-9.904423713684082,-9.80416202545166,0.0,0.0,0.0,6,6,,,
246,31234168,1685897829.179891,0.3967881798744201,0.0,0.4087076485157013,0.5,-9.898938179016112,-9.898514747619627,-10.077242851257324,0.0,0.0,0.0,4,4,,,
247,31334128,1685897829.2798507,0.4370898604393005,0.0,0.4149953722953796,0.5,-9.895251274108888,-9.896363258361816,-9.820384979248049,0.0,0.0,0.0,3,1,,,
248,31434088,1685897829.379811,0.4511567950248718,0.0,0.4421309530735016,0.5,-9.892784118652344,-9.893378257751465,-10.073899269104004,0.0,0.0,0.0,2,0,,,
249,31534048,1685897829.4797711,0.4588582515716553,0.0,0.4468081295490265,0.5,-9.89113426208496,-9.893842697143556,-9.939149856567385,0.0,0.0,0.0,2,0,,,
250,31634841,1685897829.580564,0.4887326657772064,0.0,0.4697843790054321,0.5,-9.890022277832031,-9.896787643432615,-9.9237060546875,0.0,0.0,0.0,2,0,,,
251,31734801,1685897829.680524,0.4940123558044433,0.0,0.4854934513568878,0.5,-9.889286041259766,-9.897216796875,-10.032736778259276,0.0,0.0,0.0,2,0,,,
252,31834761,1685897829.780484,0.5053726434707642,0.0,0.4938322901725769,0.5,-9.888792991638184,-9.900175094604492,-10.066706657409668,0.0,0.0,0.0,3,0,,,
253,31934721,1685897829.880444,0.5568751692771912,0.0,0.519903838634491,0.5,-9.888463973999023,-9.90791130065918,-9.987486839294434,0.0,0.0,0.0,6,0,,,
254,32034681,1685897829.980404,0.596858024597168,0.0,0.5674751996994019,0.5,-9.888243675231934,-9.915275573730469,-9.963855743408203,0.0,0.0,0.0,8,0,,,
255,32134641,1685897830.080364,0.5814485549926758,0.0,0.583829402923584,0.5,-9.888096809387209,-9.918292045593262,-9.960103034973145,0.0,0.0,0.0,9,2,,,
256,32234601,1685897830.180324,0.5535016655921936,0.0,0.5708110928535461,0.5,-9.8879976272583,-9.91625690460205,-9.70766544342041,0.0,0.0,0.0,8,4,,,
257,32334561,1685897830.280284,0.4749788641929626,0.0,0.5335940718650818,0.5,-9.887931823730469,-9.89915943145752,-9.92855167388916,0.0,0.0,0.0,3,6,,,
258,32434521,1685897830.380244,0.3385917544364929,0.0,0.4336304068565368,0.5,-9.887884140014648,-9.87971019744873,-9.91155242919922,0.0,0.0,0.0,-2,7,,,
259,32534481,1685897830.480204,0.3586907982826233,0.0,0.3684231042861938,0.5,-9.887860298156738,-9.86426067352295,-9.990772247314451,0.0,0.0,0.0,-7,3,,,
260,32634441,1685897830.580164,0.4067118465900421,0.0,0.3798021078109741,0.5,-9.887835502624512,-9.86019229888916,-9.76327896118164,0.0,0.0,0.0,-8,-2,,,
261,32734401,1685897830.680124,0.4217745065689087,0.0,0.4101957082748413,0.5,-9.887819290161133,-9.856075286865234,-9.707645416259766,0.0,0.0,0.0,-9,-5,,,
262,32834361,1685897830.780084,0.3899726867675781,0.0,0.408586323261261,0.5,-9.887819290161133,-9.845658302307127,-9.705928802490234,0.0,0.0,0.0,-12,-6,,,
263,32934321,1685897830.880044,0.3554245233535766,0.0,0.3809667527675628,0.5,-9.887819290161133,-9.830903053283691,-9.83572006225586,0.0,0.0,0.0,-17,-7,,,
264,33034281,1685897830.980004,0.3637803196907043,0.0,0.3635860085487366,0.5,-9.887819290161133,-9.822073936462402,-9.978586196899414,0.0,0.0,0.0,-19,-11,,,
265,33134241,1685897831.079964,0.411275565624237,0.0,0.3807097375392914,0.5,-9.887819290161133,-9.828036308288574,-9.849700927734377,0.0,0.0,0.0,-17,-15,,,
266,33234201,1685897831.179924,0.4507419764995575,0.0,0.4203292727470398,0.5,-9.887819290161133,-9.839483261108398,-10.095574378967283,0.0,0.0,0.0,-14,-16,,,
267,33334161,1685897831.279884,0.5229215025901794,0.0,0.4656880795955658,0.5,-9.887819290161133,-9.861322402954102,-10.086284637451172,0.0,0.0,0.0,-7,-15,,,
268,33434121,1685897831.379844,0.674326479434967,0.0,0.5651875734329224,0.5,-9.887819290161133,-9.890506744384766,-10.08853244781494,0.0,0.0,0.0,0,-14,,,
269,33534081,1685897831.479804,0.6817435026168823,0.0,0.6541877388954163,0.5,-9.887819290161133,-9.92037582397461,-9.750425338745115,0.0,0.0,0.0,9,-8,,,
270,33634874,1685897831.5805972,0.5943463444709778,0.0,0.6424108147621155,0.5,-9.887819290161133,-9.927032470703123,-9.993365287780762,0.0,0.0,0.0,11,1,,,
271,33734834,1685897831.680557,0.5342052578926086,0.0,0.5815687775611877,0.5,-9.887819290161133,-9.9212007522583,-9.987773895263672,0.0,0.0,0.0,10,7,,,
272,33834794,1685897831.780517,0.4829523861408233,0.0,0.5264173150062561,0.5,-9.887819290161133,-9.912346839904783,-9.886053085327148,0.0,0.0,0.0,7,8,,,
273,33934754,1685897831.8804767,0.4002955257892608,0.0,0.4665221869945526,0.5,-9.887819290161133,-9.899447441101074,-9.75135326385498,0.0,0.0,0.0,3,9,,,
274,34034714,1685897831.980437,0.3337544798851013,0.0,0.3904216289520263,0.5,-9.887819290161133,-9.877891540527344,-10.019160270690918,0.0,0.0,0.0,-2,8,,,
275,34134674,1685897832.0803971,0.3646864593029022,0.0,0.3559951186180115,0.5,-9.887819290161133,-9.862663269042969,-9.887916564941406,0.0,0.0,0.0,-7,2,,,
276,34234634,1685897832.1803567,0.4020028114318847,0.0,0.3802294433116913,0.5,-9.887819290161133,-9.85731601715088,-9.812204360961914,0.0,0.0,0.0,-9,-3,,,
277,34334594,1685897832.280317,0.4102250337600708,0.0,0.4016836583614349,0.5,-9.887819290161133,-9.853753089904783,-9.92226791381836,0.0,0.0,0.0,-10,-6,,,
278,34434554,1685897832.3802772,0.4187089800834656,0.0,0.409344732761383,0.5,-9.887819290161133,-9.853693962097168,-9.747390747070312,0.0,0.0,0.0,-10,-7,,,
279,34534514,1685897832.480237,0.4124016761779785,0.0,0.4179309904575348,0.5,-9.887819290161133,-9.851377487182615,-9.965298652648926,0.0,0.0,0.0,-10,-8,,,
280,34634474,1685897832.580197,0.4125300049781799,0.0,0.4096564054489136,0.5,-9.887819290161133,-9.851993560791016,-9.764339447021484,0.0,0.0,0.0,-10,-8,,,
281,34734434,1685897832.6801567,0.4153060913085937,0.0,0.417422205209732,0.5,-9.887819290161133,-9.851798057556152,-9.948492050170898,0.0,0.0,0.0,-10,-8,,,
282,34834394,1685897832.780117,0.4160335659980774,0.0,0.4127581417560577,0.5,-9.887819290161133,-9.853597640991213,-9.886504173278809,0.0,0.0,0.0,-10,-9,,,
283,34934354,1685897832.8800771,0.433331161737442,0.0,0.4232222735881805,0.5,-9.887819290161133,-9.858171463012695,-9.86097526550293,0.0,0.0,0.0,-8,-9,,,
284,35034314,1685897832.9800367,0.4365814924240112,0.0,0.4332205057144165,0.5,-9.887819290161133,-9.861577987670898,-10.157172203063965,0.0,0.0,0.0,-7,-8,,,
285,35134274,1685897833.079997,0.4769653677940368,0.0,0.4446438252925873,0.5,-9.887819290161133,-9.874363899230955,-10.09108829498291,0.0,0.0,0.0,-4,-8,,,
286,35234234,1685897833.1799572,0.5862999558448792,0.0,0.5079452991485596,0.5,-9.887819290161133,-9.896045684814451,-10.126617431640623,0.0,0.0,0.0,2,-7,,,
287,35334194,1685897833.279917,0.6845605373382568,0.0,0.6153110265731812,0.5,-9.887819290161133,-9.921555519104004,-10.215753555297852,0.0,0.0,0.0,10,-5,,,
288,35434154,1685897833.379877,0.6696850061416626,0.0,0.6555362939834595,0.5,-9.887819290161133,-9.948075294494627,-10.07678508758545,0.0,0.0,0.0,18,1,,,
289,35534114,1685897833.4798367,0.6391653418540955,0.0,0.6533568501472473,0.5,-9.887819290161133,-9.964959144592283,-9.866372108459473,0.0,0.0,0.0,23,9,,,
290,35634074,1685897833.579797,0.5784317851066589,0.0,0.6230030059814453,0.5,-9.887819290161133,-9.96061897277832,-9.954198837280272,0.0,0.0,0.0,21,16,,,
291,35734867,1685897833.68059,0.4977519810199737,0.0,0.558742880821228,0.5,-9.887819290161133,-9.941555976867676,-10.168822288513184,0.0,0.0,0.0,16,19,,,
292,35834827,1685897833.78055,0.4196009933948517,0.0,0.4811274707317352,0.5,-9.887819290161133,-9.92677879333496,-9.878660202026367,0.0,0.0,0.0,11,17,,,
293,35934787,1685897833.88051,0.3825874328613281,0.0,0.4214716851711273,0.5,-9.887819290161133,-9.91096019744873,-9.838457107543944,0.0,0.0,0.0,6,15,,,
294,36034747,1685897833.98047,0.3513861894607544,0.0,0.3811410963535309,0.5,-9.887819290161133,-9.889880180358888,-10.09826946258545,0.0,0.0,0.0,0,11,,,
295,36134707,1685897834.08043,0.3852301836013794,0.0,0.3675534427165985,0.5,-9.887819290161133,-9.87881851196289,-10.015495300292969,0.0,0.0,0.0,-2,5,,,
296,36234667,1685897834.18039,0.4395660758018493,0.0,0.4027715623378753,0.5,-9.887819290161133,-9.880223274230955,-10.05652141571045,0.0,0.0,0.0,-2,0,,,
297,36334627,1685897834.28035,0.4991089105606079,0.0,0.4519573450088501,0.5,-9.887819290161133,-9.889660835266112,-10.032727241516112,0.0,0.0,0.0,0,-1,,,
298,36434587,1685897834.38031,0.5843087434768677,0.0,0.5171547532081604,0.5,-9.887819290161133,-9.902750015258787,-9.817864418029783,0.0,0.0,0.0,4,-2,,,
299,36534547,1685897834.48027,0.5950489044189453,0.0,0.5833473205566406,0.5,-9.887819290161133,-9.907732963562012,-10.06567668914795,0.0,0.0,0.0,5,0,,,
300,36634507,1685897834.58023,0.5550494194030762,0.0,0.5695390701293945,0.5,-9.887819290161133,-9.90958023071289,-9.937054634094238,0.0,0.0,0.0,6,2,,,
301,36734467,1685897834.68019,0.5371152758598328,0.0,0.5536434650421143,0.5,-9.887819290161133,-9.90883731842041,-10.133825302124023,0.0,0.0,0.0,6,4,,,
302,36834427,1685897834.78015,0.536798894405365,0.0,0.5367717146873474,0.5,-9.887819290161133,-9.911396026611328,-10.028804779052734,0.0,0.0,0.0,7,4,,,
303,36934387,1685897834.88011,0.5680857300758362,0.0,0.5504058599472046,0.5,-9.887819290161133,-9.916532516479492,-9.83958911895752,0.0,0.0,0.0,8,4,,,
304,37034347,1685897834.98007,0.5443245768547058,0.0,0.5594694018363953,0.5,-9.887819290161133,-9.913203239440918,-9.989827156066896,0.0,0.0,0.0,7,6,,,
305,37134307,1685897835.08003,0.492520809173584,0.0,0.5248576998710632,0.5,-9.887819290161133,-9.905299186706545,-9.775579452514648,0.0,0.0,0.0,5,7,,,
306,37234267,1685897835.17999,0.3978369832038879,0.0,0.4706107079982757,0.5,-9.887819290161133,-9.888946533203123,-9.80417537689209,0.0,0.0,0.0,0,7,,,
307,37334227,1685897835.27995,0.3235408365726471,0.0,0.3802242577075958,0.5,-9.887819290161133,-9.866456031799316,-9.898310661315918,0.0,0.0,0.0,-6,6,,,
308,37434187,1685897835.37991,0.3564168810844421,0.0,0.3522622287273407,0.5,-9.887819290161133,-9.8497896194458,-10.070921897888184,0.0,0.0,0.0,-11,0,,,
309,37534147,1685897835.47987,0.4209997653961181,0.0,0.3790602087974548,0.5,-9.887819290161133,-9.85141658782959,-9.827392578125,0.0,0.0,0.0,-10,-6,,,
310,37634107,1685897835.57983,0.4601311981678009,0.0,0.4286093413829803,0.5,-9.887819290161133,-9.857050895690918,-10.100004196166992,0.0,0.0,0.0,-9,-8,,,
311,37734067,1685897835.67979,0.5170212388038635,0.0,0.4686498045921325,0.5,-9.887819290161133,-9.872173309326172,-9.912525177001951,0.0,0.0,0.0,-4,-9,,,
312,37834860,1685897835.7805831,0.6172926425933838,0.0,0.545041024684906,0.5,-9.887819290161133,-9.887115478515623,-10.038358688354492,0.0,0.0,0.0,0,-8,,,
313,37934820,1685897835.8805428,0.6282906532287598,0.0,0.6033111214637756,0.5,-9.887819290161133,-9.902584075927734,-10.0546293258667,0.0,0.0,0.0,4,-5,,,
314,38034780,1685897835.980503,0.6188963055610657,0.0,0.6168781518936157,0.5,-9.887819290161133,-9.91684913635254,-9.788494110107422,0.0,0.0,0.0,8,-1,,,
315,38134740,1685897836.0804632,0.5647392868995667,0.0,0.6016010642051697,0.5,-9.887819290161133,-9.91635799407959,-9.966090202331545,0.0,0.0,0.0,8,4,,,
316,38234700,1685897836.180423,0.4964661300182342,0.0,0.5457638502120972,0.5,-9.887819290161133,-9.90671730041504,-9.898877143859863,0.0,0.0,0.0,5,7,,,
317,38334660,1685897836.280383,0.4143427014350891,0.0,0.4812067747116089,0.5,-9.887819290161133,-9.893926620483398,-9.893733024597168,0.0,0.0,0.0,1,7,,,
318,38434620,1685897836.3803427,0.3571158945560455,0.0,0.4025245308876037,0.5,-9.887819290161133,-9.879075050354004,-10.02638339996338,0.0,0.0,0.0,-2,6,,,
319,38534580,1685897836.480303,0.3937069177627563,0.0,0.3817450404167175,0.5,-9.887819290161133,-9.87158203125,-9.993106842041016,0.0,0.0,0.0,-4,2,,,
320,38634540,1685897836.5802631,0.4422987103462219,0.0,0.4100691080093384,0.5,-9.887819290161133,-9.873723983764648,-10.082108497619627,0.0,0.0,0.0,-4,-1,,,
321,38734500,1685897836.6802227,0.5054481625556946,0.0,0.4559647738933563,0.5,-9.887819290161133,-9.884990692138672,-9.98188018798828,0.0,0.0,0.0,0,-3,,,
322,38834460,1685897836.780183,0.602420449256897,0.0,0.5286294221878052,0.5,-9.887819290161133,-9.898785591125488,-9.720466613769531,0.0,0.0,0.0,3,-4,,,
323,38934420,1685897836.8801432,0.581023633480072,0.0,0.5873692631721497,0.5,-9.887819290161133,-9.900090217590332,-9.914669036865234,0.0,0.0,0.0,3,-1,,,
324,39034380,1685897836.980103,0.497514933347702,0.0,0.5453574657440186,0.5,-9.887819290161133,-9.89211368560791,-10.063960075378418,0.0,0.0,0.0,1,1,,,
325,39134340,1685897837.080063,0.4441469013690948,0.0,0.4871632158756256,0.5,-9.887819290161133,-9.888288497924805,-9.960055351257324,0.0,0.0,0.0,0,2,,,
326,39234300,1685897837.1800227,0.4395677447319031,0.0,0.4510033726692199,0.5,-9.887819290161133,-9.88740348815918,-10.04605770111084,0.0,0.0,0.0,0,2,,,
327,39334260,1685897837.279983,0.4639380872249603,0.0,0.4502795040607452,0.5,-9.887819290161133,-9.890520095825195,-10.075885772705078,0.0,0.0,0.0,0,1,,,
328,39434220,1685897837.3799431,0.5131152868270874,0.0,0.4791846573352813,0.5,-9.887819290161133,-9.899545669555664,-9.92031192779541,0.0,0.0,0.0,3,0,,,
329,39534180,1685897837.4799027,0.5851550102233887,0.0,0.535750150680542,0.5,-9.887819290161133,-9.906461715698242,-9.831949234008787,0.0,0.0,0.0,5,0,,,
330,39634140,1685897837.579863,0.5516415238380432,0.0,0.5627797245979309,0.5,-9.887819290161133,-9.90406608581543,-9.89104175567627,0.0,0.0,0.0,4,2,,,
331,39734100,1685897837.6798232,0.4823559820652008,0.0,0.526381254196167,0.5,-9.887819290161133,-9.89454174041748,-9.927494049072266,0.0,0.0,0.0,2,4,,,
332,39834060,1685897837.779783,0.3920689225196838,0.0,0.4595142006874084,0.5,-9.887819290161133,-9.883586883544922,-9.727888107299805,0.0,0.0,0.0,-1,4,,,
333,39934853,1685897837.880576,0.3509281277656555,0.0,0.3947579562664032,0.5,-9.887819290161133,-9.866155624389648,-10.042837142944336,0.0,0.0,0.0,-6,3,,,
334,40034813,1685897837.980536,0.3810815811157226,0.0,0.3682651817798614,0.5,-9.887819290161133,-9.85641860961914,-9.879690170288086,0.0,0.0,0.0,-9,-1,,,
335,40134773,1685897838.080496,0.4242758154869079,0.0,0.3985227346420288,0.5,-9.887819290161133,-9.85598087310791,-9.829142570495604,0.0,0.0,0.0,-9,-5,,,
336,40234733,1685897838.180456,0.4376398921012878,0.0,0.4246581494808197,0.5,-9.887819290161133,-9.85633945465088,-9.95363712310791,0.0,0.0,0.0,-9,-7,,,
337,40334693,1685897838.280416,0.4516152739524841,0.0,0.4373312294483185,0.5,-9.887819290161133,-9.860015869140623,-9.681485176086426,0.0,0.0,0.0,-8,-8,,,
338,40434653,1685897838.380376,0.4385998845100403,0.0,0.449404627084732,0.5,-9.887819290161133,-9.85733413696289,-9.818771362304688,0.0,0.0,0.0,-9,-7,,,
339,40534613,1685897838.480336,0.3870510756969452,0.0,0.4185180962085724,0.5,-9.887819290161133,-9.849363327026367,-9.79858684539795,0.0,0.0,0.0,-11,-6,,,
340,40634573,1685897838.580296,0.3757597804069519,0.0,0.3906487822532654,0.5,-9.887819290161133,-9.841212272644045,-9.923229217529297,0.0,0.0,0.0,-13,-7,,,
341,40734533,1685897838.680256,0.3959375023841858,0.0,0.3858788311481476,0.5,-9.887819290161133,-9.839582443237305,-9.751026153564451,0.0,0.0,0.0,-14,-10,,,
342,40834493,1685897838.780216,0.4028999805450439,0.0,0.3999214470386505,0.5,-9.887819290161133,-9.839255332946776,-10.072717666625977,0.0,0.0,0.0,-14,-11,,,
343,40934453,1685897838.880176,0.4345898032188415,0.0,0.4084497392177582,0.5,-9.887819290161133,-9.848002433776855,-9.996073722839355,0.0,0.0,0.0,-11,-12,,,
344,41034413,1685897838.980136,0.5057296752929688,0.0,0.4555220901966095,0.5,-9.887819290161133,-9.86595344543457,-9.912017822265623,0.0,0.0,0.0,-6,-12,,,
345,41134373,1685897839.080096,0.5906574130058289,0.0,0.5251145958900452,0.5,-9.887819290161133,-9.882587432861328,-10.124737739562988,0.0,0.0,0.0,-1,-10,,,
346,41234333,1685897839.180056,0.6390929222106934,0.0,0.5931386947631836,0.5,-9.887819290161133,-9.90229606628418,-10.028244972229004,0.0,0.0,0.0,4,-8,,,
347,41334293,1685897839.280016,0.6385511159896851,0.0,0.6283463835716248,0.5,-9.887819290161133,-9.920788764953612,-10.20777702331543,0.0,0.0,0.0,9,-2,,,
348,41434253,1685897839.379976,0.6343648433685303,0.0,0.6304033994674683,0.5,-9.887819290161133,-9.93858814239502,-9.932047843933104,0.0,0.0,0.0,15,2,,,
349,41534213,1685897839.479936,0.6019067764282227,0.0,0.6242804527282715,0.5,-9.887819290161133,-9.945733070373535,-9.913982391357422,0.0,0.0,0.0,17,9,,,
350,41634173,1685897839.579896,0.5412905216217041,0.0,0.5851814150810242,0.5,-9.887819290161133,-9.937424659729004,-10.123394012451172,0.0,0.0,0.0,14,13,,,
351,41734133,1685897839.679856,0.4943769574165344,0.0,0.5306515693664551,0.5,-9.887819290161133,-9.927884101867676,-9.930023193359377,0.0,0.0,0.0,12,13,,,
352,41834093,1685897839.779816,0.4491481482982635,0.0,0.4910992980003357,0.5,-9.887819290161133,-9.916906356811523,-10.034281730651855,0.0,0.0,0.0,8,13,,,
353,41934053,1685897839.879776,0.4005547761917114,0.0,0.4350032806396484,0.5,-9.887819290161133,-9.906217575073242,-10.027627944946287,0.0,0.0,0.0,5,11,,,
354,42034846,1685897839.9805691,0.4162136316299438,0.0,0.4150118231773376,0.5,-9.887819290161133,-9.900355339050291,-9.909873008728027,0.0,0.0,0.0,3,8,,,
355,42105000,1685897839.9805691,0.4162136316299438,0.0,0.4150118231773376,0.5,-9.887819290161133,-9.900355339050291,-9.909873008728027,0.0,0.0,0.0,3,8,-20.0,-9.91444280346228,9.990557196537718
356,42134806,1685897840.0805287,0.4211692214012146,0.0,0.4204954206943512,0.5,-9.887819290161133,-9.893733024597168,-9.87161922454834,0.0,9.97,0.0,1,6,-20.0,-9.91444280346228,9.990557196537718
357,42206000,1685897840.0805287,0.4211692214012146,0.0,0.4204954206943512,0.5,-9.887819290161133,-9.893733024597168,-9.87161922454834,0.0,9.97,0.0,1,6,-20.0,-9.927301579219124,9.977698420780875
358,42234766,1685897840.180489,0.4033204019069671,0.0,0.4148246347904205,0.5,-9.887819290161133,-9.88429355621338,-10.001275062561035,0.0,9.95,0.0,-1,4,-20.0,-9.927301579219124,9.977698420780875
359,42307000,1685897840.180489,0.4033204019069671,0.0,0.4148246347904205,0.5,-9.887819290161133,-9.88429355621338,-10.001275062561035,0.0,9.95,0.0,-1,4,-20.0,-9.933923777908568,9.971076222091432
360,42334726,1685897840.2804492,0.4115507304668426,0.0,0.4065093398094177,0.5,-9.887819290161133,-9.8795804977417,-10.11158847808838,0.0,9.95,0.0,-2,2,-20.0,-9.933923777908568,9.971076222091432
361,42409000,1685897840.2804492,0.4115507304668426,0.0,0.4065093398094177,0.5,-9.887819290161133,-9.8795804977417,-10.11158847808838,0.0,9.95,0.0,-2,2,-20.0,-9.940648647931326,9.964351352068674
362,42434686,1685897840.380409,0.4671803116798401,0.0,0.4294420778751373,0.5,-9.887819290161133,-9.886396408081056,-9.95523166656494,0.0,9.95,0.0,0,0,-20.0,-9.940648647931326,9.964351352068674
363,42509000,1685897840.380409,0.4671803116798401,0.0,0.4294420778751373,0.5,-9.887819290161133,-9.886396408081056,-9.95523166656494,0.0,9.95,0.0,0,0,-20.0,-9.92972768795916,9.975272312040838
364,42534646,1685897840.480369,0.5224722623825073,0.0,0.4818373918533325,0.5,-9.887819290161133,-9.895204544067385,-9.778624534606934,0.0,9.95,0.0,2,-1,-20.0,-9.92972768795916,9.975272312040838
365,42611000,1685897840.480369,0.5224722623825073,0.0,0.4818373918533325,0.5,-9.887819290161133,-9.895204544067385,-9.778624534606934,0.0,9.95,0.0,2,-1,-20.0,-9.9185646248345,9.9864353751655
366,42634606,1685897840.5803287,0.5415439605712891,0.0,0.5255863070487976,0.5,-9.887819290161133,-9.893674850463867,-9.900646209716797,0.0,9.96,0.0,1,0,-20.0,-9.9185646248345,9.9864353751655
367,42711000,1685897840.5803287,0.5415439605712891,0.0,0.5255863070487976,0.5,-9.887819290161133,-9.893674850463867,-9.900646209716797,0.0,9.96,0.0,1,0,-20.0,-9.90967773586765,9.99532226413235
368,42734566,1685897840.680289,0.4890175759792328,0.0,0.5171467661857605,0.5,-9.887819290161133,-9.8875093460083,-9.960686683654783,0.0,9.97,0.0,0,0,-20.0,-9.90967773586765,9.99532226413235
369,42811000,1685897840.680289,0.4890175759792328,0.0,0.5171467661857605,0.5,-9.887819290161133,-9.8875093460083,-9.960686683654783,0.0,9.97,0.0,0,0,-20.0,-9.902458007520355,10.002541992479644
370,42834526,1685897840.780249,0.4245830774307251,0.0,0.4696113467216491,0.5,-9.887819290161133,-9.882482528686523,-9.88890552520752,0.0,9.99,0.0,-1,1,-20.0,-9.902458007520355,10.002541992479644
371,42913000,1685897840.780249,0.4245830774307251,0.0,0.4696113467216491,0.5,-9.887819290161133,-9.882482528686523,-9.88890552520752,0.0,9.99,0.0,-1,1,-20.0,-9.89525995978,10.00974004022
372,42934486,1685897840.8802087,0.4046590030193329,0.0,0.4281406998634338,0.5,-9.887819290161133,-9.876310348510742,-9.854270935058594,0.0,9.99,0.0,-3,1,-20.0,-9.89525995978,10.00974004022
373,43014000,1685897840.8802087,0.4046590030193329,0.0,0.4281406998634338,0.5,-9.887819290161133,-9.876310348510742,-9.854270935058594,0.0,9.99,0.0,-3,1,-20.0,-9.889775561941317,10.015224438058684
374,43034446,1685897840.980169,0.3979726135730743,0.0,0.4091776311397552,0.5,-9.887819290161133,-9.868453979492188,-10.122267723083496,0.0,10.0,0.0,-5,0,-20.0,-9.889775561941317,10.015224438058684
375,43116000,1685897840.980169,0.3979726135730743,0.0,0.4091776311397552,0.5,-9.887819290161133,-9.868453979492188,-10.122267723083496,0.0,10.0,0.0,-5,0,-20.0,-9.884195048183182,10.020804951816816
376,43134406,1685897841.0801291,0.4449301660060882,0.0,0.4143974781036377,0.5,-9.887819290161133,-9.873019218444824,-9.76412868499756,0.0,10.0,0.0,-4,-3,-20.0,-9.884195048183182,10.020804951816816
377,43216000,1685897841.0801291,0.4449301660060882,0.0,0.4143974781036377,0.5,-9.887819290161133,-9.873019218444824,-9.76412868499756,0.0,10.0,0.0,-4,-3,-20.0,-9.87974778153194,10.02525221846806
378,43234366,1685897841.180089,0.4672686159610748,0.0,0.4521692991256714,0.5,-9.887819290161133,-9.873988151550291,-9.728561401367188,0.0,10.0,0.0,-4,-4,-20.0,-9.87974778153194,10.02525221846806
379,43316000,1685897841.180089,0.4672686159610748,0.0,0.4521692991256714,0.5,-9.887819290161133,-9.873988151550291,-9.728561401367188,0.0,10.0,0.0,-4,-4,-20.0,-9.887510506155031,10.017489493844968
380,43334326,1685897841.280049,0.4138653576374054,0.0,0.4458439350128174,0.5,-9.887819290161133,-9.864670753479004,-9.77158260345459,0.0,10.0,0.0,-6,-3,-20.0,-9.887510506155031,10.017489493844968
381,43418000,1685897841.280049,0.4138653576374054,0.0,0.4458439350128174,0.5,-9.887819290161133,-9.864670753479004,-9.77158260345459,0.0,10.0,0.0,-6,-3,-20.0,-9.89443090383026,10.01056909616974
382,43434286,1685897841.3800092,0.3556752204895019,0.0,0.3961606621742248,0.5,-9.887819290161133,-9.850054740905762,-9.96014404296875,0.0,10.0,0.0,-11,-3,-20.0,-9.89443090383026,10.01056909616974
383,43519000,1685897841.3800092,0.3556752204895019,0.0,0.3961606621742248,0.5,-9.887819290161133,-9.850054740905762,-9.96014404296875,0.0,10.0,0.0,-11,-3,-20.0,-9.889986546694274,10.015013453305723
384,43534246,1685897841.479969,0.3934463262557983,0.0,0.3746335804462433,0.5,-9.846198081970217,-9.84410572052002,-9.950204849243164,9.98,10.0,0.0,-7,-6,-20.0,-9.889986546694274,10.015013453305723
385,43625000,1685897841.479969,0.3934463262557983,0.0,0.3746335804462433,0.5,-9.846198081970217,-9.84410572052002,-9.950204849243164,9.98,10.0,0.0,-7,-6,-20.0,-9.885291478338084,10.019708521661917
386,43634206,1685897841.579929,0.497746855020523,0.0,0.4434838593006134,0.5,-9.853675842285156,-9.848434448242188,-9.80659008026123,9.98,10.0,0.0,-8,-8,-20.0,-9.885291478338084,10.019708521661917
387,43725000,1685897841.579929,0.497746855020523,0.0,0.4434838593006134,0.5,-9.853675842285156,-9.848434448242188,-9.80659008026123,9.98,10.0,0.0,-8,-8,-20.0,-9.88075260359428,10.024247396405718
388,43734166,1685897841.6798887,0.460936427116394,0.0,0.4660202264785766,0.5,-9.85932159423828,-9.850568771362305,-9.941296577453612,9.98,10.0,0.0,-7,-7,-20.0,-9.88075260359428,10.024247396405718
389,43826000,1685897841.6798887,0.460936427116394,0.0,0.4660202264785766,0.5,-9.85932159423828,-9.850568771362305,-9.941296577453612,9.98,10.0,0.0,-7,-7,-20.0,-9.875508814568832,10.029491185431167
390,43834126,1685897841.779849,0.4477839469909668,0.0,0.4545663297176361,0.5,-9.863231658935549,-9.853806495666504,-10.08855438232422,9.98,10.0,0.0,-6,-6,-20.0,-9.875508814568832,10.029491185431167
391,43931000,1685897841.779849,0.4477839469909668,0.0,0.4545663297176361,0.5,-9.863231658935549,-9.853806495666504,-10.08855438232422,9.98,10.0,0.0,-6,-6,-20.0,-9.87037920667282,10.03462079332718
392,43934086,1685897841.8798091,0.4911065697669983,0.0,0.4620213806629181,0.5,-9.8660249710083,-9.866151809692385,-9.980066299438477,9.98,10.0,0.0,-2,-6,-20.0,-9.87037920667282,10.03462079332718
393,44032000,1685897841.8798091,0.4911065697669983,0.0,0.4620213806629181,0.5,-9.8660249710083,-9.866151809692385,-9.980066299438477,9.98,10.0,0.0,-2,-6,-20.0,-9.867442989335464,10.037557010664536
394,44034879,1685897841.980602,0.5736098289489746,0.0,0.5143352746963501,0.5,-9.868124008178713,-9.881054878234863,-10.177042961120604,9.98,10.01,0.0,2,-5,-20.0,-9.867442989335464,10.037557010664536
395,44134839,1685897842.080562,0.6565166115760803,0.0,0.5926350355148315,0.5,-9.869791030883787,-9.90355110168457,-9.940571784973145,9.98,10.01,0.0,8,-4,-20.0,-9.867442989335464,10.037557010664536
396,44138000,1685897842.080562,0.6565166115760803,0.0,0.5926350355148315,0.5,-9.869791030883787,-9.90355110168457,-9.940571784973145,9.98,10.01,0.0,8,-4,-20.0,-9.864325955002045,10.040674044997957
397,44234799,1685897842.180522,0.6286697387695312,0.0,0.6326041221618652,0.5,-9.871249198913574,-9.9190034866333,-9.85098648071289,9.98,10.02,0.0,12,0,-20.0,-9.864325955002045,10.040674044997957
398,44239000,1685897842.180522,0.6286697387695312,0.0,0.6326041221618652,0.5,-9.871249198913574,-9.9190034866333,-9.85098648071289,9.98,10.02,0.0,12,0,-20.0,-9.86045372934146,10.04454627065854
399,44334759,1685897842.280482,0.5565500855445862,0.0,0.601159930229187,0.5,-9.872640609741213,-9.917288780212402,-10.043755531311035,9.98,10.02,0.0,11,7,-20.0,-9.86045372934146,10.04454627065854
400,44340000,1685897842.280482,0.5565500855445862,0.0,0.601159930229187,0.5,-9.872640609741213,-9.917288780212402,-10.043755531311035,9.98,10.02,0.0,11,7,-20.0,-9.853050761071565,10.051949238928437
401,44434719,1685897842.380442,0.4995342493057251,0.0,0.5430862903594971,0.5,-9.874074935913086,-9.910783767700195,-9.875008583068848,9.98,10.04,0.0,9,9,-20.0,-9.853050761071565,10.051949238928437
402,44444000,1685897842.380442,0.4995342493057251,0.0,0.5430862903594971,0.5,-9.874074935913086,-9.910783767700195,-9.875008583068848,9.98,10.04,0.0,9,9,-20.0,-9.847362517433147,10.057637482566852
403,44534679,1685897842.480402,0.4273922145366668,0.0,0.4878387749195099,0.5,-9.87565803527832,-9.899752616882324,-9.841501235961914,9.98,10.04,0.0,5,9,-20.0,-9.847362517433147,10.057637482566852
404,44545000,1685897842.480402,0.4273922145366668,0.0,0.4878387749195099,0.5,-9.87565803527832,-9.899752616882324,-9.841501235961914,9.98,10.04,0.0,5,9,-20.0,-9.849986427880086,10.055013572119911
405,44634639,1685897842.580362,0.3388250470161438,0.0,0.4021619260311126,0.5,-9.877463340759276,-9.88216781616211,-10.026043891906738,9.98,10.04,0.0,0,9,-20.0,-9.849986427880086,10.055013572119911
406,44648000,1685897842.580362,0.3388250470161438,0.0,0.4021619260311126,0.5,-9.877463340759276,-9.88216781616211,-10.026043891906738,9.98,10.04,0.0,0,9,-20.0,-9.852698152192314,10.052301847807684
407,44734599,1685897842.680322,0.3687759637832641,0.0,0.3633295893669128,0.5,-9.879524230957031,-9.87058162689209,-9.851639747619627,9.98,10.04,0.0,-4,4,-20.0,-9.852698152192314,10.052301847807684
408,44749000,1685897842.680322,0.3687759637832641,0.0,0.3633295893669128,0.5,-9.879524230957031,-9.87058162689209,-9.851639747619627,9.98,10.04,0.0,-4,4,-20.0,-9.858754557283389,10.046245442716613
409,44834559,1685897842.780282,0.3964256048202514,0.0,0.3822614550590515,0.5,-9.881842613220217,-9.864948272705078,-10.011748313903809,9.98,10.02,0.0,-7,-1,-20.0,-9.858754557283389,10.046245442716613
410,44849000,1685897842.780282,0.3964256048202514,0.0,0.3822614550590515,0.5,-9.881842613220217,-9.864948272705078,-10.011748313903809,9.98,10.02,0.0,-7,-1,-20.0,-9.879451014492828,10.025548985507172
411,44934519,1685897842.880242,0.4235158562660217,0.0,0.4005808234214782,0.5,-9.884356498718262,-9.867015838623049,-9.890229225158691,9.98,10.0,0.0,-7,-4,-20.0,-9.879451014492828,10.025548985507172
412,44954000,1685897842.880242,0.4235158562660217,0.0,0.4005808234214782,0.5,-9.884356498718262,-9.867015838623049,-9.890229225158691,9.98,10.0,0.0,-7,-4,-20.0,-9.898438510315172,10.006561489684827
413,45034479,1685897842.980202,0.451880544424057,0.0,0.4312341213226318,0.5,-9.886943817138672,-9.87273120880127,-10.039517402648926,9.98,9.99,0.0,-6,-6,-20.0,-9.898438510315172,10.006561489684827
414,45055000,1685897842.980202,0.451880544424057,0.0,0.4312341213226318,0.5,-9.886943817138672,-9.87273120880127,-10.039517402648926,9.98,9.99,0.0,-6,-6,-20.0,-9.904386685972383,10.000613314027614
415,45134439,1685897843.080162,0.4820497930049896,0.0,0.4556717872619629,0.5,-9.889497756958008,-9.882761001586914,-9.849076271057127,9.98,9.99,0.0,-4,-6,-20.0,-9.904386685972383,10.000613314027614
416,45159000,1685897843.080162,0.4820497930049896,0.0,0.4556717872619629,0.5,-9.889497756958008,-9.882761001586914,-9.849076271057127,9.98,9.99,0.0,-4,-6,-20.0,-9.910562706954488,9.994437293045513
417,45234399,1685897843.180122,0.5134554505348206,0.0,0.4904839098453522,0.5,-9.891932487487791,-9.890251159667969,-10.133743286132812,9.98,9.97,0.0,-2,-6,-20.0,-9.910562706954488,9.994437293045513
418,45260000,1685897843.180122,0.5134554505348206,0.0,0.4904839098453522,0.5,-9.891932487487791,-9.890251159667969,-10.133743286132812,9.98,9.97,0.0,-2,-6,-20.0,-9.913215103548346,9.991784896451652
419,45334359,1685897843.280082,0.5524705052375793,0.0,0.5178014636039734,0.5,-9.894159317016602,-9.90166473388672,-9.873326301574709,9.98,9.97,0.0,0,-5,-20.0,-9.913215103548346,9.991784896451652
420,45369000,1685897843.280082,0.5524705052375793,0.0,0.5178014636039734,0.5,-9.894159317016602,-9.90166473388672,-9.873326301574709,9.98,9.97,0.0,0,-5,-20.0,-9.898127137340383,10.006872862659616
421,45434319,1685897843.380042,0.5907467603683472,0.0,0.5670614242553711,0.5,-9.896119117736816,-9.910778045654297,-10.054487228393556,9.98,9.99,0.0,2,-4,-20.0,-9.898127137340383,10.006872862659616
422,45469000,1685897843.380042,0.5907467603683472,0.0,0.5670614242553711,0.5,-9.896119117736816,-9.910778045654297,-10.054487228393556,9.98,9.99,0.0,2,-4,-20.0,-9.885579434223915,10.019420565776084
423,45534279,1685897843.480002,0.5728622674942017,0.0,0.5742119550704956,0.5,-9.89784336090088,-9.917675018310549,-10.08112621307373,9.98,10.0,0.0,4,-1,-20.0,-9.885579434223915,10.019420565776084
424,45570000,1685897843.480002,0.5728622674942017,0.0,0.5742119550704956,0.5,-9.89784336090088,-9.917675018310549,-10.08112621307373,9.98,10.0,0.0,4,-1,-20.0,-9.877936923060505,10.027063076939497
425,45634239,1685897843.579962,0.5780206918716431,0.0,0.5739655494689941,0.5,-9.899404525756836,-9.926190376281738,-10.241519927978516,9.98,10.0,0.0,6,0,-20.0,-9.877936923060505,10.027063076939497
426,45671000,1685897843.579962,0.5780206918716431,0.0,0.5739655494689941,0.5,-9.899404525756836,-9.926190376281738,-10.241519927978516,9.98,10.0,0.0,6,0,-20.0,-9.870174231201643,10.034825768798356
427,45734199,1685897843.679922,0.6118499636650085,0.0,0.5862334966659546,0.5,-9.900864601135254,-9.94137191772461,-10.130654335021973,9.98,10.01,0.0,10,2,-20.0,-9.870174231201643,10.034825768798356
428,45772000,1685897843.679922,0.6118499636650085,0.0,0.5862334966659546,0.5,-9.900864601135254,-9.94137191772461,-10.130654335021973,9.98,10.01,0.0,10,2,-20.0,-9.865438264136156,10.039561735863844
429,45834159,1685897843.779882,0.634911835193634,0.0,0.6166853904724121,0.5,-9.902283668518066,-9.95815372467041,-9.846426010131836,9.98,10.01,0.0,15,5,-20.0,-9.865438264136156,10.039561735863844
430,45874000,1685897843.779882,0.634911835193634,0.0,0.6166853904724121,0.5,-9.902283668518066,-9.95815372467041,-9.846426010131836,9.98,10.01,0.0,15,5,-20.0,-9.873214231216584,10.031785768783417
431,45934119,1685897843.879842,0.583274245262146,0.0,0.6145862340927124,0.5,-9.90372085571289,-9.959317207336426,-10.066438674926758,9.98,10.01,0.0,15,10,-20.0,-9.873214231216584,10.031785768783417
432,45974000,1685897843.879842,0.583274245262146,0.0,0.6145862340927124,0.5,-9.90372085571289,-9.959317207336426,-10.066438674926758,9.98,10.01,0.0,15,10,-20.0,-9.881619019679084,10.023380980320916
433,46034079,1685897843.979802,0.5284163951873779,0.0,0.5669137239456177,0.5,-9.905198097229004,-9.95108699798584,-9.821621894836426,9.98,10.0,0.0,12,12,-20.0,-9.881619019679084,10.023380980320916
434,46074000,1685897843.979802,0.5284163951873779,0.0,0.5669137239456177,0.5,-9.905198097229004,-9.95108699798584,-9.821621894836426,9.98,10.0,0.0,12,12,-20.0,-9.89399544187937,10.011004558120629
435,46134872,1685897844.080595,0.4521523118019104,0.0,0.5134758353233337,0.5,-9.906719207763672,-9.933758735656738,-9.948187828063965,9.98,10.0,0.0,6,13,-20.0,-9.89399544187937,10.011004558120629
