TimeUS,terrain_z,sub_z,rf
50838000,-20.0,-9.644745677158971,10.260254322841028
50939000,-20.0,-9.63505862987207,10.26994137012793
51040000,-20.0,-9.62531933337158,10.279680666628419
51142000,-20.0,-9.615428610299857,10.289571389700143
51242000,-20.0,-9.60461415403223,10.300385845967769
51344000,-20.0,-9.593611567074579,10.31138843292542
51444000,-20.0,-9.582951954261214,10.322048045738786
51545000,-20.0,-9.57243001612337,10.33256998387663
51646000,-20.0,-9.561963872271352,10.343036127728647
51747000,-20.0,-9.554164718570908,10.350835281429092
51850000,-20.0,-9.546155412975853,10.358844587024146
51950000,-20.0,-9.53796196452095,10.36703803547905
52051000,-20.0,-9.525922588881226,10.379077411118773
52152000,-20.0,-9.514018865844534,10.390981134155465
52253000,-20.0,-9.505301548939755,10.399698451060244
52355000,-20.0,-9.496414819303935,10.408585180696065
52455000,-20.0,-9.487503418372897,10.417496581627102
52556000,-20.0,-9.476700900597834,10.428299099402166
52660000,-20.0,-9.465829956898402,10.439170043101598
52760000,-20.0,-9.458071589159646,10.446928410840354
52864000,-20.0,-9.450073698549485,10.454926301450515
52964000,-20.0,-9.44191766219809,10.463082337801909
53064000,-20.0,-9.430752444923037,10.474247555076962
53168000,-20.0,-9.419712372021532,10.485287627978467
53268000,-20.0,-9.41205642969965,10.49294357030035
53372000,-20.0,-9.404152499758858,10.500847500241141
53472000,-20.0,-9.395895600361698,10.509104399638302
53573000,-20.0,-9.383819815357581,10.521180184642418
53677000,-20.0,-9.371865978565868,10.533134021434131
53777000,-20.0,-9.363831157509816,10.541168842490183
53879000,-20.0,-9.35566981481607,10.54933018518393
53979000,-20.0,-9.347025992515077,10.557974007484923
54080000,-20.0,-9.334052259702787,10.570947740297212
54182000,-20.0,-9.321202381278713,10.583797618721286
54282000,-20.0,-9.311302762681896,10.593697237318104
54384000,-20.0,-9.301244338374914,10.603755661625085
54484000,-20.0,-9.29100525547372,10.613994744526279
54585000,-20.0,-9.277094286203642,10.627905713796357
54687000,-20.0,-9.263514866174972,10.641485133825027
54787000,-20.0,-9.256510609589425,10.648489390410575
54889000,-20.0,-9.249380775929307,10.655619224070692
54990000,-20.0,-9.242146397094118,10.662853602905882
55092000,-20.0,-9.23208703822902,10.67291296177098
55193000,-20.0,-9.222596898571194,10.682403101428806
55293000,-20.0,-9.21614817914929,10.68885182085071
55395000,-20.0,-9.209593243577991,10.695406756422008
55495000,-20.0,-9.202648893855748,10.702351106144251
55597000,-20.0,-9.190524307177254,10.714475692822745
55698000,-20.0,-9.178567442714833,10.726432557285166
55798000,-20.0,-9.166218423247711,10.738781576752288
55900000,-20.0,-9.153988194369807,10.751011805630192
56001000,-20.0,-9.145341644339823,10.759658355660177
56111000,-20.0,-9.135877571992031,10.769122428007968
56212000,-20.0,-9.126533101917984,10.778466898082016
56312000,-20.0,-9.113912116135058,10.791087883864941
56416000,-20.0,-9.10178033674414,10.80321966325586
56516000,-20.0,-9.093672562745251,10.811327437254748
56628000,-20.0,-9.08463698448737,10.82036301551263
56729000,-20.0,-9.077412294749754,10.827587705250245
56829000,-20.0,-9.072462898049611,10.832537101950388
56937000,-20.0,-9.069197906372388,10.835802093627612
57038000,-20.0,-9.071169021148156,10.833830978851843
57143000,-20.0,-9.073219188321564,10.831780811678435
57243000,-20.0,-9.075738186085681,10.829261813914318
57347000,-20.0,-9.07975591765338,10.82524408234662
57452000,-20.0,-9.083679042027503,10.821320957972496
57553000,-20.0,-9.087019965887206,10.817980034112793
57658000,-20.0,-9.090521281457585,10.814478718542414
57758000,-20.0,-9.094157474830373,10.810842525169626
57862000,-20.0,-9.09892641390072,10.806073586099279
57962000,-20.0,-9.103343476043703,10.801656523956296
58063000,-20.0,-9.106966420953334,10.798033579046665
58166000,-20.0,-9.110690831756125,10.794309168243874
58267000,-20.0,-9.115134184118924,10.789865815881075
58370000,-20.0,-9.123922911258774,10.781077088741226
58470000,-20.0,-9.13235737298559,10.77264262701441
58571000,-20.0,-9.140182255075397,10.764817744924603
58672000,-20.0,-9.147698658677683,10.757301341322316
58773000,-20.0,-9.151796405687872,10.753203594312128
58877000,-20.0,-9.156033428018711,10.748966571981288
58977000,-20.0,-9.160361327857114,10.744638672142885
59077000,-20.0,-9.16643487426672,10.73856512573328
59181000,-20.0,-9.1725795186765,10.7324204813235
59281000,-20.0,-9.177735948575524,10.727264051424475
59385000,-20.0,-9.183049766424336,10.721950233575663
59485000,-20.0,-9.18825307864659,10.71674692135341
59585000,-20.0,-9.193804676223364,10.711195323776636
59687000,-20.0,-9.19907812882605,10.705921871173949
59788000,-20.0,-9.201495883975271,10.703504116024728
59890000,-20.0,-9.203950583346606,10.701049416653394
59990000,-20.0,-9.206504626950991,10.698495373049008
60092000,-20.0,-9.210366792814785,10.694633207185214
60193000,-20.0,-9.214081381466745,10.690918618533255
60293000,-20.0,-9.217140770851726,10.687859229148273
60395000,-20.0,-9.220255568996858,10.684744431003141
60495000,-20.0,-9.223481521122695,10.681518478877305
60598000,-20.0,-9.228614256068308,10.676385743931691
60699000,-20.0,-9.233375754594837,10.671624245405162
60799000,-20.0,-9.235729259234622,10.669270740765377
60902000,-20.0,-9.238132783753054,10.666867216246946
61003000,-20.0,-9.240287595513964,10.664712404486036
61106000,-19.97,-9.242513362034119,10.63248663796588
61207000,-19.95,-9.244471741349532,10.610528258650467
61307000,-19.92,-9.244989370032979,10.580010629967022
61411000,-19.9,-9.245474766530219,10.55952523346978
61511000,-19.88,-9.24561538726238,10.539384612737619
61614000,-19.85,-9.245759783076888,10.509240216923112
61715000,-19.82,-9.24594299673558,10.479057003264419
61815000,-19.8,-9.246410643314457,10.458589356685543
61919000,-19.77,-9.246852247830914,10.428147752169085
62019000,-19.75,-9.247008094559867,10.407991905440133
62122000,-19.72,-9.247168409211264,10.377831590788734
62223000,-19.7,-9.247015778926038,10.357984221073961
62323000,-19.67,-9.244804768213456,10.330195231786545
62425000,-19.65,-9.242626698402992,10.312373301597006
62525000,-19.62,-9.24099564906109,10.284004350938911
62627000,-19.6,-9.239334661036644,10.265665338963357
62728000,-19.57,-9.237406207758395,10.237593792241604
62828000,-19.55,-9.232819080172021,10.222180919827979
62930000,-19.52,-9.228069436593564,10.196930563406434
63030000,-19.5,-9.222376894926418,10.182623105073581
63132000,-19.47,-9.21660289202013,10.158397107979868
63233000,-19.45,-9.210375087754839,10.14462491224516
63333000,-19.42,-9.197986847694638,10.127013152305363
63435000,-19.4,-9.185636762815168,10.11936323718483
63535000,-19.38,-9.176171214709683,10.108828785290315
63637000,-19.35,-9.166561394880269,10.088438605119732
63737000,-19.32,-9.156387495319182,10.068612504680818
63840000,-19.3,-9.137192931158188,10.067807068841812
63941000,-19.27,-9.118875336151389,10.05612466384861
64041000,-19.25,-9.104200352084035,10.050799647915964
64143000,-19.22,-9.089307782048882,10.035692217951116
64243000,-19.2,-9.074014214593449,10.03098578540655
64345000,-19.17,-9.051891572632258,10.023108427367744
64446000,-19.15,-9.030235523662139,10.02476447633786
64546000,-19.12,-9.009816620507468,10.015183379492532
64648000,-19.1,-8.98943063222313,10.015569367776871
64748000,-19.07,-8.973536284221426,10.001463715778574
64852000,-19.05,-8.95712450453153,9.99787549546847
64952000,-19.02,-8.94020106032383,9.98479893967617
65053000,-19.0,-8.913783934974234,9.991216065025766
65156000,-18.97,-8.88727177283311,9.987728227166889
65256000,-18.95,-8.866950668429011,9.988049331570988
65360000,-18.93,-8.845970194531699,9.9890298054683
65460000,-18.9,-8.824325773246265,9.980674226753733
65561000,-18.88,-8.793801964180936,9.991198035819062
65663000,-18.85,-8.763770056257131,9.99122994374287
65763000,-18.82,-8.741566231335064,9.983433768664936
65865000,-18.8,-8.718962139645457,9.986037860354543
65966000,-18.77,-8.695574045674483,9.979425954325515
66066000,-18.75,-8.662039135495913,9.992960864504086
66168000,-18.72,-8.628991893659673,9.996008106340325
66268000,-18.7,-8.607184714661761,9.997815285338238
66371000,-18.67,-8.584977456720544,9.990022543279457
66471000,-18.65,-8.562134681901716,9.992865318098282
66571000,-18.62,-8.528214408267653,9.996785591732348
66674000,-18.6,-8.49467203128193,10.010327968718071
66774000,-18.57,-8.472502237175044,10.002497762824955
66876000,-18.55,-8.449982600460451,10.005017399539549
66976000,-18.52,-8.427067454267252,9.997932545732747
67076000,-18.5,-8.395856218071637,10.009143781928362
67178000,-18.47,-8.36499279961146,10.010007200388538
67279000,-18.45,-8.343458999634752,10.011541000365247
67381000,-18.42,-8.321579331477958,10.003420668522043
67481000,-18.4,-8.299169548259767,10.00583045174023
67581000,-18.38,-8.26686408602051,10.018135913979489
67683000,-18.35,-8.234703524350477,10.020296475649523
67784000,-18.32,-8.211900476661615,10.013099523338385
67889000,-18.3,-8.188076639592772,10.016923360407228
67989000,-18.27,-8.164062382997509,10.01093761700249
68092000,-18.25,-8.129645918225528,10.025354081774472
68192000,-18.22,-8.097402255850657,10.027597744149341
68292000,-18.2,-8.075905925417079,10.02909407458292
68394000,-18.17,-8.054089902719847,10.020910097280154
68494000,-18.15,-8.031213098061533,10.023786901938465
68596000,-18.12,-7.997048177786505,10.027951822213495
68697000,-18.1,-7.963554230582266,10.041445769417734
68797000,-18.07,-7.931062171654438,10.04393782834556
68899000,-18.05,-7.8990012149092035,10.055998785090797
68999000,-18.02,-7.8778034217687,10.047196578231299
69101000,-18.0,-7.856245475129609,10.048754524870391
69202000,-17.98,-7.834173532507677,10.050826467492323
69302000,-17.95,-7.802064956775791,10.052935043224208
69404000,-17.92,-7.770305736601951,10.05469426339805
69504000,-17.9,-7.749353452526747,10.05564654747325
69606000,-17.88,-7.728052858351905,10.056947141648093
69706000,-17.85,-7.706519103323649,10.04848089667635
69807000,-17.82,-7.678301805526868,10.046698194473132
69909000,-17.8,-7.650162462581155,10.054837537418846
70009000,-17.77,-7.62934752057904,10.045652479420959
70111000,-17.75,-7.608178536538328,10.04682146346167
70212000,-17.73,-7.5864567548834385,10.04854324511656
70312000,-17.7,-7.554658336932747,10.050341663067252
70414000,-17.67,-7.523282474370751,10.05171752562925
70514000,-17.65,-7.50320990674409,10.051790093255908
70617000,-17.62,-7.482794243979953,10.042205756020048
70717000,-17.6,-7.461758074906915,10.043241925093087
70817000,-17.57,-7.429962303447096,10.045037696552905
70921000,-17.55,-7.398220165057768,10.056779834942231
71021000,-17.52,-7.376947195085086,10.048052804914912
71125000,-17.5,-7.355056805151157,10.049943194848842
71225000,-17.47,-7.332621837407124,10.042378162592874
71326000,-17.45,-7.301186793024996,10.053813206975002
71428000,-17.42,-7.270763228876949,10.054236771123053
71528000,-17.4,-7.252405522470413,10.052594477529585
71630000,-17.38,-7.233749529686892,10.051250470313105
71730000,-17.35,-7.214218697088516,10.040781302911485
71831000,-17.32,-7.184465933421988,10.040534066578012
71934000,-17.3,-7.154744807117691,10.05025519288231
72035000,-17.27,-7.133478130814911,10.041521869185088
72138000,-17.25,-7.1115775094731895,10.04342249052681
72238000,-17.22,-7.089352035539329,10.03564796446067
72342000,-17.2,-7.058363991925287,10.046636008074712
72442000,-17.17,-7.029526980371013,10.045473019628988
72542000,-17.15,-7.009311214659142,10.045688785340856
72644000,-17.12,-6.9887903796436515,10.036209620356349
72745000,-17.1,-6.967549122009365,10.037450877990635
72846000,-17.07,-6.937930793968385,10.037069206031616
72947000,-17.05,-6.908636240604473,10.046363759395527
73047000,-17.02,-6.877977331800191,10.047022668199807
73151000,-17.0,-6.847275518600706,10.057724481399292
73251000,-16.97,-6.825195231501891,10.049804768498108
73354000,-16.95,-6.8025302500970755,10.052469749902924
73455000,-16.92,-6.77957285414023,10.04542714585977
73555000,-16.9,-6.7492309110726545,10.055769088927343
73657000,-16.88,-6.719564607021657,10.065435392978342
73757000,-16.85,-6.699739783120154,10.055260216879846
73859000,-16.82,-6.679580912910034,10.045419087089966
73959000,-16.8,-6.658556732314081,10.046443267685918
74060000,-16.77,-6.626133819964314,10.048866180035686
74162000,-16.75,-6.594290944344814,10.060709055655186
74262000,-16.72,-6.5743401289345025,10.050659871065497
74364000,-16.7,-6.554077664994301,10.050922335005698
74464000,-16.67,-6.533426678201947,10.041573321798055
74565000,-16.65,-6.5046335512070605,10.050366448792937
74669000,-16.62,-6.475620799319232,10.049379200680768
74769000,-16.6,-6.455244530315335,10.049755469684666
74871000,-16.57,-6.434563591146625,10.040436408853376
74971000,-16.55,-6.413128735403461,10.041871264596539
75072000,-16.52,-6.381938423754057,10.043061576245941
75173000,-16.5,-6.351363653284164,10.053636346715836
75274000,-16.47,-6.330957896050263,10.044042103949735
75376000,-16.45,-6.310221838428781,10.044778161571218
75476000,-16.42,-6.2890483393320755,10.035951660667925
75576000,-16.4,-6.2594981845096145,10.045501815490384
75679000,-16.38,-6.230022747092757,10.054977252907241
75780000,-16.35,-6.209669271210422,10.045330728789578
75882000,-16.32,-6.188917792347357,10.036082207652642
75982000,-16.3,-6.167585676084496,10.037414323915504
76083000,-16.27,-6.136560000213774,10.038439999786226
76184000,-16.25,-6.106060869308934,10.048939130691066
76285000,-16.22,-6.085700671525058,10.039299328474941
76387000,-16.2,-6.0650256061099705,10.039974393890029
76487000,-16.17,-6.0438767620013065,10.031123237998694
76587000,-16.15,-6.0138980271946885,10.04110197280531
76690000,-16.12,-5.984053091498919,10.040946908501082
76790000,-16.1,-5.963060108209482,10.041939891790518
76892000,-16.07,-5.941689335551047,10.033310664448953
76992000,-16.05,-5.919821837557906,10.035178162442094
77094000,-16.02,-5.887862464428646,10.037137535571352
77195000,-16.0,-5.857236961085864,10.047763038914136
77295000,-16.0,-5.835255005282065,10.069744994717935
77397000,-16.0,-5.8129243724849085,10.092075627515092
77497000,-16.0,-5.790182084953421,10.114817915046578
77599000,-16.0,-5.758243229403073,10.146756770596927
77699000,-16.0,-5.726962974718796,10.178037025281204
77800000,-16.0,-5.697657352471143,10.207342647528856
77902000,-16.0,-5.668558564837296,10.236441435162703
78002000,-16.0,-5.647532574226785,10.257467425773214
78104000,-16.0,-5.626063881719647,10.278936118280352
78205000,-16.0,-5.60418195118203,10.30081804881797
78305000,-16.0,-5.572679059942293,10.332320940057707
78407000,-16.0,-5.541716821663683,10.363283178336316
78507000,-16.0,-5.523566974087887,10.381433025912111
78609000,-16.0,-5.505124548582612,10.399875451417389
78709000,-16.0,-5.486442409925894,10.418557590074105
78810000,-16.0,-5.462108206430661,10.44289179356934
78912000,-16.0,-5.437973785394076,10.467026214605923
79012000,-16.0,-5.421227643744796,10.483772356255203
79114000,-16.0,-5.404209794452467,10.500790205547533
79214000,-16.0,-5.3869289610356645,10.518071038964335
79315000,-16.0,-5.363411617226479,10.54158838277352
79417000,-16.0,-5.340279493712744,10.564720506287255
79517000,-16.0,-5.32659021383994,10.57840978616006
79619000,-16.0,-5.312673021186038,10.592326978813961
79719000,-16.0,-5.298651074908174,10.606348925091824
79820000,-16.0,-5.280945656977725,10.624054343022275
79922000,-16.0,-5.263539621238217,10.641460378761783
80022000,-16.0,-5.253058790596598,10.651941209403402
80124000,-16.0,-5.242401510559184,10.662598489440816
80225000,-16.0,-5.231965664798949,10.67303433520105
80325000,-16.0,-5.221736459622505,10.683263540377494
80427000,-16.0,-5.211950972061989,10.693049027938011
80527000,-16.0,-5.209012241218944,10.695987758781056
80629000,-16.0,-5.20602350969757,10.69897649030243
80730000,-16.0,-5.202975472110605,10.702024527889394
80830000,-16.0,-5.198759962688051,10.706240037311948
80932000,-16.0,-5.194623010820456,10.710376989179544
81032000,-16.0,-5.192115315286616,10.712884684713384
81134000,-16.0,-5.189571110205911,10.715428889794088
81235000,-16.0,-5.186970244476471,10.71802975552353
81335000,-16.0,-5.18329535937609,10.72170464062391
81437000,-16.0,-5.17986458786497,10.72513541213503
81537000,-16.0,-5.17998095120894,10.72501904879106
81640000,-16.0,-5.180099643926593,10.724900356073407
81740000,-16.0,-5.1801753753953275,10.724824624604672
81843000,-16.0,-5.1797933862815695,10.725206613718429
81943000,-16.0,-5.179492870706659,10.725507129293339
82044000,-16.0,-5.179867662934363,10.725132337065636
82146000,-16.0,-5.180248313627067,10.724751686372931
82246000,-16.0,-5.180690484256037,10.724309515743963
82349000,-16.0,-5.181792568008218,10.723207431991781
82449000,-16.0,-5.182840449137937,10.722159550862061
82549000,-16.0,-5.183621763286431,10.721378236713567
82651000,-16.0,-5.184496761727036,10.720503238272963
82752000,-16.0,-5.18616120954815,10.71883879045185
82854000,-16.0,-5.187857588681156,10.717142411318843
82954000,-16.0,-5.189699374881958,10.715300625118042
83055000,-16.0,-5.1933440532607555,10.711655946739244
83156000,-16.0,-5.196875994467999,10.708124005532001
83257000,-16.0,-5.198561644188167,10.706438355811832
83359000,-16.0,-5.200276939594692,10.704723060405307
83459000,-16.0,-5.202113511408241,10.702886488591759
83560000,-16.0,-5.2056025630309675,10.699397436969031
83662000,-16.0,-5.2091191120919085,10.69588088790809
83763000,-16.0,-5.211941937056241,10.693058062943757
83865000,-16.0,-5.214813173966448,10.690186826033552
83965000,-16.0,-5.217598160052446,10.687401839947553
84066000,-16.0,-5.2200146572646124,10.684985342735386
84167000,-16.0,-5.222256420745871,10.682743579254128
84268000,-16.0,-5.222337807213673,10.682662192786326
84370000,-16.0,-5.222420422103179,10.68257957789682
84470000,-16.0,-5.222624852609794,10.682375147390205
84570000,-16.0,-5.224191856447101,10.680808143552898
84673000,-16.0,-5.225748934389572,10.679251065610428
84774000,-16.0,-5.226720722197182,10.678279277802817
84876000,-16.0,-5.2277079770545,10.6772920229455
84976000,-16.0,-5.228565746259148,10.676434253740851
85076000,-16.0,-5.228273491767328,10.67672650823267
85178000,-16.0,-5.227950114706934,10.677049885293066
85279000,-16.0,-5.227359296899047,10.677640703100952
85380000,-16.0,-5.226758785863614,10.678241214136385
85481000,-16.0,-5.226262807777355,10.678737192222643
85581000,-16.0,-5.226831077205149,10.678168922794852
85683000,-16.0,-5.227534783391713,10.677465216608287
85783000,-16.0,-5.229761807073314,10.675238192926686
85885000,-16.0,-5.232025420752999,10.672974579247
85985000,-16.0,-5.234389681327412,10.670610318672589
86086000,-16.0,-5.23841093923757,10.666589060762428
86188000,-16.0,-5.242259756939299,10.662740243060702
86288000,-16.0,-5.243321643113809,10.66167835688619
86390000,-16.0,-5.244401272504667,10.660598727495332
86490000,-16.0,-5.245325048956057,10.659674951043941
86592000,-16.0,-5.244611432680129,10.66038856731987
86693000,-16.0,-5.243966391830543,10.661033608169456
86793000,-16.0,-5.2439820409471505,10.661017959052849
86895000,-16.0,-5.24399792497473,10.66100207502527
86995000,-16.0,-5.243990627596011,10.661009372403988
87097000,-16.0,-5.24370564202148,10.66129435797852
87197000,-16.0,-5.243459111940908,10.661540888059092
87298000,-16.0,-5.24360921088462,10.661390789115378
87400000,-16.02,-5.243688364695186,10.681311635304814
87500000,-16.05,-5.2429210232904495,10.71207897670955
87602000,-16.08,-5.242140954645904,10.742859045354093
87702000,-16.1,-5.241422423621099,10.763577576378902
87803000,-16.12,-5.241274447060888,10.783725552939112
87905000,-16.15,-5.241165369265795,10.813834630734203
88005000,-16.17,-5.241533672905664,10.833466327094337
88107000,-16.2,-5.241907820356717,10.863092179643282
88207000,-16.23,-5.242246904553615,10.892753095446386
88307000,-16.25,-5.2422381484059155,10.912761851594084
88409000,-16.27,-5.242317025012029,10.932682974987971
88510000,-16.3,-5.243444860657129,10.961555139342872
88612000,-16.33,-5.244591109168595,10.990408890831402
88712000,-16.35,-5.245890914541142,11.009109085458858
88812000,-16.38,-5.2492471705171795,11.035752829482819
88914000,-16.4,-5.252600065994642,11.052399934005356
89014000,-16.42,-5.255248573057476,11.069751426942526
89116000,-16.45,-5.257942048058367,11.09705795194163
89217000,-16.48,-5.260883399301664,11.124116600698335
89317000,-16.5,-5.267290847856004,11.137709152143996
89419000,-16.52,-5.2737878881757165,11.151212111824282
89519000,-16.55,-5.2800421939982245,11.174957806001776
89621000,-16.58,-5.286398425982197,11.1986015740178
89722000,-16.6,-5.293176268053693,11.211823731946309
89822000,-16.62,-5.305977271525063,11.219022728474938
89924000,-16.65,-5.318818990731042,11.236181009268956
90024000,-16.67,-5.329766229153773,11.245233770846228
90126000,-16.7,-5.340876402058193,11.264123597941806
90227000,-16.73,-5.35251302587896,11.28248697412104
90327000,-16.75,-5.372069839289359,11.28293016071064
90429000,-16.77,-5.391635455959656,11.283364544040344
90530000,-16.8,-5.406909304927845,11.298090695072155
90633000,-16.83,-5.422602389328015,11.312397610671983
90733000,-16.85,-5.438599030794343,11.316400969205658
90833000,-16.88,-5.4613891524509555,11.323610847549043
90935000,-16.9,-5.48400109919651,11.320998900803488
91036000,-16.92,-5.501093547453361,11.32390645254664
91138000,-16.95,-5.518455369596716,11.336544630403283
91238000,-16.98,-5.536460941540661,11.34853905845934
91338000,-17.0,-5.5635387290670595,11.34146127093294
91442000,-17.03,-5.590567026744741,11.34443297325526
91542000,-17.05,-5.608731591201693,11.346268408798307
91644000,-17.08,-5.62719287745748,11.357807122542518
91745000,-17.1,-5.64643333122968,11.35856666877032
91852000,-17.12,-5.6773203601302376,11.347679639869762
91952000,-17.15,-5.705199631774648,11.34980036822535
92052000,-17.17,-5.7254347036514615,11.349565296348539
92154000,-17.2,-5.7459627999624505,11.359037200037548
92255000,-17.23,-5.767764513834015,11.367235486165985
92356000,-17.25,-5.80014647793309,11.35485352206691
92457000,-17.28,-5.832227960117387,11.352772039882614
92557000,-17.3,-5.865429217035416,11.339570782964584
92659000,-17.33,-5.898158551129825,11.336841448870173
92760000,-17.35,-5.919809042874679,11.335190957125322
92862000,-17.38,-5.941785661140869,11.343214338859129
92962000,-17.4,-5.964387626354219,11.34061237364578
93062000,-17.42,-5.997661096493378,11.327338903506623
93164000,-17.45,-6.030564073556171,11.324435926443828
93265000,-17.48,-6.053918277123864,11.331081722876137
93367000,-17.5,-6.077636015564995,11.327363984435005
93467000,-17.53,-6.1019264526234265,11.333073547376573
93567000,-17.55,-6.137005071587898,11.317994928412103
93669000,-17.58,-6.17161691400938,11.313383085990617
93770000,-17.6,-6.193857606469184,11.311142393530817
93874000,-17.62,-6.2170491944656225,11.307950805534377
93975000,-17.65,-6.2403884594585195,11.31461154054148
94075000,-17.67,-6.272464934128015,11.302535065871986
94177000,-17.7,-6.303764782541723,11.301235217458276
94277000,-17.73,-6.324528855678722,11.310471144321278
94379000,-17.75,-6.345628631751838,11.309371368248161
94480000,-17.78,-6.367431969966678,11.317568030033323
94580000,-17.8,-6.3978269658087825,11.307173034191218
94682000,-17.83,-6.427884689134325,11.307115310865672
94782000,-17.85,-6.448913765358498,11.306086234641503
94884000,-17.88,-6.470281613307639,11.314718386692359
94985000,-17.9,-6.4922717701556545,11.312728229844344
95085000,-17.92,-6.5257189552322075,11.299281044767794
95187000,-17.95,-6.55877185397277,11.296228146027229
95287000,-17.98,-6.580847660809668,11.304152339190333
95389000,-18.0,-6.603306308764394,11.301693691235604
95490000,-18.02,-6.626133728237724,11.298866271762275
95590000,-18.05,-6.657276405412609,11.29772359458739
95692000,-18.08,-6.688171715508451,11.296828284491546
95792000,-18.1,-6.7097153794771955,11.295284620522805
95894000,-18.12,-6.731604130016591,11.293395869983408
95995000,-18.15,-6.753939944146451,11.301060055853547
96097000,-18.18,-6.786123966476672,11.298876033523326
96198000,-18.2,-6.816785054486629,11.288214945513369
96298000,-18.23,-6.839111208273444,11.295888791726556
96400000,-18.25,-6.8617940817605945,11.293205918239405
96500000,-18.27,-6.884923190134415,11.290076809865583
96603000,-18.3,-6.91718960259138,11.28781039740862
96703000,-18.33,-6.948585806670967,11.286414193329032
96803000,-18.35,-6.978323772883712,11.276676227116289
96905000,-18.38,-7.007764535980228,11.27723546401977
97006000,-18.4,-7.028612106915376,11.276387893084623
97108000,-18.43,-7.049818648094254,11.285181351905745
97208000,-18.45,-7.07154391394034,11.283456086059658
97308000,-18.48,-7.102593423790351,11.282406576209649
97410000,-18.5,-7.133207516308488,11.271792483691511
97511000,-18.53,-7.1528738200080095,11.282126179991991
97613000,-18.55,-7.172867180481058,11.282132819518942
97713000,-18.58,-7.193361930777109,11.29163806922289
97813000,-18.6,-7.223269931221955,11.281730068778046
97915000,-18.62,-7.252894707473341,11.272105292526659
98016000,-18.65,-7.273389296151486,11.281610703848513
98118000,-18.68,-7.294198862640434,11.290801137359564
98218000,-18.7,-7.3154078894081165,11.289592110591881
98318000,-18.73,-7.344845289252929,11.290154710747071
98420000,-18.75,-7.373930431793918,11.281069568206082
98521000,-18.78,-7.393078038309354,11.291921961690646
98622000,-18.8,-7.412537606271131,11.29246239372887
98723000,-18.83,-7.432598213189137,11.30240178681086
98823000,-18.85,-7.463349485154771,11.29165051484523
98925000,-18.88,-7.493835131907367,11.29116486809263
99026000,-18.9,-7.5149871905378,11.290012809462198
99128000,-18.93,-7.536425628852896,11.298574371147103
99228000,-18.95,-7.55852411801008,11.296475881989918
99329000,-18.98,-7.59137202492209,11.293627975077909
99431000,-19.0,-7.623682928201351,11.281317071798648
99531000,-19.03,-7.64437774009482,11.29062225990518
99633000,-19.05,-7.665401208064812,11.28959879193519
99733000,-19.08,-7.6868465222333615,11.298153477766636
99834000,-19.1,-7.716514408184554,11.288485591815446
99936000,-19.12,-7.745891874568188,11.279108125431813
100036000,-19.15,-7.7659931369991275,11.28900686300087
100138000,-19.18,-7.786365380861968,11.298634619138031
100238000,-19.2,-7.807312311734834,11.297687688265166
100339000,-19.23,-7.838182900089623,11.296817099910376
100441000,-19.25,-7.868813077720899,11.2861869222791
100541000,-19.28,-7.890488139277583,11.294511860722418
100643000,-19.3,-7.912533577377944,11.292466422622056
100743000,-19.33,-7.934827196954181,11.300172803045816
100845000,-19.35,-7.964512832557417,11.290487167442583
100946000,-19.38,-7.992939971567879,11.29206002843212
101046000,-19.4,-8.012387740045513,11.292612259954485
101148000,-19.43,-8.032112475190445,11.302887524809554
101248000,-19.45,-8.052422756828207,11.302577243171791
101350000,-19.48,-8.083383103505323,11.301616896494677
101451000,-19.5,-8.11394591311967,11.29105408688033
101551000,-19.53,-8.145862889755694,11.289137110244306
101653000,-19.55,-8.177395126380663,11.277604873619337
101753000,-19.58,-8.19835066361992,11.286649336380078
101855000,-19.6,-8.219673708213852,11.285326291786149
101956000,-19.62,-8.241464890315092,11.283535109684909
102056000,-19.65,-8.272873696419516,11.282126303580482
102158000,-19.68,-8.303901752037692,11.281098247962307
102258000,-19.7,-8.3246116324711,11.280388367528898
102360000,-19.73,-8.345634950116747,11.289365049883253
102461000,-19.75,-8.36709759161936,11.287902408380639
102561000,-19.78,-8.397147876514447,11.287852123485553
102663000,-19.8,-8.426866820107872,11.278133179892128
102763000,-19.83,-8.446545864821877,11.288454135178121
102865000,-19.85,-8.466541164613767,11.288458835386233
102966000,-19.88,-8.487045613726877,11.29795438627312
103066000,-19.9,-8.516999304728726,11.288000695271272
103168000,-19.93,-8.546729777961483,11.288270222038516
103268000,-19.95,-8.568255669991032,11.286744330008966
103370000,-19.98,-8.590136892250495,11.294863107749505
103471000,-20.0,-8.612485322639609,11.29251467736039
103571000,-20.0,-8.643642945229582,11.261357054770418
103673000,-20.0,-8.674428910983591,11.230571089016408
103773000,-20.0,-8.69503073592809,11.20996926407191
103880000,-20.0,-8.716784287142922,11.188215712857078
103980000,-20.0,-8.738733235303542,11.166266764696458
104080000,-20.0,-8.769873192536624,11.135126807463376
104182000,-20.0,-8.800036476875228,11.104963523124772
104282000,-20.0,-8.819737904575366,11.085262095424634
104384000,-20.0,-8.839758847803504,11.065241152196496
104485000,-20.0,-8.860536252130466,11.044463747869534
104585000,-20.0,-8.889075413951993,11.015924586048007
104687000,-20.0,-8.917213987986987,10.987786012013013
104787000,-20.0,-8.936232341252342,10.968767658747657
104889000,-20.0,-8.955547996134952,10.949452003865048
104990000,-20.0,-8.97509566491428,10.92990433508572
105090000,-20.0,-9.000752740046941,10.904247259953058
105194000,-20.0,-9.026228209423929,10.87877179057607
105294000,-20.0,-9.042081325586404,10.862918674413596
105398000,-20.0,-9.058443345319901,10.846556654680098
105498000,-20.0,-9.075221917749847,10.829778082250153
105601000,-20.0,-9.099712686050069,10.80528731394993
105702000,-20.0,-9.12232351516949,10.782676484830509
105802000,-20.0,-9.136523173403676,10.768476826596324
105906000,-20.0,-9.151163356409713,10.753836643590287
106006000,-20.0,-9.165560173110284,10.739439826889715
106110000,-20.0,-9.18178579043224,10.72321420956776
106210000,-20.0,-9.197105007439985,10.707894992560014
106311000,-20.0,-9.209828491392,10.695171508607999
106414000,-20.0,-9.222113167388216,10.682886832611784
106514000,-20.0,-9.228843226021267,10.676156773978732
106617000,-20.0,-9.235719825119494,10.669280174880505
106717000,-20.0,-9.242781951938214,10.662218048061785
106817000,-20.0,-9.252260567918684,10.652739432081315
106919000,-20.0,-9.261488955111329,10.64351104488867
107020000,-20.0,-9.26716755676272,10.63783244323728
107122000,-20.0,-9.272939605430249,10.63206039456975
107222000,-20.0,-9.27865748674085,10.62634251325915
107323000,-20.0,-9.284772522566524,10.620227477433476
107425000,-20.0,-9.290690116785392,10.614309883214608
107525000,-20.0,-9.29318551969159,10.611814480308409
107627000,-20.0,-9.295718263550995,10.609281736449004
107727000,-20.0,-9.298169978883768,10.606830021116231
107827000,-20.0,-9.300116852544733,10.604883147455267
107929000,-20.0,-9.301969652913343,10.603030347086657
108030000,-20.0,-9.302335651633298,10.602664348366702
108132000,-20.0,-9.30270732310784,10.602292676892159
108232000,-20.0,-9.303022971464866,10.601977028535133
108332000,-20.0,-9.302752315047112,10.602247684952887
108434000,-20.0,-9.302333037187635,10.602666962812364
108534000,-20.0,-9.300225499436692,10.604774500563307
108636000,-20.0,-9.298084340652107,10.606915659347893
108736000,-20.0,-9.295854524460417,10.609145475539583
108837000,-20.0,-9.292160832367877,10.612839167632123
108939000,-20.0,-9.288576286144034,10.616423713855966
109039000,-20.0,-9.287089354491565,10.617910645508434
109141000,-20.0,-9.285581708182724,10.619418291817276
109241000,-20.0,-9.28403557862395,10.62096442137605
109341000,-20.0,-9.281732725708935,10.623267274291065
109443000,-20.0,-9.279378232737903,10.625621767262096
109544000,-20.0,-9.276913154360441,10.628086845639558
109646000,-20.0,-9.274397306638893,10.630602693361107
109746000,-20.0,-9.271935527220379,10.63306447277962
109848000,-20.0,-9.26946564541752,10.635534354582479
109949000,-20.0,-9.267096509506175,10.637903490493825
110049000,-20.0,-9.265421295365702,10.639578704634298
110151000,-20.0,-9.263721655167867,10.641278344832132
110251000,-20.0,-9.261851281803283,10.643148718196716
110353000,-20.0,-9.257778780474158,10.647221219525841
110454000,-20.0,-9.25396523830116,10.65103476169884
110554000,-20.0,-9.252326908203717,10.652673091796283
110656000,-20.0,-9.250863768059114,10.654136231940885
110756000,-20.0,-9.251684756273102,10.653315243726897
110859000,-20.0,-9.252520700656861,10.652479299343138
110959000,-20.0,-9.253200467964186,10.651799532035813
111060000,-20.0,-9.25235603482023,10.65264396517977
111161000,-20.0,-9.251416394726489,10.65358360527351
111262000,-20.0,-9.24956772858216,10.655432271417839
111364000,-20.0,-9.247690874925462,10.657309125074537
111464000,-20.0,-9.245855311188038,10.659144688811962
111564000,-20.0,-9.244146549181432,10.660853450818568
111666000,-20.0,-9.242464484481523,10.662535515518476
111767000,-20.0,-9.241424288486348,10.663575711513651
111868000,-20.0,-9.240367515209527,10.664632484790472
111969000,-20.0,-9.23924137956398,10.66575862043602
112069000,-20.0,-9.237105779710639,10.66789422028936
112171000,-20.0,-9.235014947782787,10.669985052217212
112272000,-20.0,-9.233864217018883,10.671135782981116
112373000,-20.0,-9.23269462410339,10.67230537589661
112474000,-20.0,-9.231676960932036,10.673323039067963
112574000,-20.0,-9.23220384758936,10.672796152410639
112676000,-20.0,-9.232736798181879,10.67226320181812
112777000,-20.0,-9.233224561357867,10.671775438642133
112878000,-20.0,-9.233720170798515,10.671279829201485
112979000,-20.0,-9.234136981174506,10.670863018825493
113079000,-20.0,-9.233737388122655,10.671262611877344
113181000,-20.0,-9.233239708758806,10.671760291241194
113281000,-20.0,-9.231698381184465,10.673301618815534
113383000,-20.0,-9.230131383625752,10.674868616374248
113484000,-20.0,-9.228833024081869,10.67616697591813
113584000,-20.0,-9.230357761530547,10.674642238469453
113686000,-19.97,-9.231936698606162,10.643063301393836
113786000,-19.95,-9.233838201157194,10.621161798842804
113888000,-19.92,-9.23576969882653,10.58923030117347
113989000,-19.9,-9.23743491530424,10.567565084695758
114089000,-19.88,-9.236334811622305,10.548665188377694
114191000,-19.85,-9.235319075186185,10.519680924813816
114291000,-19.82,-9.235501353703459,10.489498646296541
114393000,-19.8,-9.235686428214233,10.469313571785767
114493000,-19.77,-9.235838920064749,10.43916107993525
114596000,-19.75,-9.235641186774492,10.419358813225507
114697000,-19.72,-9.235351890480054,10.389648109519944
114797000,-19.7,-9.23409714914225,10.370902850857748
114899000,-19.67,-9.232823021696069,10.342176978303932
114999000,-19.65,-9.231617016079248,10.32338298392075
115101000,-19.62,-9.230889587388768,10.294110412611232
115202000,-19.6,-9.230205082707647,10.274794917292354
115302000,-19.57,-9.229831748016439,10.24516825198356
115404000,-19.55,-9.229184702036935,10.225815297963065
115504000,-19.52,-9.225600326607639,10.19939967339236
115606000,-19.5,-9.221959823392554,10.183040176607445
115707000,-19.47,-9.217706897207295,10.157293102792703
115807000,-19.45,-9.205786312771446,10.149213687228553
115909000,-19.42,-9.193753309989262,10.13124669001074
116009000,-19.4,-9.183045461433395,10.121954538566603
116111000,-19.38,-9.17216388375504,10.112836116244958
116211000,-19.35,-9.161000679834476,10.093999320165524
116312000,-19.32,-9.144430037915996,10.080569962084004
116414000,-19.3,-9.127938978334424,10.077061021665576
116514000,-19.27,-9.115800150302887,10.059199849697112
116616000,-19.25,-9.10345605688587,10.05154394311413
116717000,-19.22,-9.090701558387345,10.034298441612654
116817000,-19.2,-9.07098612391174,10.034013876088258
116919000,-19.17,-9.051287136142331,10.02371286385767
117019000,-19.15,-9.035390600658646,10.019609399341352
117121000,-19.12,-9.019261556985617,10.005738443014383
117222000,-19.1,-9.002403087849912,10.00259691215009
117322000,-19.07,-8.974905415568852,10.000094584431148
117424000,-19.05,-8.947690778701128,10.007309221298872
117524000,-19.02,-8.929198045525535,9.995801954474464
117626000,-19.0,-8.910415698891105,9.994584301108894
117727000,-18.97,-8.891274103287875,9.983725896712123
117827000,-18.95,-8.864943011053406,9.990056988946593
117930000,-18.93,-8.838541072307281,9.996458927692718
118031000,-18.9,-8.8190146531666,9.985985346833399
118133000,-18.88,-8.799109662105897,9.985890337894102
118233000,-18.85,-8.778446518641497,9.976553481358504
118334000,-18.82,-8.747023200089071,9.977976799910929
118436000,-18.8,-8.71606999353231,9.98893000646769
118536000,-18.77,-8.694542680220396,9.980457319779603
118642000,-18.75,-8.671778469115015,9.983221530884984
118742000,-18.72,-8.64884316407345,9.976156835926549
118843000,-18.7,-8.616580599464768,9.98841940053523
118945000,-18.67,-8.585135085098601,9.9898649149014
119045000,-18.65,-8.562897437213106,9.992102562786892
119147000,-18.62,-8.54032822781547,9.98467177218453
119247000,-18.6,-8.516682347328794,9.988317652671206
119350000,-18.57,-8.481669078137617,9.993330921862382
119451000,-18.55,-8.448636209125194,10.006363790874806
119551000,-18.52,-8.425936640973907,9.999063359026092
119653000,-18.5,-8.402866852397048,10.002133147602951
119753000,-18.47,-8.379084037150701,9.995915962849297
119856000,-18.45,-8.343459813682761,10.011540186317237
119956000,-18.42,-8.308846732335464,10.016153267664537
120057000,-18.4,-8.275711726760978,10.02928827323902
120158000,-18.38,-8.243275319338416,10.041724680661583
120259000,-18.35,-8.222505944139753,10.032494055860248
120361000,-18.32,-8.20141351533215,10.023586484667849
120461000,-18.3,-8.179626366372778,10.025373633627222
120561000,-18.27,-8.14727613983024,10.02772386016976
120663000,-18.25,-8.115190346495785,10.039809653504214
120764000,-18.22,-8.092989183928175,10.032010816071823
120868000,-18.2,-8.069896136821482,10.035103863178517
120969000,-18.17,-8.046442077947727,10.028557922052274
121069000,-18.15,-8.012512333516517,10.042487666483481
121171000,-18.12,-7.9793087408903,10.0456912591097
121271000,-18.1,-7.957031027868887,10.047968972131114
121373000,-18.07,-7.934410404868269,10.04058959513173
121474000,-18.05,-7.911048141142508,10.043951858857492
121574000,-18.02,-7.878539177566765,10.046460822433234
121676000,-18.0,-7.846669736874126,10.058330263125873
121776000,-17.98,-7.827248204540925,10.057751795459074
121878000,-17.95,-7.80751077394484,10.047489226055157
121978000,-17.92,-7.787243621536961,10.03775637846304
122079000,-17.9,-7.757294543648336,10.047705456351663
122181000,-17.88,-7.7276219826671,10.0573780173329
122281000,-17.85,-7.706297064680392,10.048702935319609
122383000,-17.82,-7.684640561297285,10.040359438702714
122483000,-17.8,-7.662485026126009,10.04251497387399
122584000,-17.77,-7.630744385362204,10.044255614637795
122686000,-17.75,-7.59932290310368,10.05567709689632
122786000,-17.73,-7.578131374889571,10.056868625110429
122888000,-17.7,-7.556564604263151,10.048435395736847
122989000,-17.67,-7.534702636058687,10.040297363941315
123089000,-17.65,-7.505270193489691,10.049729806510307
123193000,-17.62,-7.475801114256576,10.049198885743424
123293000,-17.6,-7.455129706972003,10.049870293027999
123397000,-17.57,-7.433804714206407,10.041195285793593
123497000,-17.55,-7.411836761372214,10.043163238627786
123601000,-17.52,-7.37882173524047,10.04617826475953
123701000,-17.5,-7.348269246814575,10.056730753185425
123801000,-17.47,-7.327582768882289,10.04741723111771
123903000,-17.45,-7.306578917503129,10.048421082496871
124004000,-17.42,-7.2847321703503605,10.040267829649641
124106000,-17.4,-7.253629236405104,10.051370763594894
124207000,-17.38,-7.223096639624161,10.061903360375839
124307000,-17.35,-7.191502470594186,10.063497529405815
124409000,-17.32,-7.1604355608185255,10.064564439181474
124509000,-17.3,-7.140104845511489,10.06489515448851
124611000,-17.27,-7.119461462198847,10.055538537801153
124711000,-17.25,-7.098289131944262,10.056710868055736
124812000,-17.22,-7.0681348005663525,10.056865199433647
124913000,-17.2,-7.038418129122267,10.066581870877732
125014000,-17.17,-7.019188890029342,10.055811109970659
125116000,-17.15,-6.999628859323889,10.05537114067611
125216000,-17.12,-6.979661631698855,10.045338368301145
125316000,-17.1,-6.951044544280599,10.053955455719402
125418000,-17.07,-6.922676159434345,10.052323840565654
125519000,-17.05,-6.902751138895028,10.052248861104973
125621000,-17.02,-6.882329746484265,10.042670253515734
125722000,-17.0,-6.861612110325164,10.043387889674834
125822000,-16.97,-6.832455983930324,10.042544016069675
125924000,-16.95,-6.803688253122754,10.051311746877245
126025000,-16.92,-6.783910875507663,10.041089124492338
126127000,-16.9,-6.763835396907191,10.041164603092808
126227000,-16.88,-6.74291368316241,10.042086316837588
126328000,-16.85,-6.710653168860308,10.044346831139693
126429000,-16.82,-6.678923648747349,10.04607635125265
126530000,-16.8,-6.658586808467973,10.046413191532027
126632000,-16.77,-6.637863161172438,10.03713683882756
126732000,-16.75,-6.616684937693613,10.038315062306387
126833000,-16.72,-6.586686116089667,10.038313883910332
126935000,-16.7,-6.556995061735989,10.04800493826401
127035000,-16.67,-6.5364823723531496,10.038517627646852
127137000,-16.65,-6.515666242260692,10.039333757739305
127237000,-16.62,-6.4941915982822955,10.030808401717705
127338000,-16.6,-6.462063454697305,10.042936545302696
127441000,-16.57,-6.429910386512951,10.045089613487049
127542000,-16.55,-6.407660902361165,10.047339097638835
127643000,-16.52,-6.385062801621751,10.039937198378249
127744000,-16.5,-6.362181509552076,10.042818490447923
127846000,-16.47,-6.332677069493212,10.042322930506787
127946000,-16.45,-6.304484772424472,10.050515227575525
128046000,-16.42,-6.284433221827054,10.040566778172947
128148000,-16.4,-6.264102822505177,10.040897177494822
128249000,-16.38,-6.243067920079869,10.041932079920128
128351000,-16.35,-6.210523767244407,10.044476232755594
128451000,-16.32,-6.178633785201272,10.046366214798729
128551000,-16.3,-6.148497703184139,10.05650229681586
128653000,-16.27,-6.1186813296597995,10.056318670340199
128754000,-16.25,-6.098130422848753,10.056869577151247
128855000,-16.22,-6.077243890558588,10.04775610944141
128956000,-16.2,-6.055966028409355,10.049033971590644
129056000,-16.17,-6.026154581287681,10.04884541871232
129158000,-16.15,-5.99668245923555,10.058317540764447
129258000,-16.12,-5.976401042862502,10.048598957137498
129361000,-16.1,-5.955732932342321,10.049267067657679
129461000,-16.07,-5.934632842728276,10.040367157271723
129561000,-16.05,-5.904318522242024,10.050681477757976
129663000,-16.02,-5.8742761555022485,10.050723844497751
129763000,-16.0,-5.85325802114356,10.05174197885644
129865000,-16.0,-5.831898720952555,10.073101279047444
129966000,-16.0,-5.809917899953873,10.095082100046126
130066000,-16.0,-5.777019096964359,10.12798090303564
130169000,-16.0,-5.744466510460934,10.160533489539064
130269000,-16.0,-5.723237454568423,10.181762545431576
130371000,-16.0,-5.70164972253316,10.20335027746684
130471000,-16.0,-5.6796706348668575,10.225329365133142
130572000,-16.0,-5.649713838189598,10.255286161810401
130674000,-16.0,-5.620157657281819,10.28484234271818
130774000,-16.0,-5.6003450483558535,10.304654951644146
130876000,-16.0,-5.580226437564642,10.324773562435357
130976000,-16.0,-5.559643161040559,10.345356838959441
131077000,-16.0,-5.530205714222294,10.374794285777705
131178000,-16.0,-5.501337462093053,10.403662537906946
131279000,-16.0,-5.484088875892085,10.420911124107915
131381000,-16.0,-5.466570547447708,10.43842945255229
131481000,-16.0,-5.448822893583225,10.456177106416774
131581000,-16.0,-5.425199069982403,10.479800930017596
131683000,-16.0,-5.401908956536705,10.503091043463295
131784000,-16.0,-5.387392227392156,10.517607772607844
131886000,-16.0,-5.372655823127409,10.53234417687259
131986000,-16.0,-5.357748396848627,10.547251603151372
132086000,-16.0,-5.338228931150375,10.566771068849624
132188000,-16.0,-5.319011522482625,10.585988477517374
132289000,-16.0,-5.306810337150128,10.59818966284987
132390000,-16.0,-5.294420131781782,10.610579868218219
132491000,-16.0,-5.281859506823429,10.62314049317657
132591000,-16.0,-5.265087684993609,10.63991231500639
132695000,-16.0,-5.248491693477543,10.656508306522456
132795000,-16.0,-5.239127685641809,10.665872314358191
132899000,-16.0,-5.229454590476443,10.675545409523556
132999000,-16.0,-5.220390687593573,10.684609312406426
133102000,-16.0,-5.213509248316792,10.691490751683206
133202000,-16.0,-5.207194630773542,10.697805369226456
133303000,-16.0,-5.203972195476498,10.7010278045235
133406000,-16.0,-5.200647023961869,10.70435297603813
133506000,-16.0,-5.1971191041493086,10.70788089585069
133610000,-16.0,-5.1913010913383815,10.713698908661618
133710000,-16.0,-5.185869119628553,10.719130880371447
133811000,-16.0,-5.181941758186141,10.723058241813858
133914000,-16.0,-5.178408015049737,10.726591984950263
134015000,-16.0,-5.178498935795786,10.726501064204212
134118000,-16.0,-5.17859244765086,10.726407552349139
134219000,-16.0,-5.178730211904918,10.726269788095081
134319000,-16.0,-5.179167580196822,10.725832419803178
134421000,-16.0,-5.179546060661106,10.725453939338893
134522000,-16.0,-5.179441570123628,10.72555842987637
134624000,-16.0,-5.179335143352783,10.725664856647215
134724000,-16.0,-5.179360838581838,10.725639161418162
134824000,-16.0,-5.180493689652862,10.724506310347136
134928000,-16.0,-5.181584149592326,10.723415850407674
135029000,-16.0,-5.182002354432112,10.722997645567888
135132000,-16.0,-5.18243210018431,10.722567899815688
135233000,-16.0,-5.1829855941370475,10.722014405862952
135333000,-16.0,-5.184556697291109,10.72044330270889
135435000,-16.0,-5.186098980397138,10.718901019602862
135535000,-16.0,-5.1872126959658065,10.717787304034193
135637000,-16.0,-5.188343722572082,10.716656277427917
135737000,-16.0,-5.1897825390552805,10.71521746094472
135838000,-16.0,-5.1940579504626525,10.710942049537346
135939000,-16.0,-5.1981743624650445,10.706825637534955
136040000,-16.0,-5.199760085249024,10.705239914750974
136142000,-16.0,-5.201371310358624,10.703628689641375
136242000,-16.0,-5.203067186251857,10.701932813748142
136344000,-16.0,-5.206093960135975,10.698906039864024
136445000,-16.0,-5.209025633845194,10.695974366154806
136545000,-16.0,-5.211283292363825,10.693716707636176
136647000,-16.0,-5.2135853142264805,10.691414685773518
136748000,-16.0,-5.215770786197352,10.689229213802648
136850000,-16.0,-5.217202092141439,10.687797907858561
136950000,-16.0,-5.218557738499171,10.686442261500828
137050000,-16.0,-5.219357413898644,10.685642586101356
137152000,-16.0,-5.220214581469841,10.68478541853016
137253000,-16.0,-5.221549160450762,10.683450839549238
137355000,-16.0,-5.222906182472332,10.682093817527667
137455000,-16.0,-5.224355322124084,10.680644677875916
137555000,-16.0,-5.227071279538645,10.677928720461354
137657000,-16.0,-5.229686747365649,10.67531325263435
137758000,-16.0,-5.230631866034266,10.674368133965734
137860000,-16.0,-5.231592188966429,10.67340781103357
137960000,-16.0,-5.232583812997648,10.672416187002352
138060000,-16.0,-5.234108434259772,10.670891565740227
138162000,-16.0,-5.235564405930513,10.669435594069485
138263000,-16.0,-5.235964237734979,10.66903576226502
138364000,-16.0,-5.236370122846416,10.668629877153583
138465000,-16.0,-5.23671248864892,10.66828751135108
138565000,-16.0,-5.2363873998499395,10.66861260015006
138667000,-16.0,-5.236109683499832,10.668890316500168
138767000,-16.0,-5.2364544475605665,10.668545552439433
138869000,-16.0,-5.236804724915466,10.668195275084534
138969000,-16.0,-5.2372675685530545,10.667732431446945
139070000,-16.0,-5.239164577459337,10.665835422540662
139172000,-16.0,-5.240972305865902,10.664027694134097
139272000,-16.0,-5.241365869681077,10.663634130318922
139374000,-16.0,-5.241765785190677,10.663234214809323
139474000,-16.0,-5.242072791415565,10.662927208584433
139575000,-16.0,-5.241381156022236,10.663618843977764
139677000,-16.0,-5.240740321558781,10.664259678441217
139777000,-16.0,-5.2408217246901785,10.66417827530982
139879000,-16.0,-5.240904431333369,10.66409556866663
139980000,-16.02,-5.240969287377487,10.684030712622512
140080000,-16.05,-5.240847535362129,10.714152464637872
140182000,-16.08,-5.240637020177869,10.74436297982213
140283000,-16.1,-5.239506311839585,10.765493688160417
140385000,-16.12,-5.238356922146645,10.786643077853356
140485000,-16.15,-5.237272588079533,10.817727411920464
140585000,-16.17,-5.236689161102271,10.83831083889773
140687000,-16.2,-5.236060699240717,10.868939300759282
140788000,-16.23,-5.235067836608214,10.899932163391787
140889000,-16.25,-5.234059338659519,10.92094066134048
140990000,-16.27,-5.2330250654350525,10.941974934564946
141090000,-16.3,-5.2315137159884975,10.973486284011502
141192000,-16.33,-5.2303260196801045,11.004673980319893
141293000,-16.35,-5.233095905728669,11.021904094271333
141394000,-16.38,-5.2359095758814185,11.04909042411858
141495000,-16.4,-5.23904238176935,11.065957618230648
141597000,-16.42,-5.246443671492246,11.078556328507755
141697000,-16.45,-5.253553511150226,11.101446488849772
141798000,-16.48,-5.2588955332926,11.1261044667074
141900000,-16.5,-5.264323267656585,11.140676732343413
142000000,-16.52,-5.269871898714897,11.155128101285102
142102000,-16.55,-5.277877950331584,11.177122049668416
142203000,-16.58,-5.286052299632458,11.198947700367539
142303000,-16.6,-5.297475031402226,11.207524968597776
142405000,-16.62,-5.309023689592406,11.215976310407594
142505000,-16.65,-5.319774571713993,11.235225428286006
142608000,-16.67,-5.33080426784276,11.244195732157241
142708000,-16.7,-5.342257820943268,11.262742179056731
142809000,-16.73,-5.360764684772425,11.274235315227575
142911000,-16.75,-5.379157755434211,11.275842244565789
143011000,-16.77,-5.393367929890032,11.281632070109966
143114000,-16.8,-5.4078976086354835,11.297102391364517
143214000,-16.83,-5.422988736192091,11.312011263807905
143315000,-16.85,-5.446114998257625,11.308885001742377
143417000,-16.88,-5.468996189354923,11.316003810645077
143517000,-16.9,-5.485184731898876,11.319815268101122
143619000,-16.92,-5.501683278777836,11.323316721222165
143720000,-16.95,-5.51864418908026,11.33635581091974
143820000,-16.98,-5.5429464018338015,11.342053598166197
143922000,-17.0,-5.566930220532255,11.338069779467745
144023000,-17.03,-5.583590943343174,11.351409056656825
144125000,-17.05,-5.600500066607745,11.354499933392255
144225000,-17.08,-5.618211087716192,11.366788912283806
144325000,-17.1,-5.647301290054539,11.357698709945462
144427000,-17.12,-5.676172380142676,11.348827619857325
144528000,-17.15,-5.697084394509718,11.35791560549028
144630000,-17.17,-5.718368584096637,11.356631415903363
144730000,-17.2,-5.740432783399156,11.364567216600841
144831000,-17.23,-5.77472729113892,11.36027270886108
144933000,-17.25,-5.808545632564196,11.346454367435802
145033000,-17.28,-5.831371731031905,11.353628268968096
145135000,-17.3,-5.854562063934724,11.350437936065276
145236000,-17.33,-5.878206683081689,11.356793316918308
145336000,-17.35,-5.91075609644425,11.344243903555752
145438000,-17.38,-5.942790498246412,11.342209501753587
145538000,-17.4,-5.9631104756798425,11.341889524320155
145640000,-17.42,-5.983757394080414,11.341242605919588
145740000,-17.45,-6.005045685249539,11.34995431475046
145841000,-17.48,-6.037203266808748,11.34779673319125
145943000,-17.5,-6.069108128544289,11.33589187145571
146043000,-17.53,-6.091807598939131,11.34319240106087
146145000,-17.55,-6.114851080767049,11.34014891923295
146246000,-17.58,-6.1385777552955165,11.346422244704481
146349000,-17.6,-6.175021367188408,11.329978632811594
146449000,-17.62,-6.209324574960662,11.31567542503934
146549000,-17.65,-6.231790816148478,11.32320918385152
146651000,-17.67,-6.2546109640099194,11.32038903599008
146752000,-17.7,-6.278107489890368,11.326892510109632
146855000,-17.73,-6.312770479002804,11.322229520997196
146955000,-17.75,-6.346679197861622,11.308320802138377
147056000,-17.78,-6.382068921933817,11.302931078066184
147157000,-17.8,-6.416750551429561,11.288249448570438
147258000,-17.83,-6.4393430511926235,11.295656948807375
147360000,-17.85,-6.462338378861306,11.292661621138695
147460000,-17.88,-6.485760795253949,11.29923920474605
147561000,-17.9,-6.517182235926527,11.287817764073472
147663000,-17.92,-6.548102825223773,11.276897174776229
147763000,-17.95,-6.567849684615473,11.287150315384526
147865000,-17.98,-6.587953032989365,11.297046967010635
147965000,-18.0,-6.608698800689301,11.2963011993107
148066000,-18.02,-6.640414539231537,11.284585460768463
148168000,-18.05,-6.671865147150683,11.283134852849317
148268000,-18.08,-6.693598268537914,11.291401731462082
148370000,-18.1,-6.715677103787931,11.28932289621207
148471000,-18.12,-6.738240669118166,11.286759330881834
148571000,-18.15,-6.769960310742822,11.285039689257177
148673000,-18.18,-6.8012899716831035,11.283710028316895
148773000,-18.2,-6.8225121365953125,11.282487863404686
148875000,-18.23,-6.844107212693843,11.290892787306158
148976000,-18.25,-6.8661879679044855,11.288812032095514
149076000,-18.27,-6.897700749386995,11.277299250613003
149178000,-18.3,-6.928756769773591,11.27624323022641
149278000,-18.33,-6.94896762516559,11.286032374834408
149380000,-18.35,-6.969501222591594,11.285498777408407
149481000,-18.38,-6.9904644816823085,11.294535518317689
149581000,-18.4,-7.019836813381776,11.285163186618222
149684000,-18.43,-7.049046576681886,11.285953423318114
149784000,-18.45,-7.068829772103135,11.286170227896863
149886000,-18.48,-7.088914775354934,11.296085224645067
149986000,-18.5,-7.1096581072426,11.2953418927574
150087000,-18.53,-7.140664551777889,11.294335448222112
150189000,-18.55,-7.171191047425051,11.28380895257495
150289000,-18.58,-7.191670572551082,11.293329427448915
150391000,-18.6,-7.212476848130873,11.292523151869128
150491000,-18.62,-7.233751028974482,11.291248971025519
150592000,-18.65,-7.263944571140122,11.291055428859876
150694000,-18.68,-7.293906277084027,11.291093722915972
150794000,-18.7,-7.31436111786648,11.29063888213352
150896000,-18.73,-7.33516890995443,11.29983109004557
150996000,-18.75,-7.356360202798913,11.298639797201085
151098000,-18.78,-7.386400882711287,11.298599117288713
151199000,-18.8,-7.41519010286038,11.289809897139621
151299000,-18.83,-7.435261073421627,11.299738926578371
151401000,-18.85,-7.455632471372163,11.299367528627839
151501000,-18.88,-7.476567457374968,11.30843254262503
151603000,-18.9,-7.507956991001204,11.297043008998793
151704000,-18.93,-7.5388045792723375,11.296195420727662
151804000,-18.95,-7.569376662886156,11.285623337113842
151906000,-18.98,-7.5996183256152365,11.285381674384764
152006000,-19.0,-7.620218217514121,11.284781782485878
152108000,-19.03,-7.641196086386485,11.293803913613514
152209000,-19.05,-7.66257603553772,11.29242396446228
152309000,-19.08,-7.69261994667306,11.292380053326939
152411000,-19.1,-7.722410553651479,11.282589446348522
152511000,-19.12,-7.743205118716808,11.281794881283192
152614000,-19.15,-7.764372379195607,11.290627620804392
152714000,-19.18,-7.7860641613490476,11.298935838650952
152814000,-19.2,-7.817502840481816,11.287497159518184
152916000,-19.23,-7.848638737553123,11.286361262446876
153017000,-19.25,-7.869648932789758,11.285351067210241
153119000,-19.28,-7.891006308283776,11.293993691716224
153219000,-19.3,-7.912955096044096,11.292044903955903
153320000,-19.33,-7.94507407525543,11.289925924744567
153422000,-19.35,-7.976712574562555,11.278287425437446
153522000,-19.38,-7.997489032517363,11.287510967482635
153624000,-19.4,-8.018622342933217,11.286377657066781
153724000,-19.43,-8.040168793554967,11.294831206445032
153825000,-19.45,-8.070266425766725,11.284733574233274
153927000,-19.48,-8.099986342784128,11.285013657215872
154027000,-19.5,-8.12013275751409,11.284867242485909
154129000,-19.53,-8.140584279569795,11.294415720430205
154229000,-19.55,-8.161532060541829,11.293467939458171
154330000,-19.58,-8.191913614033572,11.293086385966426
154431000,-19.6,-8.221966901070932,11.283033098929069
154532000,-19.62,-8.242105439443417,11.282894560556583
154634000,-19.65,-8.26256679659078,11.292433203409217
154734000,-19.68,-8.283359442200025,11.301640557799974
154834000,-19.7,-8.311926679252714,11.293073320747284
154936000,-19.73,-8.340263657371457,11.294736342628543
155037000,-19.75,-8.360274805878122,11.294725194121877
155138000,-19.78,-8.380575208081803,11.304424791918198
155239000,-19.8,-8.401486829874331,11.303513170125669
155339000,-19.83,-8.433208238081349,11.301791761918649
155441000,-19.85,-8.464573401511124,11.290426598488876
155541000,-19.88,-8.485359608818374,11.299640391181624
155644000,-19.9,-8.506591907692126,11.298408092307872
155744000,-19.93,-8.528069317357149,11.30693068264285
155846000,-19.95,-8.557538462488864,11.297461537511134
155947000,-19.98,-8.585747007724217,11.299252992275783
156047000,-20.0,-8.605920580877143,11.299079419122856
156149000,-20.0,-8.62638742980192,11.27861257019808
156249000,-20.0,-8.647666824986853,11.257333175013146
156351000,-20.0,-8.681339491443763,11.223660508556236
156452000,-20.0,-8.714517791927957,11.190482208072043
156552000,-20.0,-8.748620066083012,11.156379933916988
156654000,-20.0,-8.782219058494567,11.122780941505432
156754000,-20.0,-8.803562504403446,11.101437495596553
156856000,-20.0,-8.825255097993223,11.079744902006777
156957000,-20.0,-8.847169042872215,11.057830957127784
157057000,-20.0,-8.875407445736279,11.02959255426372
157159000,-20.0,-8.90332667292632,11.001673327073679
157260000,-20.0,-8.922261733763175,10.982738266236824
157361000,-20.0,-8.941506663222718,10.963493336777281
157462000,-20.0,-8.961095103388466,10.943904896611533
157562000,-20.0,-8.988085465002603,10.916914534997396
157664000,-20.0,-9.014720362352776,10.890279637647224
157764000,-20.0,-9.032129563911802,10.872870436088197
157866000,-20.0,-9.04984025860697,10.85515974139303
157967000,-20.0,-9.067733945631229,10.83726605436877
158067000,-20.0,-9.091114621097942,10.813885378902057
158169000,-20.0,-9.113959622730356,10.791040377269644
158270000,-20.0,-9.126217778166335,10.778782221833664
158372000,-20.0,-9.138684840871878,10.766315159128121
158472000,-20.0,-9.151287581971278,10.753712418028721
158572000,-20.0,-9.167602953601952,10.737397046398048
158674000,-20.0,-9.18369484082882,10.721305159171179
158775000,-20.0,-9.194133627602756,10.710866372397243
158877000,-20.0,-9.204733752261452,10.700266247738547
158977000,-20.0,-9.215492198861122,10.689507801138877
159078000,-20.0,-9.229763191418217,10.675236808581783
159179000,-20.0,-9.243535356233163,10.661464643766836
159280000,-20.0,-9.249301898737391,10.655698101262608
159382000,-20.0,-9.255168621788552,10.649831378211447
159482000,-20.0,-9.261178178520431,10.643821821479568
159583000,-20.0,-9.269907939942547,10.635092060057453
159685000,-20.0,-9.27843091914103,10.62656908085897
159785000,-20.0,-9.282774646798757,10.622225353201243
159887000,-20.0,-9.28718744113937,10.61781255886063
159987000,-20.0,-9.291502754540094,10.613497245459905
160088000,-20.0,-9.295525674570566,10.609474325429433
160190000,-20.0,-9.299304351206983,10.605695648793017
160290000,-20.0,-9.29969996910038,10.605300030899619
160392000,-20.0,-9.300102002307263,10.604897997692737
160492000,-20.0,-9.30038785165251,10.60461214834749
160593000,-20.0,-9.299386678807751,10.605613321192248
160695000,-20.0,-9.298376056401969,10.60662394359803
160795000,-20.0,-9.297491617915517,10.607508382084482
160897000,-20.0,-9.29659391435391,10.60840608564609
160997000,-20.0,-9.295628855117739,10.60937114488226
161100000,-20.0,-9.293721466329131,10.611278533670868
161200000,-20.0,-9.291895971342553,10.613104028657446
161300000,-20.0,-9.290600012692893,10.614399987307106
161402000,-20.0,-9.289282494662887,10.615717505337113
161503000,-20.0,-9.287848268496925,10.617151731503075
161605000,-20.0,-9.284882291061658,10.620117708938341
