TimeUS,terrain_z,sub_z,rf
42105000,-20.0,-9.914442803462281,9.990557196537718
42206000,-20.0,-9.927301579219124,9.977698420780875
42307000,-20.0,-9.933923777908568,9.971076222091432
42409000,-20.0,-9.940648647931326,9.964351352068674
42509000,-20.0,-9.929727687959161,9.975272312040838
42611000,-20.0,-9.918564624834499,9.9864353751655
42711000,-20.0,-9.90967773586765,9.99532226413235
42811000,-20.0,-9.902458007520355,10.002541992479644
42913000,-20.0,-9.89525995978,10.009740040219999
43014000,-20.0,-9.889775561941317,10.015224438058683
43116000,-20.0,-9.884195048183182,10.020804951816817
43216000,-20.0,-9.87974778153194,10.02525221846806
43316000,-20.0,-9.887510506155031,10.017489493844968
43418000,-20.0,-9.89443090383026,10.010569096169739
43519000,-20.0,-9.889986546694274,10.015013453305725
43625000,-20.0,-9.885291478338084,10.019708521661915
43725000,-20.0,-9.880752603594281,10.024247396405718
43826000,-20.0,-9.875508814568832,10.029491185431167
43931000,-20.0,-9.870379206672819,10.03462079332718
44032000,-20.0,-9.867442989335464,10.037557010664536
44138000,-20.0,-9.864325955002043,10.040674044997957
44239000,-20.0,-9.86045372934146,10.04454627065854
44340000,-20.0,-9.853050761071563,10.051949238928437
44444000,-20.0,-9.847362517433147,10.057637482566852
44545000,-20.0,-9.849986427880086,10.055013572119913
44648000,-20.0,-9.852698152192314,10.052301847807685
44749000,-20.0,-9.858754557283387,10.046245442716613
44849000,-20.0,-9.879451014492828,10.025548985507172
44954000,-20.0,-9.898438510315172,10.006561489684827
45055000,-20.0,-9.904386685972385,10.000613314027614
45159000,-20.0,-9.910562706954487,9.994437293045513
45260000,-20.0,-9.913215103548346,9.991784896451653
45369000,-20.0,-9.898127137340383,10.006872862659616
45469000,-20.0,-9.885579434223915,10.019420565776084
45570000,-20.0,-9.877936923060503,10.027063076939497
45671000,-20.0,-9.870174231201643,10.034825768798356
45772000,-20.0,-9.865438264136156,10.039561735863844
45874000,-20.0,-9.873214231216584,10.031785768783415
45974000,-20.0,-9.881619019679084,10.023380980320916
46074000,-20.0,-9.89399544187937,10.011004558120629
46176000,-20.0,-9.905908741653722,9.999091258346278
46277000,-20.0,-9.912045695085027,9.992954304914972
46379000,-20.0,-9.918281105589292,9.986718894410707
46479000,-20.0,-9.92540583620887,9.979594163791129
46579000,-20.0,-9.944024140981375,9.960975859018625
46681000,-20.0,-9.960848858314598,9.944151141685401
46781000,-20.0,-9.953506956043604,9.951493043956395
46885000,-20.0,-9.945902309648542,9.959097690351458
46986000,-20.0,-9.936686738889422,9.968313261110577
47086000,-20.0,-9.910419941696398,9.994580058303601
47188000,-20.0,-9.886823845523805,10.018176154476194
47288000,-20.0,-9.891513379482411,10.013486620517588
47390000,-20.0,-9.896276044053335,10.008723955946664
47491000,-20.0,-9.902161167112471,10.002838832887528
47591000,-20.0,-9.919112196889156,9.985887803110844
47693000,-20.0,-9.934778735325914,9.970221264674086
47793000,-20.0,-9.93336719609685,9.97163280390315
47895000,-20.0,-9.93193281208467,9.97306718791533
47995000,-20.0,-9.93059790782181,9.97440209217819
48096000,-20.0,-9.93018631989972,9.97481368010028
48198000,-20.0,-9.929882537222955,9.975117462777044
48298000,-20.0,-9.93091018959372,9.97408981040628
48400000,-20.0,-9.931954629295092,9.973045370704908
48500000,-20.0,-9.932660777498501,9.972339222501498
48603000,-20.0,-9.929577005394991,9.975422994605008
48703000,-20.0,-9.925675885307264,9.979324114692735
48804000,-20.0,-9.912899377948893,9.992100622051106
48906000,-20.0,-9.89991774185528,10.00508225814472
49006000,-20.0,-9.887558506857438,10.017441493142561
49109000,-20.0,-9.879303806411855,10.025696193588145
49209000,-20.0,-9.870735400590439,10.03426459940956
49310000,-20.0,-9.857396013458162,10.047603986541837
49413000,-20.0,-9.844753017671684,10.060246982328316
49514000,-20.0,-9.841777110322624,10.063222889677375
49616000,-20.0,-9.838753156689846,10.066246843310154
49716000,-20.0,-9.836441363682084,10.068558636317915
49817000,-20.0,-9.839604203407314,10.065395796592686
49918000,-20.0,-9.84307573286376,10.06192426713624
50019000,-20.0,-9.84879733904919,10.05620266095081
50121000,-20.0,-9.854617201936966,10.050382798063033
50222000,-20.0,-9.860864393631742,10.044135606368258
50322000,-20.0,-9.872457098225356,10.032542901774644
50424000,-20.0,-9.883464138574373,10.021535861425626
50524000,-20.0,-9.886188422810154,10.018811577189846
50628000,-20.0,-9.889002022216015,10.015997977783984
50728000,-20.0,-9.89147559338257,10.01352440661743
50829000,-20.0,-9.891711842219566,10.013288157780433
50932000,-20.0,-9.891323621851242,10.013676378148757
51033000,-20.0,-9.886017728548168,10.018982271451831
51136000,-20.0,-9.880543032429559,10.02445696757044
51237000,-20.0,-9.87476651710988,10.03023348289012
51337000,-20.0,-9.865839635970648,10.039160364029351
51440000,-20.0,-9.858983629914231,10.046016370085768
51541000,-20.0,-9.867483738585973,10.037516261414027
51644000,-20.0,-9.876251763796073,10.028748236203926
51745000,-20.0,-9.88717649351831,10.017823506481689
51845000,-20.0,-9.913713642044065,9.991286357955934
51949000,-20.0,-9.938246904621334,9.966753095378666
52049000,-20.0,-9.943459685548447,9.961540314451552
52153000,-20.0,-9.94883458716695,9.95616541283305
52253000,-20.0,-9.951785134612846,9.953214865387153
52353000,-19.97,-9.940102931877776,9.934897068122222
52457000,-19.95,-9.93042748172667,9.92457251827333
52557000,-19.92,-9.93643101326209,9.88856898673791
52661000,-19.9,-9.942629085528903,9.862370914471095
52761000,-19.88,-9.946751281263023,9.838248718736976
52863000,-19.85,-9.938559046863032,9.816440953136969
52963000,-19.82,-9.93132400308075,9.79367599691925
53064000,-19.8,-9.93012327226125,9.77487672773875
53167000,-19.77,-9.928886034572193,9.746113965427806
53268000,-19.75,-9.927879235298398,9.727120764701601
53371000,-19.72,-9.92829826444199,9.696701735558008
53472000,-19.7,-9.92828796359454,9.676712036405458
53572000,-19.67,-9.925170460339663,9.649829539660338
53676000,-19.65,-9.92230512595526,9.632694874044738
53776000,-19.62,-9.921906487256765,9.603093512743236
53878000,-19.6,-9.921501396547656,9.583498603452345
53978000,-19.57,-9.919574042234492,9.555425957765507
54078000,-19.55,-9.905780383591118,9.549219616408882
54182000,-19.52,-9.890571779354092,9.534428220645907
54282000,-19.5,-9.867940343190416,9.537059656809584
54385000,-19.47,-9.844823681841449,9.53017631815855
54485000,-19.45,-9.823053938935889,9.53194606106411
54585000,-19.42,-9.808746463355925,9.516253536644076
54687000,-19.4,-9.796147551972664,9.508852448027334
54787000,-19.38,-9.801355845087107,9.483644154912891
54889000,-19.35,-9.806654851498605,9.448345148501396
54990000,-19.32,-9.810080506030983,9.414919493969016
55090000,-19.3,-9.795072180945027,9.409927819054973
55192000,-19.27,-9.77937154544273,9.395628454557269
55292000,-19.25,-9.758392261899662,9.396607738100338
55394000,-19.22,-9.737054790843818,9.38794520915618
55495000,-19.2,-9.712929332146107,9.392070667853892
55595000,-19.17,-9.652134962399012,9.422865037600989
55697000,-19.15,-9.5923746514632,9.462625348536799
55797000,-19.12,-9.556906505314524,9.468093494685476
55899000,-19.1,-9.520888640588305,9.484111359411695
55999000,-19.07,-9.484476755280337,9.490523244719663
56100000,-19.05,-9.436199899402352,9.518800100597648
56202000,-19.02,-9.388775959922585,9.536224040077414
56302000,-19.0,-9.36104194145537,9.543958058544629
56404000,-18.97,-9.332834259967838,9.54216574003216
56504000,-18.95,-9.303939527418827,9.551060472581172
56606000,-18.93,-9.260520905287269,9.57447909471273
56706000,-18.9,-9.217921219698814,9.587078780301184
56807000,-18.88,-9.176430508554464,9.608569491445534
56909000,-18.85,-9.134301598606726,9.620698401393275
57009000,-18.82,-9.0919170500724,9.6330829499276
57111000,-18.8,-9.037987654396787,9.667012345603213
57211000,-18.77,-8.984584787567883,9.690415212432116
57311000,-18.75,-8.927226864184812,9.727773135815188
57413000,-18.72,-8.871164671950785,9.753835328049213
57514000,-18.7,-8.841890268618414,9.763109731381585
57616000,-18.67,-8.812124805843059,9.762875194156942
57716000,-18.65,-8.780863479728897,9.774136520271101
57816000,-18.62,-8.726648317142143,9.798351682857858
57918000,-18.6,-8.67307408546428,9.83192591453572
58019000,-18.57,-8.63828991194512,9.836710088054879
58121000,-18.55,-8.602830642005213,9.852169357994788
58221000,-18.52,-8.568938271311584,9.856061728688415
58321000,-18.5,-8.54505207954349,9.85994792045651
58423000,-18.47,-8.52099501056946,9.854004989430539
58524000,-18.45,-8.499825728646204,9.855174271353794
58626000,-18.42,-8.478298753980575,9.846701246019427
58726000,-18.4,-8.45569462258635,9.849305377413648
58826000,-18.38,-8.416984230764388,9.86801576923561
58928000,-18.35,-8.37887751035809,9.876122489641912
59029000,-18.32,-8.355282801537022,9.869717198462977
59131000,-18.3,-8.331319659163817,9.873680340836183
59231000,-18.27,-8.308102332916464,9.866897667083535
59331000,-18.25,-8.289001669704573,9.865998330295426
59433000,-18.22,-8.269430168887702,9.855569831112296
59533000,-18.2,-8.248114928695786,9.856885071304212
59635000,-18.17,-8.22647444633455,9.848525553665452
59736000,-18.15,-8.204004133600124,9.850995866399874
59836000,-18.12,-8.167733667484136,9.857266332515865
59938000,-18.1,-8.132811939707397,9.872188060292604
60038000,-18.07,-8.12174133003225,9.85325866996775
60140000,-18.05,-8.110519193043851,9.844480806956149
60240000,-18.02,-8.100190591748651,9.824809408251348
60341000,-18.0,-8.09845235164409,9.80654764835591
60443000,-17.98,-8.097052905496755,9.787947094503245
60543000,-17.95,-8.099997256082936,9.755002743917062
60645000,-17.92,-8.102988795409416,9.722011204590585
60745000,-17.9,-8.10431173042859,9.700688269571408
60846000,-17.88,-8.086432251786187,9.698567748213812
60947000,-17.85,-8.06960722720675,9.68539277279325
61048000,-17.82,-8.069051486282865,9.655948513717135
61150000,-17.8,-8.068487034247546,9.636512965752454
61250000,-17.77,-8.066460115062808,9.60853988493719
61350000,-17.75,-8.046992154820053,9.608007845179946
61452000,-17.73,-8.027595862642533,9.607404137357467
61553000,-17.7,-8.013664326135089,9.59133567386491
61655000,-17.67,-7.99950234848877,9.575497651511231
61755000,-17.65,-7.98477355480311,9.570226445196889
61857000,-17.62,-7.960562457357583,9.564437542642418
61957000,-17.6,-7.937071008754431,9.56792899124557
62058000,-17.57,-7.919362245422168,9.555637754577832
62159000,-17.55,-7.901397440525902,9.553602559474099
62260000,-17.52,-7.882040131349332,9.542959868650668
62362000,-17.5,-7.842166847245352,9.562833152754648
62463000,-17.47,-7.804395259323449,9.570604740676549
62563000,-17.45,-7.780534098096311,9.574465901903688
62665000,-17.42,-7.756263902817343,9.568736097182658
62765000,-17.4,-7.732010889525612,9.572989110474387
62867000,-17.38,-7.707304481520721,9.577695518479278
62968000,-17.35,-7.6809294853610846,9.574070514638917
63068000,-17.32,-7.631807978126155,9.593192021873845
63170000,-17.3,-7.583550916690148,9.621449083309853
63270000,-17.27,-7.553929686197456,9.621070313802543
63372000,-17.25,-7.523750507823887,9.631249492176112
63473000,-17.22,-7.493745610672595,9.631254389327404
63573000,-17.2,-7.459633870804837,9.645366129195162
63675000,-17.17,-7.425022651296509,9.649977348703493
63775000,-17.15,-7.3913093661663005,9.663690633833697
63877000,-17.12,-7.357046294612757,9.667953705387243
63977000,-17.1,-7.32113435090393,9.683865649096072
64078000,-17.07,-7.260031960222679,9.71496803977732
64180000,-17.05,-7.20071158616692,9.754288413833079
64280000,-17.02,-7.173863872575161,9.751136127424838
64382000,-17.0,-7.146572227948897,9.758427772051101
64482000,-16.97,-7.121529674993277,9.753470325006722
64583000,-16.95,-7.117865819466748,9.737134180533252
64684000,-16.92,-7.113578771799121,9.71142122820088
64785000,-16.9,-7.102669425179464,9.702330574820534
64887000,-16.88,-7.091591054377586,9.693408945622412
64987000,-16.85,-7.079426864149758,9.675573135850243
65087000,-16.82,-7.052184947289857,9.672815052710144
65189000,-16.8,-7.024377713595079,9.68062228640492
65289000,-16.77,-6.9946702586578535,9.680329741342145
65391000,-16.75,-6.964503782244736,9.690496217755262
65492000,-16.72,-6.934701879879128,9.69029812012087
65592000,-16.7,-6.903551315927176,9.701448684072822
65694000,-16.67,-6.871664069040909,9.703335930959092
65794000,-16.65,-6.837475795270147,9.71752420472985
65898000,-16.62,-6.802164977256494,9.722835022743507
65998000,-16.6,-6.766937919135661,9.73806208086434
66099000,-16.57,-6.721918493434989,9.75308150656501
66201000,-16.55,-6.678816024782464,9.776183975217537
66301000,-16.52,-6.660276134793642,9.764723865206358
66403000,-16.5,-6.64145434901031,9.76354565098969
66503000,-16.47,-6.621268483941498,9.7537315160585
66603000,-16.45,-6.585383205446751,9.769616794553247
66706000,-16.42,-6.550431225005202,9.7745687749948
66806000,-16.4,-6.532885894744654,9.772114105255344
66908000,-16.38,-6.515080621617525,9.769919378382474
67008000,-16.35,-6.498962310570402,9.756037689429599
67110000,-16.32,-6.499351556056237,9.725648443943763
67210000,-16.3,-6.498959503278666,9.706040496721334
67311000,-16.27,-6.48972412952406,9.68527587047594
67413000,-16.25,-6.480338850900696,9.674661149099302
67513000,-16.22,-6.470342734345144,9.654657265654853
67615000,-16.2,-6.45102740042271,9.653972599577289
67715000,-16.17,-6.430137595553264,9.644862404446737
67816000,-16.15,-6.387326214849386,9.667673785150612
67918000,-16.12,-6.345367800770697,9.679632199229303
68018000,-16.1,-6.3218985070071865,9.683101492992813
68120000,-16.07,-6.298026471965187,9.676973528034813
68220000,-16.05,-6.274464048734651,9.68053595126535
68321000,-16.02,-6.249805224369926,9.675194775630073
68423000,-16.0,-6.224070162240934,9.680929837759065
68523000,-16.0,-6.19158433466232,9.71341566533768
68625000,-16.0,-6.158503353133953,9.746496646866047
68726000,-16.0,-6.125377633695499,9.7796223663045
68826000,-16.0,-6.0855207618879845,9.819479238112015
68928000,-16.0,-6.046734838132797,9.858265161867203
69028000,-16.0,-6.027936986118727,9.877063013881273
69131000,-16.0,-6.008810414437805,9.896189585562194
69231000,-16.0,-5.989421247648009,9.91557875235199
69331000,-16.0,-5.9635872569509925,9.941412743049007
69433000,-16.0,-5.938572698494704,9.966427301505297
69533000,-16.0,-5.9268549143445775,9.978145085655422
69635000,-16.0,-5.914945967527978,9.990054032472022
69736000,-16.0,-5.904279402262282,10.000720597737716
69836000,-16.0,-5.905417705768689,9.999582294231312
69938000,-16.0,-5.904659356676185,10.000340643323815
70038000,-16.0,-5.881697081365201,10.0233029186348
70140000,-16.0,-5.8584036739074,10.0465963260926
70241000,-16.0,-5.834191005772373,10.070808994227626
70341000,-16.0,-5.794960840065814,10.110039159934185
70443000,-16.0,-5.757402221605736,10.147597778394262
70543000,-16.0,-5.74724692599925,10.15775307400075
70646000,-16.0,-5.736826333300107,10.168173666699891
70746000,-16.0,-5.725209699922535,10.179790300077466
70847000,-16.0,-5.698804652617041,10.206195347382957
70949000,-16.0,-5.673047500175559,10.23195249982444
71049000,-16.0,-5.658524659094668,10.246475340905333
71151000,-16.0,-5.643791961036841,10.261208038963158
71251000,-16.0,-5.629155777544822,10.275844222455177
71351000,-16.0,-5.613187453089994,10.291812546910005
71453000,-16.0,-5.599494898168758,10.305505101831242
71554000,-16.0,-5.615170862875934,10.289829137124064
71655000,-16.0,-5.6310909635362405,10.273909036463758
71756000,-16.0,-5.64638017839353,10.25861982160647
71857000,-16.0,-5.657153183427413,10.247846816572586
71958000,-16.0,-5.666921016738776,10.238078983261223
72058000,-16.0,-5.663993806120736,10.241006193879263
72160000,-16.0,-5.6610195538029755,10.243980446197023
72261000,-16.0,-5.659793502523228,10.24520649747677
72363000,-16.0,-5.678502595844558,10.226497404155442
72463000,-16.0,-5.696267265406161,10.20873273459384
72564000,-16.0,-5.707661750039617,10.197338249960383
72666000,-16.0,-5.719236215851016,10.185763784148984
72766000,-16.0,-5.7323999544937845,10.172600045506215
72868000,-16.0,-5.765718946698379,10.139281053301621
72968000,-16.0,-5.79760197510222,10.10739802489778
73069000,-16.0,-5.81960985319472,10.08539014680528
73170000,-16.0,-5.840320584090399,10.0646794159096
73271000,-16.0,-5.842240926702326,10.062759073297673
73373000,-16.0,-5.844193919912561,10.060806080087438
73473000,-16.0,-5.848024344399829,10.056975655600171
73574000,-16.0,-5.874022987881555,10.030977012118443
73676000,-16.0,-5.90018508458193,10.004814915418068
73776000,-16.0,-5.922982686880337,9.982017313119663
73878000,-16.0,-5.946178109292988,9.958821890707013
73978000,-16.0,-5.967240636627623,9.937759363372377
74079000,-16.0,-5.968527764315054,9.936472235684946
74181000,-16.0,-5.9709277368935485,9.93407226310645
74281000,-16.0,-5.985632626158058,9.919367373841942
74383000,-16.0,-6.000596041427075,9.904403958572924
74483000,-16.0,-6.016521043782606,9.888478956217392
74584000,-16.0,-6.046160830533161,9.858839169466838
74685000,-16.0,-6.074235816727359,9.83076418327264
74786000,-16.0,-6.079430598481188,9.82556940151881
74888000,-16.0,-6.084707549102484,9.820292450897515
74988000,-16.0,-6.089180205554566,9.815819794445433
75088000,-16.0,-6.08519001785301,9.81980998214699
75190000,-16.0,-6.08107828436649,9.823921715633508
75291000,-16.0,-6.076362604426411,9.828637395573589
75392000,-16.0,-6.071572962619519,9.83342703738048
75493000,-16.0,-6.067604354123542,9.837395645876457
75593000,-16.0,-6.072475995820939,9.83252400417906
75695000,-16.0,-6.076976383810182,9.828023616189817
75795000,-16.0,-6.076143450833461,9.828856549166538
75897000,-16.0,-6.075295853000005,9.829704146999994
75998000,-16.0,-6.07396036875215,9.83103963124785
76098000,-16.0,-6.066610852449766,9.838389147550233
76200000,-16.0,-6.059229705038814,9.845770294961186
76300000,-16.0,-6.052799281683081,9.852200718316919
76402000,-16.0,-6.046267498325925,9.858732501674075
76502000,-16.0,-6.03986835781532,9.86513164218468
76603000,-16.0,-6.033789339036985,9.871210660963014
76706000,-16.0,-6.026787024697299,9.8782129753027
76806000,-16.0,-6.011824884830426,9.893175115169575
76908000,-16.0,-5.996640319353607,9.908359680646393
77008000,-16.0,-5.981270901436244,9.923729098563756
77110000,-16.0,-5.961144836406768,9.943855163593232
77210000,-16.0,-5.941029130576985,9.963970869423013
77311000,-16.0,-5.917611145076135,9.987388854923864
77413000,-16.0,-5.893807337233905,10.011192662766094
77513000,-16.0,-5.870598891532376,10.034401108467623
77615000,-16.0,-5.849493343265129,10.05550665673487
77715000,-16.0,-5.830514563860129,10.07448543613987
77816000,-16.0,-5.832574766876737,10.072425233123262
77917000,-16.0,-5.833718422662545,10.071281577337453
78018000,-16.0,-5.8238759395210975,10.081124060478901
78120000,-16.0,-5.813892291077974,10.091107708922026
78220000,-16.0,-5.803231571281447,10.101768428718552
78320000,-16.0,-5.7830649074377956,10.121935092562204
78422000,-16.0,-5.764836379312773,10.140163620687227
78523000,-16.0,-5.772840910303535,10.132159089696463
78625000,-16.02,-5.780979954599214,10.144020045400785
78725000,-16.05,-5.790051296923354,10.164948703076645
78826000,-16.08,-5.811220313098229,10.173779686901769
78927000,-16.1,-5.830479461343919,10.17452053865608
79028000,-16.12,-5.823864529970159,10.201135470029842
79130000,-16.15,-5.817134199315056,10.237865800684942
79230000,-16.17,-5.810018627894093,10.26498137210591
79330000,-16.2,-5.797170525377796,10.307829474622203
79432000,-16.23,-5.784505201258158,10.350494798741842
79533000,-16.25,-5.776384601014469,10.37861539898553
79635000,-16.27,-5.768123161151152,10.406876838848847
79735000,-16.3,-5.7607206859859685,10.44427931401403
79835000,-16.33,-5.761419585867783,10.473580414132215
79937000,-16.35,-5.7618972400831625,10.49310275991684
80038000,-16.38,-5.759701519754802,10.525298480245196
80140000,-16.4,-5.7574756846533734,10.547524315346624
80240000,-16.42,-5.757018448496998,10.567981551503003
80340000,-16.45,-5.7760893183308095,10.57891068166919
80442000,-16.48,-5.79658883874784,10.588411161252159
80543000,-16.5,-5.829929183718319,10.57507081628168
80646000,-16.52,-5.864164155626338,10.560835844373662
80746000,-16.55,-5.897541285192268,10.557458714807732
80846000,-16.58,-5.931048059879001,10.553951940120998
80948000,-16.6,-5.963847455216871,10.54115254478313
81049000,-16.62,-5.983662438212133,10.541337561787868
81150000,-16.65,-6.003767001530582,10.551232998469416
81251000,-16.67,-6.024138811549057,10.550861188450943
81351000,-16.7,-6.0504624547988115,10.554537545201187
81453000,-16.73,-6.078090702577027,10.556909297422973
81553000,-16.75,-6.1156547708457385,10.53934522915426
81655000,-16.77,-6.153806969278762,10.521193030721237
81755000,-16.8,-6.191704953205382,10.51329504679462
81856000,-16.83,-6.2335337719665525,10.501466228033445
81958000,-16.85,-6.274983947201755,10.480016052798247
82058000,-16.88,-6.303242929762877,10.481757070237121
82160000,-16.9,-6.331915100279223,10.473084899720776
82260000,-16.92,-6.36091030177217,10.46408969822783
82362000,-16.95,-6.399645824226971,10.455354175773028
82463000,-16.98,-6.436625532404186,10.448374467595814
82563000,-17.0,-6.46026533453063,10.44473466546937
82665000,-17.03,-6.484263555512596,10.450736444487404
82765000,-17.05,-6.510507001478317,10.444492998521683
82867000,-17.08,-6.567755349491673,10.417244650508325
82967000,-17.1,-6.624419741985408,10.380580258014593
83068000,-17.12,-6.684142975853341,10.34085702414666
83170000,-17.15,-6.742590226458037,10.31240977354196
83270000,-17.17,-6.773807024453577,10.301192975546424
83372000,-17.2,-6.805527757247363,10.299472242752636
83472000,-17.23,-6.839039423519419,10.29596057648058
83572000,-17.25,-6.899387960848748,10.25561203915125
83674000,-17.28,-6.959276857702105,10.225723142297896
83775000,-17.3,-7.002083297408186,10.202916702591814
83876000,-17.33,-7.045588521789607,10.18941147821039
83977000,-17.35,-7.088570054408276,10.166429945591725
84077000,-17.38,-7.133627779034856,10.151372220965142
84179000,-17.4,-7.176895521632728,10.12810447836727
84279000,-17.42,-7.189771454107614,10.135228545892387
84382000,-17.45,-7.202901470915392,10.152098529084606
84482000,-17.48,-7.217958140983237,10.167041859016763
84582000,-17.5,-7.257845201853719,10.14715479814628
84684000,-17.53,-7.297121718052565,10.137878281947435
84785000,-17.55,-7.321557586192662,10.13344241380734
84888000,-17.58,-7.34666405200141,10.138335947998588
84988000,-17.6,-7.370418851634217,10.134581148365784
85088000,-17.62,-7.387680344531209,10.137319655468792
85190000,-17.65,-7.403797443580199,10.151202556419799
85291000,-17.67,-7.4058310837032115,10.169168916296789
85393000,-17.7,-7.407896190686394,10.197103809313605
85493000,-17.73,-7.411423363443541,10.223576636556459
85593000,-17.75,-7.430027704512171,10.224972295487829
85695000,-17.78,-7.449705038890112,10.235294961109888
85795000,-17.8,-7.4781457550017265,10.226854244998274
85897000,-17.83,-7.5070418108515495,10.227958189148447
85998000,-17.85,-7.536947061215925,10.218052938784075
86098000,-17.88,-7.584598044296981,10.200401955703017
86200000,-17.9,-7.630476625445114,10.174523374554884
86300000,-17.92,-7.646827203352528,10.178172796647473
86402000,-17.95,-7.663436526273795,10.191563473726204
86502000,-17.98,-7.679613613840154,10.205386386159846
86603000,-18.0,-7.693584621619923,10.211415378380076
86705000,-18.02,-7.707929377020805,10.217070622979195
86806000,-18.05,-7.722622865358557,10.232377134641444
86909000,-18.08,-7.7377546744126295,10.247245325587368
87009000,-18.1,-7.751488329804059,10.253511670195943
87112000,-18.12,-7.756548814595671,10.268451185404329
87213000,-18.15,-7.7614823939370075,10.29351760606299
87313000,-18.18,-7.766519768120176,10.318480231879823
87415000,-18.2,-7.771633494427933,10.333366505572066
87515000,-18.23,-7.776552566945152,10.358447433054847
87617000,-18.25,-7.780581427027426,10.374418572972575
87718000,-18.27,-7.786059508246172,10.388940491753827
87818000,-18.3,-7.805874563398576,10.399125436601425
87920000,-18.33,-7.82589496089147,10.409105039108526
88021000,-18.35,-7.844622266766667,10.410377733233334
88122000,-18.38,-7.8636361053113895,10.421363894688609
88223000,-18.4,-7.882881821326713,10.422118178673285
88323000,-18.43,-7.908486535135412,10.426513464864586
88425000,-18.45,-7.934552828346776,10.420447171653223
88526000,-18.48,-7.960252552474791,10.424747447525208
88627000,-18.5,-7.986357138993044,10.418642861006957
88728000,-18.53,-8.013016740272976,10.421983259727025
88828000,-18.55,-8.050655290539995,10.404344709460005
88930000,-18.58,-8.087015148583788,10.39798485141621
89031000,-18.6,-8.10095959513368,10.40404040486632
89132000,-18.62,-8.115099700511854,10.409900299488147
89233000,-18.65,-8.129344371757748,10.42565562824225
89333000,-18.68,-8.147410392102698,10.437589607897301
89435000,-18.7,-8.165631303480172,10.439368696519827
89535000,-18.73,-8.182264226506472,10.452735773493528
89637000,-18.75,-8.199201897231202,10.455798102768798
89738000,-18.78,-8.216761729843434,10.468238270156567
89838000,-18.8,-8.244824606529876,10.460175393470124
89940000,-18.83,-8.273454403908913,10.461545596091085
90040000,-18.85,-8.30317913941072,10.451820860589281
90142000,-18.88,-8.333337639077035,10.451662360922963
90242000,-18.9,-8.365086735551534,10.439913264448464
90343000,-18.93,-8.420121216899117,10.414878783100882
90445000,-18.95,-8.474671915041576,10.380328084958423
90545000,-18.98,-8.513413837519316,10.371586162480684
90647000,-19.0,-8.552787134951789,10.35221286504821
90747000,-19.03,-8.59138598969634,10.34361401030366
90847000,-19.05,-8.628238224819194,10.326761775180806
90949000,-19.08,-8.665416244339324,10.319583755660673
91050000,-19.1,-8.699039624892631,10.30596037510737
91151000,-19.12,-8.733146521063032,10.291853478936968
91252000,-19.15,-8.767486167431365,10.287513832568633
91352000,-19.18,-8.810791319324355,10.274208680675644
91454000,-19.2,-8.852859168215494,10.252140831784505
91554000,-19.23,-8.871547455202201,10.263452544797799
91656000,-19.25,-8.890526401209362,10.264473598790637
91757000,-19.28,-8.910454199650657,10.274545800349344
91857000,-19.3,-8.945032794639966,10.259967205360034
91959000,-19.33,-8.979096304746463,10.255903695253535
92059000,-19.35,-9.002033897005948,10.252966102994053
92161000,-19.38,-9.025333286788184,10.259666713211814
92262000,-19.4,-9.048988818078474,10.256011181921524
92363000,-19.43,-9.08138453165158,10.25361546834842
92464000,-19.45,-9.112858692830395,10.242141307169604
92564000,-19.48,-9.13939923115297,10.24560076884703
92666000,-19.5,-9.166358306203863,10.238641693796136
92766000,-19.53,-9.19275306325574,10.24224693674426
92868000,-19.55,-9.217919600906479,10.237080399093522
92969000,-19.58,-9.243081200489268,10.24191879951073
93069000,-19.6,-9.272279737906223,10.232720262093778
93171000,-19.62,-9.301842126580429,10.223157873419572
93271000,-19.65,-9.330278794897811,10.224721205102187
93373000,-19.68,-9.359171304687063,10.225828695312936
93474000,-19.7,-9.38914251797231,10.215857482027689
93574000,-19.73,-9.436600041007347,10.198399958992653
93678000,-19.75,-9.48270105900566,10.17229894099434
93778000,-19.78,-9.500507217064683,10.184492782935317
93880000,-19.8,-9.518647929908509,10.186352070091491
93981000,-19.83,-9.535845585112677,10.199154414887321
94081000,-19.85,-9.547543894851565,10.207456105148436
94185000,-19.88,-9.558596858938046,10.226403141061953
94285000,-19.9,-9.561826558647251,10.243173441352747
94387000,-19.93,-9.565110717877287,10.269889282122712
94488000,-19.95,-9.568608555810773,10.286391444189226
94588000,-19.98,-9.574314501913726,10.310685498086274
94690000,-20.0,-9.58071149368722,10.32428850631278
94790000,-20.0,-9.592380697986398,10.312619302013601
94892000,-20.0,-9.604236091751309,10.30076390824869
94992000,-20.0,-9.61796994085999,10.28703005914001
95093000,-20.0,-9.653768206126749,10.25123179387325
95195000,-20.0,-9.688887335804342,10.216112664195657
95295000,-20.0,-9.70971236773269,10.19528763226731
95397000,-20.0,-9.7308671739252,10.1741328260748
95497000,-20.0,-9.751358434376703,10.153641565623296
95598000,-20.0,-9.768017373265259,10.13698262673474
95701000,-20.0,-9.785286753204446,10.119713246795554
95802000,-20.0,-9.802774863295335,10.102225136704664
95905000,-20.0,-9.820857261619945,10.084142738380054
96006000,-20.0,-9.839112975948233,10.065887024051767
96109000,-20.0,-9.864097612820917,10.040902387179083
96210000,-20.0,-9.889364814213314,10.015635185786685
96310000,-20.0,-9.921500664042993,9.983499335957006
96414000,-20.0,-9.954590383828823,9.950409616171177
96514000,-20.0,-9.986659089185185,9.918340910814814
96616000,-20.0,-10.019139014629657,9.885860985370343
96717000,-20.0,-10.047813157738966,9.857186842261033
96817000,-20.0,-10.053359647388739,9.85164035261126
96919000,-20.0,-10.059341415132776,9.845658584867223
97019000,-20.0,-10.068251341306084,9.836748658693915
97121000,-20.0,-10.07731868794092,9.82768131205908
97222000,-20.0,-10.086527106474012,9.818472893525987
97322000,-20.0,-10.098695091066476,9.806304908933523
97424000,-20.0,-10.10975868693525,9.79524131306475
97524000,-20.0,-10.106816716184692,9.798183283815307
97627000,-20.0,-10.103821976853427,9.801178023146573
97727000,-20.0,-10.101069255269586,9.803930744730414
97827000,-20.0,-10.100353833149931,9.804646166850068
97929000,-20.0,-10.099835295261192,9.805164704738807
98030000,-20.0,-10.101613387623997,9.803386612376002
98132000,-20.0,-10.103418386998618,9.801581613001382
98232000,-20.0,-10.103993228604915,9.801006771395084
98332000,-20.0,-10.091061549148911,9.813938450851088
98434000,-20.0,-10.07723394426673,9.82776605573327
98535000,-20.0,-10.05609106608567,9.848908933914329
98637000,-20.0,-10.034571991553392,9.870428008446607
98737000,-20.0,-10.014509342087342,9.890490657912657
98837000,-20.0,-10.006507317320965,9.898492682679034
98939000,-20.0,-9.99919649487105,9.905803505128949
99040000,-20.0,-10.000967829738721,9.904032170261278
99142000,-20.0,-10.00276971747225,9.90223028252775
99242000,-20.0,-10.005099333369774,9.899900666630225
99343000,-20.0,-10.013539342987517,9.891460657012482
99445000,-20.0,-10.020477651127601,9.884522348872398
99545000,-20.0,-10.009553348929389,9.89544665107061
99647000,-20.0,-9.998448285718359,9.90655171428164
99747000,-20.0,-9.986064909877786,9.918935090122213
99847000,-20.0,-9.957442143284327,9.947557856715672
99949000,-20.0,-9.929314046748075,9.975685953251924
100050000,-20.0,-9.912876151082488,9.992123848917512
100152000,-20.0,-9.896186399889238,10.008813600110761
100252000,-20.0,-9.880054352456005,10.024945647543994
100352000,-20.0,-9.867293024161881,10.037706975838118
100454000,-20.0,-9.855633745187559,10.04936625481244
100555000,-20.0,-9.859449134852692,10.045550865147307
100656000,-20.0,-9.863324227556534,10.041675772443465
100757000,-20.0,-9.865437270231439,10.03956272976856
100859000,-20.0,-9.847463496071136,10.057536503928864
100959000,-20.0,-9.83004251878085,10.07495748121915
101059000,-20.0,-9.815699346671156,10.089300653328843
101161000,-20.0,-9.8011364928515,10.1038635071485
101262000,-20.0,-9.786829912458888,10.118170087541111
101364000,-20.0,-9.772496770332507,10.132503229667492
101464000,-20.0,-9.76020993751495,10.144790062485049
101565000,-20.0,-9.768086078766046,10.136913921233953
101667000,-20.0,-9.775763538938351,10.129236461061648
101767000,-20.0,-9.779567718235397,10.125432281764603
101869000,-20.0,-9.783432718168468,10.121567281831531
101969000,-20.0,-9.787104899880424,10.117895100119576
102070000,-20.0,-9.789270822760455,10.115729177239544
102171000,-20.0,-9.790834184539333,10.114165815460666
102272000,-20.0,-9.78515736628755,10.11984263371245
102374000,-20.0,-9.779389738263243,10.125610261736757
102474000,-20.0,-9.773501682370462,10.131498317629537
102574000,-20.0,-9.765180480597127,10.139819519402872
102676000,-20.0,-9.75716759316039,10.14783240683961
102777000,-20.0,-9.754232002423011,10.150767997576988
102879000,-20.0,-9.751242591231206,10.153757408768794
102979000,-20.0,-9.749167567055455,10.155832432944544
103080000,-20.0,-9.756904819966584,10.148095180033415
103182000,-20.0,-9.765911640918173,10.139088359081827
103282000,-20.0,-9.787033744575561,10.117966255424438
103384000,-20.0,-9.808513001622279,10.09648699837772
103484000,-20.0,-9.829771465570895,10.075228534429105
103585000,-20.0,-9.852413238402328,10.052586761597672
103687000,-20.0,-9.874470530674405,10.030529469325595
103787000,-20.0,-9.88606417211869,10.01893582788131
103889000,-20.0,-9.897844419450758,10.007155580549242
103989000,-20.0,-9.910057402569233,9.994942597430766
104090000,-20.0,-9.929144964281132,9.975855035718867
104192000,-20.0,-9.946997796438009,9.95800220356199
104292000,-20.0,-9.946847268281092,9.958152731718908
104394000,-20.0,-9.946694310168159,9.95830568983184
104494000,-20.0,-9.946020254527555,9.958979745472444
104595000,-20.0,-9.939446146484691,9.965553853515308
104697000,-20.0,-9.933736253863671,9.971263746136328
104797000,-20.0,-9.939122642921607,9.965877357078393
104899000,-19.97,-9.944601454490481,9.930398545509517
104999000,-19.95,-9.949697963956824,9.905302036043174
105100000,-19.92,-9.951418762431715,9.873581237568287
105202000,-19.9,-9.952712799087793,9.852287200912205
105302000,-19.88,-9.948790435589007,9.836209564410991
105404000,-19.85,-9.944807687171346,9.810192312828654
105504000,-19.82,-9.94282148116483,9.78217851883517
105605000,-19.8,-9.962764612659132,9.742235387340868
105707000,-19.77,-9.982657759927314,9.692342240072685
105807000,-19.75,-9.998047599091716,9.656952400908283
105909000,-19.72,-10.013682799419003,9.611317200580995
106009000,-19.7,-10.026670140378938,9.57832985962106
106112000,-19.67,-10.011350954428082,9.56364904557192
106213000,-19.65,-9.996177242162702,9.558822757837296
106313000,-19.62,-9.978095762765784,9.546904237234216
106415000,-19.6,-9.959734000295285,9.545265999704716
106515000,-19.57,-9.94077347836023,9.53422652163977
106619000,-19.55,-9.91234640138011,9.54265359861989
106719000,-19.52,-9.886559503184708,9.53844049681529
106819000,-19.5,-9.877052492105935,9.527947507894064
106921000,-19.47,-9.868206284543577,9.506793715456421
107022000,-19.45,-9.867103529973797,9.487896470026202
107124000,-19.42,-9.865983277470706,9.459016722529295
107224000,-19.4,-9.863974300299784,9.441025699700214
107324000,-19.38,-9.853307987494695,9.431692012505303
107426000,-19.35,-9.841731001520559,9.413268998479442
107527000,-19.32,-9.822747558425275,9.402252441574724
107629000,-19.3,-9.803451929941406,9.401548070058594
107729000,-19.27,-9.782944210870472,9.392055789129527
107829000,-19.25,-9.745588054549366,9.409411945450634
107931000,-19.22,-9.70878621585517,9.416213784144828
108032000,-19.2,-9.685748684197897,9.419251315802102
108134000,-19.17,-9.662355849639008,9.412644150360993
108234000,-19.15,-9.63869416555581,9.416305834444188
108334000,-19.12,-9.607616565385912,9.417383434614088
108436000,-19.1,-9.575294556421126,9.429705443578875
108537000,-19.07,-9.53485165316431,9.44014834683569
108639000,-19.05,-9.493735074716074,9.461264925283926
108739000,-19.02,-9.451112385158096,9.473887614841903
108839000,-19.0,-9.383706317915799,9.5212936820842
108941000,-18.97,-9.317706507313453,9.557293492686545
109042000,-18.95,-9.280906518005144,9.574093481994854
109144000,-18.93,-9.243579703381448,9.591420296618551
109244000,-18.9,-9.205211679068324,9.599788320931674
109344000,-18.88,-9.148473931174445,9.636526068825553
109446000,-18.85,-9.092041519788676,9.662958480211325
109546000,-18.82,-9.050156595017421,9.674843404982578
109648000,-18.8,-9.007604606625028,9.697395393374972
109749000,-18.77,-8.965186413754504,9.709813586245495
109849000,-18.75,-8.916661387398504,9.738338612601495
109951000,-18.72,-8.868561348050212,9.756438651949786
110051000,-18.7,-8.835318001787197,9.769681998212802
110153000,-18.67,-8.801610185348817,9.773389814651184
110254000,-18.65,-8.76575489270821,9.789245107291787
110354000,-18.62,-8.699193247285615,9.825806752714385
110456000,-18.6,-8.634958750191702,9.870041249808299
110556000,-18.57,-8.610406389955607,9.864593610044393
110658000,-18.55,-8.585465283043373,9.869534716956627
110758000,-18.52,-8.561473329896891,9.863526670103107
110860000,-18.5,-8.543622731452778,9.861377268547221
110961000,-18.47,-8.525420811696375,9.849579188303624
111061000,-18.45,-8.499797957784331,9.855202042215668
111163000,-18.42,-8.473824922597554,9.851175077402447
111263000,-18.4,-8.447296518994934,9.857703481005064
111365000,-18.38,-8.409079494532461,9.875920505467537
111466000,-18.35,-8.372317485679831,9.88268251432017
111566000,-18.32,-8.345169813505462,9.879830186494537
111668000,-18.3,-8.31804258798962,9.88695741201038
111768000,-18.27,-8.29637185904934,9.878628140950658
111870000,-18.25,-8.27425818799899,9.880741812001009
111971000,-18.22,-8.251384536432766,9.873615463567232
112071000,-18.2,-8.215163578565404,9.889836421434595
112173000,-18.17,-8.179556380664643,9.895443619335358
112273000,-18.15,-8.157382089784567,9.89761791021543
112375000,-18.12,-8.13486592603351,9.89013407396649
112475000,-18.1,-8.113621643071776,9.891378356928225
112576000,-18.07,-8.102906011642947,9.872093988357053
112678000,-18.05,-8.092619244425514,9.862380755574486
112778000,-18.02,-8.089439984581189,9.83556001541881
112880000,-18.0,-8.086204378853083,9.818795621146917
112981000,-17.98,-8.082485374964799,9.8025146250352
113081000,-17.95,-8.072639567089226,9.782360432910773
113183000,-17.92,-8.061565485869089,9.763434514130912
113283000,-17.9,-8.038927082100717,9.766072917899281
113386000,-17.88,-8.015855554939398,9.7691444450606
113486000,-17.85,-7.994863731848647,9.760136268151355
113586000,-17.82,-7.991447785332306,9.733552214667695
113688000,-17.8,-7.988813344201253,9.716186655798747
113788000,-17.77,-7.995409265383152,9.679590734616847
113890000,-17.75,-8.0021154574658,9.6528845425342
113991000,-17.73,-8.006040823975534,9.628959176024466
114091000,-17.7,-7.979893948240995,9.625106051759003
114193000,-17.67,-7.9546913845072655,9.620308615492736
114294000,-17.65,-7.945331378604294,9.609668621395704
114395000,-17.62,-7.935817307230261,9.58918269276974
114496000,-17.6,-7.924960090150884,9.580039909849118
114596000,-17.57,-7.8972143477936525,9.577785652206346
114698000,-17.55,-7.868970258025811,9.586029741974189
114798000,-17.52,-7.840235669683342,9.584764330316657
114900000,-17.5,-7.811015194523714,9.593984805476286
115001000,-17.47,-7.783349859656681,9.591650140343317
115101000,-17.45,-7.7678281305270165,9.587171869472982
115203000,-17.42,-7.753550995066428,9.571449004933573
115303000,-17.4,-7.756445164065465,9.548554835934533
115405000,-17.38,-7.759384355595,9.525615644404999
115506000,-17.35,-7.76064049325832,9.49435950674168
115608000,-17.32,-7.742830506136021,9.48216949386398
115708000,-17.3,-7.724465911599554,9.480534088400445
115808000,-17.27,-7.696667528640141,9.478332471359858
115910000,-17.25,-7.6684185957396735,9.486581404260326
116011000,-17.22,-7.638549765918684,9.486450234081314
116114000,-17.2,-7.583319003113749,9.52168099688625
116214000,-17.17,-7.530216668161682,9.54478333183832
116315000,-17.15,-7.484444967157343,9.570555032842654
116416000,-17.12,-7.439504568531688,9.585495431468312
116517000,-17.1,-7.410407530562255,9.594592469437746
116619000,-17.07,-7.380830882864069,9.59416911713593
116719000,-17.05,-7.351601743125064,9.603398256874936
116819000,-17.02,-7.3209786161487065,9.604021383851292
116921000,-17.0,-7.289709842660418,9.615290157339581
117022000,-16.97,-7.256918086764242,9.618081913235757
117124000,-16.95,-7.223578051637694,9.631421948362304
117224000,-16.92,-7.187754028934453,9.637245971065548
117324000,-16.9,-7.117680588757452,9.687319411242546
117426000,-16.88,-7.049370252608898,9.7356297473911
117527000,-16.85,-7.014731726055093,9.740268273944908
117629000,-16.82,-6.979561074060392,9.745438925939608
117729000,-16.8,-6.946144293481137,9.758855706518863
117829000,-16.77,-6.926570437170094,9.748429562829905
117931000,-16.75,-6.9064771821183095,9.74852281788169
118032000,-16.72,-6.884498745321494,9.740501254678504
118134000,-16.7,-6.862173485165695,9.742826514834304
118234000,-16.67,-6.838714232642229,9.736285767357773
118334000,-16.65,-6.798097622788842,9.756902377211157
118436000,-16.62,-6.7578689992980365,9.767131000701964
118537000,-16.6,-6.7303146079263225,9.774685392073678
118639000,-16.57,-6.702267645301464,9.772732354698535
118739000,-16.55,-6.674312970971011,9.78068702902899
118839000,-16.52,-6.641834944249247,9.783165055750752
118941000,-16.5,-6.609556390336269,9.79544360966373
119042000,-16.47,-6.586022456031826,9.788977543968171
119144000,-16.45,-6.562118994651324,9.792881005348674
119244000,-16.42,-6.537553246261009,9.787446753738992
119344000,-16.4,-6.501307598695661,9.803692401304337
119446000,-16.38,-6.465857201326805,9.819142798673193
119547000,-16.35,-6.446727191738171,9.80827280826183
119649000,-16.32,-6.427299159071396,9.797700840928604
119749000,-16.3,-6.4069264841915,9.7980735158085
119849000,-16.27,-6.37240684491463,9.80259315508537
119951000,-16.25,-6.3388175786014695,9.81618242139853
120052000,-16.22,-6.32262148844201,9.802378511557988
120154000,-16.2,-6.306187184318742,9.798812815681258
120254000,-16.17,-6.291255540273264,9.783744459726737
120354000,-16.15,-6.290522819057633,9.764477180942364
120456000,-16.12,-6.289144100527019,9.735855899472982
120557000,-16.1,-6.280470563510518,9.724529436489483
120659000,-16.07,-6.271650208112443,9.703349791887556
120759000,-16.05,-6.261686525128789,9.69331347487121
120862000,-16.02,-6.236592652448614,9.688407347551385
120962000,-16.0,-6.211930675705565,9.693069324294434
121063000,-16.0,-6.18498527067306,9.72001472932694
121165000,-16.0,-6.157639106529734,9.747360893470265
121265000,-16.0,-6.129470447879474,9.775529552120526
121367000,-16.0,-6.088175049670676,9.816824950329323
121467000,-16.0,-6.048327456480959,9.856672543519041
121568000,-16.0,-6.0158346399608735,9.889165360039126
121669000,-16.0,-5.98582350357387,9.91917649642613
121770000,-16.0,-5.989883299792962,9.915116700207038
121872000,-16.0,-5.994005402446702,9.910994597553296
121972000,-16.0,-5.996957621160241,9.908042378839758
122072000,-16.0,-5.986935488114561,9.918064511885438
122174000,-16.0,-5.975785559311303,9.929214440688696
122275000,-16.0,-5.953281524514892,9.951718475485107
122377000,-16.0,-5.930413439385691,9.974586560614307
122477000,-16.0,-5.907036937773175,9.997963062226825
122577000,-16.0,-5.873520426918727,10.031479573081272
122679000,-16.0,-5.8404499028034715,10.064550097196529
122779000,-16.0,-5.818653042120654,10.086346957879345
122881000,-16.0,-5.796502981135951,10.108497018864048
122982000,-16.0,-5.775936394600184,10.129063605399816
123082000,-16.0,-5.769663629148182,10.135336370851817
123184000,-16.0,-5.763242540088063,10.141757459911936
123284000,-16.0,-5.756231559778161,10.148768440221838
123386000,-16.0,-5.749105840343339,10.15589415965666
123487000,-16.0,-5.741095948950284,10.163904051049714
123587000,-16.0,-5.721590928018982,10.183409071981018
123689000,-16.0,-5.7026624535336445,10.202337546466355
123789000,-16.0,-5.694228278139806,10.210771721860192
123891000,-16.0,-5.685654707809975,10.219345292190026
123992000,-16.0,-5.6776481426564755,10.227351857343523
124092000,-16.0,-5.6745582948527575,10.230441705147241
124194000,-16.0,-5.671105741105525,10.233894258894475
124294000,-16.0,-5.664109572030198,10.2408904279698
124396000,-16.0,-5.657001759836212,10.247998240163787
124497000,-16.0,-5.651336003893276,10.253663996106724
124597000,-16.0,-5.660947073841496,10.244052926158504
124699000,-16.0,-5.6707570856611875,10.234242914338813
124799000,-16.0,-5.681033090376365,10.223966909623634
124901000,-16.0,-5.691473496516629,10.21352650348337
125001000,-16.0,-5.703336805242223,10.201663194757776
125102000,-16.0,-5.733815648428438,10.171184351571561
125204000,-16.0,-5.764116589078616,10.140883410921385
125304000,-16.0,-5.786849057974311,10.118150942025688
125406000,-16.0,-5.8099880521261875,10.095011947873813
125506000,-16.0,-5.832393989519269,10.072606010480731
125609000,-16.0,-5.851683499989881,10.053316500010117
125710000,-16.0,-5.87017696875049,10.034823031249509
125810000,-16.0,-5.885407060349767,10.019592939650233
125912000,-16.0,-5.900863876920042,10.004136123079958
126012000,-16.0,-5.916770207239313,9.988229792760686
126115000,-16.0,-5.940157148518268,9.964842851481732
126216000,-16.0,-5.960019237319146,9.944980762680855
126316000,-16.0,-5.953496738308494,9.951503261691505
126418000,-16.0,-5.948292429254356,9.956707570745644
126518000,-16.0,-5.957209573575009,9.94779042642499
126620000,-16.0,-5.966283862007484,9.938716137992516
126721000,-16.0,-5.976427676886733,9.928572323113267
126821000,-16.0,-5.998620524103416,9.906379475896584
126923000,-16.0,-6.02002054224176,9.88497945775824
127024000,-16.0,-6.029363415481818,9.875636584518181
127126000,-16.0,-6.03885096333101,9.86614903666899
127226000,-16.0,-6.046582187465211,9.858417812534787
127326000,-16.0,-6.037080736779795,9.867919263220204
127428000,-16.0,-6.026738374600912,9.878261625399087
127529000,-16.0,-6.008985719861803,9.896014280138196
127631000,-16.0,-5.990910136928086,9.914089863071913
127731000,-16.0,-5.975834886705814,9.929165113294184
127832000,-16.0,-5.990608408779271,9.91439159122073
127934000,-16.0,-6.004941051068805,9.900058948931195
128034000,-16.0,-6.011393634811579,9.89360636518842
128136000,-16.0,-6.0179409414235625,9.887059058576437
128236000,-16.0,-6.022724478219712,9.882275521780288
128337000,-16.0,-6.009516439117607,9.895483560882392
128439000,-16.0,-5.997221444290757,9.907778555709243
128539000,-16.0,-5.997603455818901,9.907396544181099
128641000,-16.0,-5.997991321988982,9.907008678011017
128741000,-16.0,-5.997859020719346,9.907140979280653
128841000,-16.0,-5.991780760542714,9.913219239457286
128943000,-16.0,-5.986134785359745,9.918865214640254
129044000,-16.0,-5.986827753311689,9.918172246688309
129146000,-16.0,-5.987530948552913,9.917469051447087
129246000,-16.0,-5.98760968331479,9.917390316685209
129346000,-16.0,-5.980433709876696,9.924566290123304
129448000,-16.0,-5.973322468549208,9.931677531450791
129549000,-16.0,-5.968373162624153,9.936626837375846
129650000,-16.0,-5.963341859162227,9.941658140837772
129751000,-16.0,-5.957229843603188,9.947770156396812
129851000,-16.0,-5.937569111322501,9.967430888677498
129953000,-16.0,-5.917594258270748,9.987405741729251
130054000,-16.0,-5.898023817097905,10.006976182902095
130156000,-16.0,-5.878189612586082,10.026810387413917
130256000,-16.0,-5.858829013531508,10.046170986468491
130356000,-16.0,-5.841435339366858,10.063564660633142
130458000,-16.0,-5.825078168094914,10.079921831905084
130559000,-16.0,-5.823794489524519,10.08120551047548
130660000,-16.0,-5.822491293344702,10.082508706655299
130761000,-16.0,-5.820846520968652,10.084153479031349
130863000,-16.0,-5.8149136843328755,10.090086315667124
130963000,-16.0,-5.808671399211134,10.096328600788866
131063000,-16.0,-5.7976566611296905,10.10734333887031
131165000,-16.02,-5.7864843952179275,10.138515604782071
131266000,-16.05,-5.776928587733082,10.178071412266918
131368000,-16.08,-5.784402341997125,10.200597658002872
131468000,-16.1,-5.792124706062956,10.212875293937044
131568000,-16.12,-5.804096304495179,10.220903695504822
131670000,-16.15,-5.815698846919963,10.239301153080035
131771000,-16.17,-5.820772140581464,10.254227859418537
131873000,-16.2,-5.825933526913235,10.279066473086763
131973000,-16.23,-5.830910338988167,10.304089661011833
132073000,-16.25,-5.834812639203062,10.320187360796938
132175000,-16.27,-5.838001182061161,10.336998817938838
132276000,-16.3,-5.832191192167837,10.372808807832163
132378000,-16.33,-5.826278444155461,10.408721555844537
132478000,-16.35,-5.820691433923474,10.434308566076526
132578000,-16.38,-5.817667529188627,10.467332470811371
132680000,-16.4,-5.8153701534326245,10.489629846567373
132781000,-16.42,-5.821831970738923,10.503168029261078
132884000,-16.45,-5.828492178048564,10.526507821951435
132985000,-16.48,-5.838641637009742,10.546358362990258
133085000,-16.5,-5.883095499210449,10.521904500789551
133189000,-16.52,-5.926597445797817,10.498402554202181
133289000,-16.55,-5.95077070229787,10.50422929770213
133393000,-16.58,-5.97573421029467,10.509265789705328
133493000,-16.6,-5.998394867584114,10.506605132415887
133594000,-16.62,-6.011144851634549,10.513855148365451
133697000,-16.65,-6.025044597342601,10.529955402657398
133798000,-16.67,-6.043259900897662,10.531740099102338
133900000,-16.7,-6.061756890200076,10.543243109799922
134000000,-16.73,-6.084421701929198,10.550578298070802
134101000,-16.75,-6.1390187335707305,10.51598126642927
134203000,-16.77,-6.191531067881545,10.483468932118454
134303000,-16.8,-6.218917010540979,10.486082989459021
134405000,-16.83,-6.24673681929255,10.488263180707447
134505000,-16.85,-6.274829865523983,10.480170134476017
134605000,-16.88,-6.310352926580919,10.47464707341908
134707000,-16.9,-6.346141969499368,10.45885803050063
134808000,-16.92,-6.37861688760836,10.446383112391642
134910000,-16.95,-6.411641652622708,10.44335834737729
135010000,-16.98,-6.4441293189526005,10.440870681047398
135113000,-17.0,-6.477782642990526,10.427217357009473
135214000,-17.03,-6.509956406202925,10.425043593797076
135314000,-17.05,-6.53703457012078,10.417965429879219
135416000,-17.08,-6.564602399121526,10.420397600878472
135517000,-17.1,-6.592820319455818,10.412179680544183
135620000,-17.12,-6.632893382481814,10.392106617518186
135720000,-17.15,-6.674071099097874,10.380928900902124
135820000,-17.17,-6.732980944766618,10.342019055233383
135922000,-17.2,-6.789732164889718,10.315267835110282
136023000,-17.23,-6.817056835818661,10.317943164181338
136125000,-17.25,-6.845034432826206,10.309965567173792
136226000,-17.28,-6.875086020318419,10.30991397968158
136326000,-17.3,-6.929791828954352,10.275208171045648
136428000,-17.33,-6.983679237093761,10.251320762906238
136529000,-17.35,-7.0202652544441,10.234734745555901
136631000,-17.38,-7.057500233251233,10.227499766748766
136731000,-17.4,-7.093598759511259,10.211401240488739
136831000,-17.42,-7.124790399496625,10.200209600503376
136933000,-17.45,-7.155386283514296,10.199613716485702
137034000,-17.48,-7.173692581883194,10.211307418116805
137135000,-17.5,-7.192256157301252,10.212743842698748
137236000,-17.53,-7.2121511186816845,10.222848881318315
137336000,-17.55,-7.25042280727066,10.20457719272934
137438000,-17.58,-7.288603560891403,10.196396439108595
137538000,-17.6,-7.317495986440308,10.187504013559693
137640000,-17.62,-7.346850039863554,10.178149960136446
137741000,-17.65,-7.376228265547222,10.178771734452775
137841000,-17.67,-7.411235920419194,10.163764079580806
137944000,-17.7,-7.446232097032405,10.158767902967593
138044000,-17.73,-7.470784906752542,10.164215093247458
138146000,-17.75,-7.495705124366429,10.15929487563357
138247000,-17.78,-7.51992573369569,10.16507426630431
138347000,-17.8,-7.540867534232369,10.164132465767631
138449000,-17.83,-7.561049161450821,10.173950838549176
138549000,-17.85,-7.569702249968426,10.185297750031575
138651000,-17.88,-7.5784967836176165,10.206503216382382
138751000,-17.9,-7.5883016348641075,10.21669836513589
138852000,-17.92,-7.61149190008524,10.21350809991476
138953000,-17.95,-7.635076059473297,10.219923940526702
139054000,-17.98,-7.6588347669862085,10.226165233013791
139156000,-18.0,-7.683068676857994,10.221931323142005
139257000,-18.02,-7.707413709134259,10.217586290865741
139357000,-18.05,-7.73853470598607,10.21646529401393
139459000,-18.08,-7.768399967340675,10.216600032659324
139559000,-18.1,-7.778371578929333,10.226628421070668
139662000,-18.12,-7.788541396460071,10.236458603539928
139762000,-18.15,-7.799064475805912,10.255935524194086
139864000,-18.18,-7.815476863453095,10.269523136546903
139964000,-18.2,-7.830760406579305,10.274239593420694
140065000,-18.23,-7.836745744197861,10.298254255802139
140167000,-18.25,-7.842817585271255,10.312182414728744
140267000,-18.27,-7.848024615785852,10.326975384214146
140370000,-18.3,-7.845111650874086,10.359888349125914
140470000,-18.33,-7.844066404348296,10.3909335956517
140571000,-18.35,-7.86059241037334,10.394407589626661
140672000,-18.38,-7.876914726384565,10.408085273615432
140773000,-18.4,-7.888428445598145,10.416571554401854
140875000,-18.43,-7.900143266936964,10.434856733063034
140975000,-18.45,-7.911514555525048,10.44348544447495
141076000,-18.48,-7.921364527085762,10.463635472914238
141178000,-18.5,-7.932608530635892,10.472391469364107
141278000,-18.53,-7.957371160762617,10.477628839237385
141380000,-18.55,-7.982523480685897,10.472476519314103
141480000,-18.58,-8.009262792873168,10.47573720712683
141581000,-18.6,-8.058030914107611,10.44696908589239
141683000,-18.62,-8.105783074542718,10.419216925457283
141783000,-18.65,-8.13290746254032,10.422092537459678
141885000,-18.68,-8.160525274371826,10.424474725628173
141986000,-18.7,-8.18738792875553,10.417612071244468
142086000,-18.73,-8.211250419443983,10.423749580556017
142188000,-18.75,-8.235381984556675,10.419618015443325
142288000,-18.78,-8.258284249071504,10.426715750928496
142390000,-18.8,-8.281594144364597,10.423405855635403
142491000,-18.83,-8.306775145970372,10.428224854029626
142591000,-18.85,-8.356458129924675,10.398541870075325
142693000,-18.88,-8.405496066430883,10.379503933569115
142793000,-18.9,-8.438397079003591,10.366602920996407
142895000,-18.93,-8.47180094786967,10.363199052130328
142996000,-18.95,-8.506171694168774,10.348828305831224
143096000,-18.98,-8.55757450964534,10.32742549035466
143198000,-19.0,-8.608132670170086,10.296867329829913
143298000,-19.03,-8.63954169305131,10.29545830694869
143400000,-19.05,-8.671439383512933,10.283560616487067
143500000,-19.08,-8.7036972206321,10.281302779367898
143601000,-19.1,-8.745691472352584,10.259308527647416
143703000,-19.12,-8.785998206358208,10.239001793641792
143803000,-19.15,-8.798227728247603,10.256772271752395
143905000,-19.18,-8.810694037544906,10.274305962455093
144006000,-19.2,-8.82270117947782,10.282298820522179
144106000,-19.23,-8.832113782715679,10.302886217284321
144208000,-19.25,-8.842900054149208,10.312099945850791
144309000,-19.28,-8.866173838195479,10.318826161804521
144411000,-19.3,-8.889837088223032,10.315162911776968
144511000,-19.33,-8.914652382129962,10.320347617870036
144614000,-19.35,-8.956273567771408,10.298726432228593
144714000,-19.38,-8.996854218051919,10.28814578194808
144815000,-19.4,-9.03756841627791,10.267431583722088
144917000,-19.43,-9.07897158848711,10.256028411512888
145017000,-19.45,-9.120792575421715,10.234207424578283
145119000,-19.48,-9.174877457688497,10.210122542311503
145220000,-19.5,-9.225168321351283,10.179831678648716
145320000,-19.53,-9.246897442599273,10.188102557400727
145422000,-19.55,-9.266542259399737,10.188457740600263
145522000,-19.58,-9.25999622023035,10.225003779769647
145624000,-19.6,-9.253355512501658,10.251644487498343
145725000,-19.62,-9.248473752995475,10.276526247004526
145825000,-19.65,-9.262231454458576,10.292768545541422
145929000,-19.68,-9.27706002610604,10.307939973893959
146029000,-19.7,-9.297586489541905,10.307413510458094
146132000,-19.73,-9.31874329634021,10.31625670365979
146233000,-19.75,-9.341861736102437,10.313138263897562
146333000,-19.78,-9.385850358357555,10.299149641642446
146437000,-19.8,-9.42750372069418,10.27749627930582
146537000,-19.83,-9.443068685991626,10.291931314008371
146641000,-19.85,-9.459094447918401,10.2959055520816
146741000,-19.88,-9.475391606468332,10.309608393531667
146842000,-19.9,-9.496455077357007,10.30854492264299
146945000,-19.93,-9.51929109838716,10.315708901612838
147046000,-19.95,-9.548711766797478,10.30628823320252
147149000,-19.98,-9.579011720257522,10.305988279742477
147250000,-20.0,-9.60925998310483,10.29574001689517
147350000,-20.0,-9.644670243198494,10.260329756801505
147454000,-20.0,-9.678254762002972,10.226745237997028
147554000,-20.0,-9.692266948009653,10.212733051990346
147657000,-20.0,-9.706685682730962,10.198314317269038
147758000,-20.0,-9.718429731392115,10.186570268607884
147861000,-20.0,-9.71552679632052,10.18947320367948
147961000,-20.0,-9.715392494747475,10.189607505252525
148062000,-20.0,-9.733156060905925,10.171843939094074
148164000,-20.0,-9.75114618617725,10.15385381382275
148264000,-20.0,-9.770924882481243,10.134075117518757
148366000,-20.0,-9.807635830760962,10.097364169239038
148466000,-20.0,-9.843359203464209,10.06164079653579
148567000,-20.0,-9.876218422641273,10.028781577358727
148669000,-20.0,-9.908910152999965,9.996089847000034
148769000,-20.0,-9.933671829156523,9.971328170843476
148871000,-20.0,-9.958909325829945,9.946090674170055
148972000,-20.0,-9.984682852905875,9.920317147094124
149072000,-20.0,-10.021450753746104,9.883549246253896
149174000,-20.0,-10.057015120050766,9.847984879949234
149274000,-20.0,-10.072620430194513,9.832379569805486
149376000,-20.0,-10.088479697809548,9.816520302190451
149477000,-20.0,-10.103159117984685,9.801840882015314
149577000,-20.0,-10.107439166353634,9.797560833646365
149679000,-20.0,-10.11128840741042,9.79371159258958
149780000,-20.0,-10.109768574518748,9.795231425481251
149882000,-20.0,-10.108224335024214,9.796775664975785
149982000,-20.0,-10.107988333005482,9.797011666994518
150082000,-20.0,-10.121480266612236,9.783519733387763
150184000,-20.0,-10.13477271104666,9.77022728895334
150285000,-20.0,-10.143824887309755,9.761175112690244
150387000,-20.0,-10.153040283103689,9.75195971689631
150487000,-20.0,-10.160861345653185,9.744138654346814
150588000,-20.0,-10.155327413668177,9.749672586331823
150690000,-20.0,-10.149576359155667,9.755423640844333
150790000,-20.0,-10.142566620410193,9.762433379589806
150892000,-20.0,-10.135444325541563,9.769555674458436
150992000,-20.0,-10.127012361749484,9.777987638250515
151093000,-20.0,-10.10224040332795,9.802759596672049
151195000,-20.0,-10.077808851554304,9.827191148445696
151295000,-20.0,-10.062309312205246,9.842690687794754
151397000,-20.0,-10.046543783570558,9.858456216429442
151497000,-20.0,-10.030981751506683,9.874018248493316
151598000,-20.0,-10.014748672073871,9.890251327926128
151700000,-20.0,-9.998429682747041,9.906570317252958
151800000,-20.0,-9.984178949360935,9.920821050639065
151902000,-20.0,-9.969684021008163,9.935315978991836
152002000,-20.0,-9.95476115175936,9.95023884824064
152103000,-20.0,-9.93231741155195,9.97268258844805
152205000,-20.0,-9.90977727555634,9.995222724443659
152305000,-20.0,-9.890247890584195,10.014752109415804
152407000,-20.0,-9.870410738794112,10.034589261205888
152507000,-20.0,-9.851009626658108,10.053990373341891
152608000,-20.0,-9.833189616966495,10.071810383033505
152710000,-20.0,-9.816282780239872,10.088717219760127
152810000,-20.0,-9.813927420882967,10.091072579117032
152912000,-20.0,-9.811537164577521,10.093462835422478
153012000,-20.0,-9.809530999746482,10.095469000253518
153114000,-20.0,-9.811659241607858,10.093340758392142
153215000,-20.0,-9.814011163639375,10.090988836360625
153315000,-20.0,-9.819215156617716,10.085784843382283
153417000,-20.0,-9.824504922976223,10.080495077023777
153517000,-20.0,-9.828794060938508,10.076205939061492
153619000,-20.0,-9.822892809205756,10.082107190794243
153720000,-20.0,-9.816367654496942,10.088632345503058
153820000,-20.0,-9.80196010679288,10.10303989320712
153922000,-20.0,-9.788081821175862,10.116918178824138
