timestamp,TimeUS,ThI,ABst,ThO,ThH,DAlt,Alt,BAlt,DSAlt,SAlt,TAlt,DCRt,CRt
1686415635.98040795,7034685,0.0,0.0,0.5,0.5,0.0,-0.09488087147474289,-0.15332429111003876,0.0,0.0,0.0,0,14
1686415636.08036804,7134645,0.0,0.0,0.5,0.5,0.0,-0.08825763314962387,-0.12860411405563354,0.0,0.0,0.0,0,13
1686415636.18032813,7234605,0.0,0.0,0.5,0.5,0.0,-0.08211658149957657,-0.14458067715168,0.0,0.0,0.0,0,12
1686415636.28028798,7334565,0.0,0.0,0.5,0.5,0.0,-0.07722985744476318,-0.10811224579811096,0.0,0.0,0.0,0,12
1686415636.38024807,7434525,0.0,0.0,0.5,0.5,0.0,-0.07221975177526474,-0.0999378189444542,0.0,0.0,0.0,0,11
1686415636.48020816,7534485,0.0,0.0,0.5,0.5,0.0,-0.06596165150403976,-0.10467474162578583,0.0,0.0,0.0,0,11
1686415636.58016801,7634445,0.0,0.0,0.5,0.5,0.0,-0.05970664322376251,-0.08835937827825546,0.0,0.0,0.0,0,11
1686415636.68012810,7734405,0.0,0.0,0.5,0.5,0.0,-0.05326597020030022,-0.10966836661100388,0.0,0.0,0.0,0,10
1686415636.78008795,7834365,0.0,0.0,0.5,0.5,0.0,-0.048215143382549286,-0.07200334966182709,0.0,0.0,0.0,0,10
1686415636.88004804,7934325,0.0,0.0,0.49000000953674316,0.5,0.0,-0.04334850609302521,-0.08875637501478195,0.0,0.0,0.0,0,9
1686415636.98000813,8034285,0.0,0.0,0.3137499988079071,0.5,0.0,-0.04535512253642082,-0.07991549372673035,0.0,0.0,0.0,0,-4
1686415637.07996798,8134245,0.0,0.0,0.25,0.5,0.0,-0.06628240644931793,-0.08406887948513031,0.0,0.0,0.0,0,-25
1686415637.17992806,8234205,0.0,0.0,0.25,0.5,0.0,-0.1058986559510231,-0.12202088534832001,0.0,0.0,0.0,0,-41
1686415637.27988815,8334165,0.0,0.0,0.25,0.5,0.0,-0.15778154134750366,-0.1829320788383484,0.0,0.0,0.0,0,-49
1686415637.37984800,8434125,0.0,0.0,0.25,0.5,0.0,-0.21742619574069977,-0.23561064898967743,0.0,0.0,0.0,0,-54
1686415637.47980809,8534085,0.0,0.0,0.25,0.5,0.0,-0.28128135204315186,-0.2914979159832001,0.0,0.0,0.0,0,-56
1686415637.57976794,8634045,0.0,0.0,0.25,0.5,0.0,-0.3471689820289612,-0.35681599378585815,0.0,0.0,0.0,0,-58
1686415637.67972803,8734005,0.0,0.0,0.25,0.5,0.0,-0.414264053106308,-0.4084462821483612,0.0,0.0,0.0,0,-59
1686415637.77968812,8833965,0.0,0.0,0.25,0.5,0.0,-0.4814090132713318,-0.5034415125846863,0.0,0.0,0.0,0,-60
1686415637.87964797,8933925,0.0,0.0,0.25,0.5,0.0,-0.5500354766845703,-0.5669873952865601,0.0,0.0,0.0,0,-60
1686415637.97960806,9033885,0.0,0.0,0.25,0.5,0.0,-0.6201275587081909,-0.5887492299079895,0.0,0.0,0.0,0,-61
1686415638.08040094,9134678,0.0,0.0,0.25,0.5,0.0,-0.6892766356468201,-0.6797425150871277,0.0,0.0,0.0,0,-62
1686415638.18036103,9234638,0.0,0.0,0.25,0.5,0.0,-0.7575381994247437,-0.7151865363121033,0.0,0.0,0.0,0,-62
1686415638.28032112,9334598,0.0,0.0,0.25,0.5,0.0,-0.8243621587753296,-0.7776889204978943,0.0,0.0,0.0,0,-62
1686415638.38028097,9434558,0.0,0.0,0.25,0.5,0.0,-0.8895836472511292,-0.8571332693099976,0.0,0.0,0.0,0,-63
1686415638.48024106,9534518,0.0,0.0,0.25,0.5,0.0,-0.9544768929481506,-0.9330851435661316,0.0,0.0,0.0,0,-63
1686415638.58020115,9634478,0.0,0.0,0.25,0.5,0.0,-1.020041584968567,-0.976591169834137,0.0,0.0,0.0,0,-63
1686415638.68016100,9734438,0.0,0.0,0.25,0.5,0.0,-1.0846892595291138,-1.019541621208191,0.0,0.0,0.0,0,-63
1686415638.78012109,9834398,0.0,0.0,0.25,0.5,0.0,-1.1482282876968384,-1.1107381582260132,0.0,0.0,0.0,0,-63
1686415638.88008094,9934358,0.0,0.0,0.25,0.5,0.0,-1.2117263078689575,-1.150790810585022,0.0,0.0,0.0,0,-63
1686415638.98004103,10034318,0.0,0.0,0.25,0.5,0.0,-1.2744777202606201,-1.2200597524642944,0.0,0.0,0.0,0,-63
1686415639.08000112,10134278,0.0,0.0,0.25,0.5,0.0,-1.3372178077697754,-1.3109861612319946,0.0,0.0,0.0,0,-63
1686415639.17996097,10234238,0.0,0.0,0.25,0.5,0.0,-1.4005439281463623,-1.3640234470367432,0.0,0.0,0.0,0,-63
1686415639.27992105,10334198,0.0,0.0,0.25,0.5,0.0,-1.4645824432373047,-1.4303045272827148,0.0,0.0,0.0,0,-63
1686415639.37988114,10434158,0.0,0.0,0.25,0.5,0.0,-1.5290987491607666,-1.4700294733047485,0.0,0.0,0.0,0,-63
1686415639.47984099,10534118,0.0,0.0,0.25,0.5,0.0,-1.592798113822937,-1.529686689376831,0.0,0.0,0.0,0,-63
1686415639.57980108,10634078,0.0,0.0,0.25,0.5,0.0,-1.6553733348846436,-1.6025398969650269,0.0,0.0,0.0,0,-63
1686415639.67976117,10734038,0.0,0.0,0.25,0.5,0.0,-1.7175921201705933,-1.6831672191619873,0.0,0.0,0.0,0,-63
1686415639.77972102,10833998,0.0,0.0,0.25,0.5,0.0,-1.780587911605835,-1.7409980297088623,0.0,0.0,0.0,0,-63
1686415639.87968111,10933958,0.0,0.0,0.25,0.5,0.0,-1.844143271446228,-1.7887866497039795,0.0,0.0,0.0,0,-63
1686415639.97964096,11033918,0.0,0.0,0.25,0.5,0.0,-1.9072715044021606,-1.8549354076385498,0.0,0.0,0.0,0,-63
1686415640.07960105,11133878,0.0,0.0,0.25,0.5,0.0,-1.970009446144104,-1.9093422889709473,0.0,0.0,0.0,0,-63
1686415640.18039417,11234671,0.0,0.0,0.25,0.5,0.0,-2.032642126083374,-1.9744364023208618,0.0,0.0,0.0,0,-63
1686415640.28035402,11334631,0.0,0.0,0.25,0.5,0.0,-2.0940873622894287,-2.0235650539398193,0.0,0.0,0.0,0,-63
1686415640.38031411,11434591,0.0,0.0,0.25,0.5,0.0,-2.1543707847595215,-2.1029367446899414,0.0,0.0,0.0,0,-63
1686415640.48027396,11534551,0.0,0.0,0.25,0.5,0.0,-2.214287281036377,-2.1743876934051514,0.0,0.0,0.0,0,-63
1686415640.58023405,11634511,0.0,0.0,0.25,0.5,0.0,-2.27475905418396,-2.2077176570892334,0.0,0.0,0.0,0,-63
1686415640.68019414,11734471,0.0,0.0,0.25,0.5,0.0,-2.3342080116271973,-2.260770797729492,0.0,0.0,0.0,0,-62
1686415640.78015399,11834431,0.0,0.0,0.25,0.5,0.0,-2.392908811569214,-2.3502869606018066,0.0,0.0,0.0,0,-62
1686415640.88011408,11934391,0.0,0.0,0.25,0.5,0.0,-2.4517204761505127,-2.4123637676239014,0.0,0.0,0.0,0,-62
1686415640.98007417,12034351,0.0,0.0,0.25,0.5,0.0,-2.5113229751586914,-2.4693686962127686,0.0,0.0,0.0,0,-62
1686415641.08003402,12134311,0.0,0.0,0.25,0.5,0.0,-2.5713789463043213,-2.511324167251587,0.0,0.0,0.0,0,-62
1686415641.17999411,12234271,0.0,0.0,0.25,0.5,0.0,-2.631439685821533,-2.5799362659454346,0.0,0.0,0.0,0,-61
1686415641.27995396,12334231,0.0,0.0,0.25,0.5,0.0,-2.6905038356781006,-2.655090093612671,0.0,0.0,0.0,0,-61
1686415641.37991405,12434191,0.0,0.0,0.25,0.5,0.0,-2.7499775886535645,-2.695610761642456,0.0,0.0,0.0,0,-61
1686415641.47987413,12534151,0.0,0.0,0.25,0.5,0.0,-2.809281826019287,-2.790663957595825,0.0,0.0,0.0,0,-61
1686415641.57983398,12634111,0.0,0.0,0.25,0.5,0.0,-2.8693971633911133,-2.8425064086914062,0.0,0.0,0.0,0,-61
1686415641.67979407,12734071,0.0,0.0,0.25,0.5,0.0,-2.9304728507995605,-2.8826794624328613,0.0,0.0,0.0,0,-61
1686415641.77975416,12834031,0.0,0.0,0.25,0.5,0.0,-2.991205930709839,-2.9446229934692383,0.0,0.0,0.0,0,-61
1686415641.87971401,12933991,0.0,0.0,0.25,0.5,0.0,-3.051274538040161,-3.004143714904785,0.0,0.0,0.0,0,-61
1686415641.97967410,13033951,0.0,0.0,0.25,0.5,0.0,-3.110851764678955,-3.077166795730591,0.0,0.0,0.0,0,-61
1686415642.07963395,13133911,0.0,0.0,0.25,0.5,0.0,-3.1705543994903564,-3.1548805236816406,0.0,0.0,0.0,0,-60
1686415642.18042707,13234704,0.0,0.0,0.25,0.5,0.0,-3.231804132461548,-3.212120532989502,0.0,0.0,0.0,0,-60
1686415642.28038716,13334664,0.0,0.0,0.25,0.5,0.0,-3.2935023307800293,-3.2623820304870605,0.0,0.0,0.0,0,-61
1686415642.38034701,13434624,0.0,0.0,0.25,0.5,0.0,-3.3553929328918457,-3.330197811126709,0.0,0.0,0.0,0,-61
1686415642.48030710,13534584,0.0,0.0,0.25,0.5,0.0,-3.4174318313598633,-3.4014859199523926,0.0,0.0,0.0,0,-61
1686415642.58026695,13634544,0.0,0.0,0.25,0.5,0.0,-3.480074644088745,-3.4386510848999023,0.0,0.0,0.0,0,-61
1686415642.68022704,13734504,0.0,0.0,0.25,0.5,0.0,-3.5423779487609863,-3.538412094116211,0.0,0.0,0.0,0,-61
1686415642.78018713,13834464,0.0,0.0,0.25,0.5,0.0,-3.6048693656921387,-3.564467430114746,0.0,0.0,0.0,0,-61
1686415642.88014698,13934424,0.0,0.0,0.25,0.5,0.0,-3.6677541732788086,-3.6525301933288574,0.0,0.0,0.0,0,-61
1686415642.98010707,14034384,0.0,0.0,0.25,0.5,0.0,-3.7307891845703125,-3.688683032989502,0.0,0.0,0.0,0,-61
1686415643.08006716,14134344,0.0,0.0,0.25,0.5,0.0,-3.7934486865997314,-3.761281967163086,0.0,0.0,0.0,0,-61
1686415643.18002701,14234304,0.0,0.0,0.25,0.5,0.0,-3.8562135696411133,-3.811755418777466,0.0,0.0,0.0,0,-61
1686415643.27998710,14334264,0.0,0.0,0.25,0.5,0.0,-3.9179484844207764,-3.8822991847991943,0.0,0.0,0.0,0,-61
1686415643.37994695,14434224,0.0,0.0,0.25,0.5,0.0,-3.979423999786377,-3.953486919403076,0.0,0.0,0.0,0,-61
1686415643.47990704,14534184,0.0,0.0,0.25,0.5,0.0,-4.041293144226074,-4.011997699737549,0.0,0.0,0.0,0,-61
1686415643.57986712,14634144,0.0,0.0,0.25,0.5,0.0,-4.103522777557373,-4.0677313804626465,0.0,0.0,0.0,0,-61
1686415643.67982697,14734104,0.0,0.0,0.25,0.5,0.0,-4.165698051452637,-4.125164031982422,0.0,0.0,0.0,0,-61
1686415643.77978706,14834064,0.0,0.0,0.25,0.5,0.0,-4.227521896362305,-4.212723255157471,0.0,0.0,0.0,0,-61
1686415643.87974715,14934024,0.0,0.0,0.25,0.5,0.0,-4.29000997543335,-4.255993366241455,0.0,0.0,0.0,0,-61
1686415643.97970700,15033984,0.0,0.0,0.25,0.5,0.0,-4.352782726287842,-4.31153678894043,0.0,0.0,0.0,0,-61
1686415644.07966709,15133944,0.0,0.0,0.25,0.5,0.0,-4.415081977844238,-4.38051176071167,0.0,0.0,0.0,0,-61
1686415644.17962694,15233904,0.0,0.0,0.25,0.5,0.0,-4.4771857261657715,-4.441866874694824,0.0,0.0,0.0,0,-61
1686415644.28042006,15334697,0.0,0.0,0.25,0.5,0.0,-4.539804935455322,-4.5074920654296875,0.0,0.0,0.0,0,-61
1686415644.38038015,15434657,0.0,0.0,0.25,0.5,0.0,-4.602038860321045,-4.580843448638916,0.0,0.0,0.0,0,-61
1686415644.48034000,15534617,0.0,0.0,0.25,0.5,0.0,-4.66490364074707,-4.616530418395996,0.0,0.0,0.0,0,-62
1686415644.58030009,15634577,0.0,0.0,0.25,0.5,0.0,-4.727420330047607,-4.704196453094482,0.0,0.0,0.0,0,-62
1686415644.68025994,15734537,0.0,0.0,0.25,0.5,0.0,-4.790105819702148,-4.730306148529053,0.0,0.0,0.0,0,-62
1686415644.78022003,15834497,0.0,0.0,0.25,0.5,0.0,-4.852034568786621,-4.8179144859313965,0.0,0.0,0.0,0,-62
1686415644.88018012,15934457,0.0,0.0,0.25,0.5,0.0,-4.913145542144775,-4.883692741394043,0.0,0.0,0.0,0,-62
1686415644.98013997,16034417,0.0,0.0,0.25,0.5,0.0,-4.97526741027832,-4.934663772583008,0.0,0.0,0.0,0,-62
1686415645.08010006,16134377,0.0,0.0,0.25,0.5,0.0,-5.037412166595459,-5.008683204650879,0.0,0.0,0.0,0,-62
1686415645.18006015,16234337,0.0,0.0,0.25,0.5,0.0,-5.09981107711792,-5.082032680511475,0.0,0.0,0.0,0,-62
1686415645.28002000,16334297,0.0,0.0,0.25,0.5,0.0,-5.163764476776123,-5.140462398529053,0.0,0.0,0.0,0,-62
1686415645.37998009,16434257,0.0,0.0,0.25,0.5,0.0,-5.227746486663818,-5.194005012512207,0.0,0.0,0.0,0,-62
1686415645.47993994,16534217,0.0,0.0,0.25,0.5,0.0,-5.291694164276123,-5.264510631561279,0.0,0.0,0.0,0,-62
1686415645.57990003,16634177,0.0,0.0,0.25,0.5,0.0,-5.355832576751709,-5.327066421508789,0.0,0.0,0.0,0,-62
1686415645.67986012,16734137,0.0,0.0,0.25,0.5,0.0,-5.420161247253418,-5.360734939575195,0.0,0.0,0.0,0,-62
1686415645.77981997,16834097,0.0,0.0,0.25,0.5,0.0,-5.483242511749268,-5.444574356079102,0.0,0.0,0.0,0,-62
1686415645.87978005,16934057,0.0,0.0,0.25,0.5,0.0,-5.545985698699951,-5.484745025634766,0.0,0.0,0.0,0,-62
1686415645.97974014,17034017,0.0,0.0,0.25,0.5,0.0,-5.607747554779053,-5.545320510864258,0.0,0.0,0.0,0,-62
1686415646.07969999,17133977,0.0,0.0,0.25,0.5,0.0,-5.668442726135254,-5.626356601715088,0.0,0.0,0.0,0,-62
1686415646.17966008,17233937,0.0,0.0,0.25,0.5,0.0,-5.729278564453125,-5.682629108428955,0.0,0.0,0.0,0,-62
1686415646.27962017,17333897,0.0,0.0,0.25,0.5,0.0,-5.790279865264893,-5.729137420654297,0.0,0.0,0.0,0,-62
1686415646.38041306,17434690,0.0,0.0,0.25,0.5,0.0,-5.851161479949951,-5.810789108276367,0.0,0.0,0.0,0,-62
1686415646.48037314,17534650,0.0,0.0,0.25,0.5,0.0,-5.911807060241699,-5.881688594818115,0.0,0.0,0.0,0,-62
1686415646.58033299,17634610,0.0,0.0,0.25,0.5,0.0,-5.97340726852417,-5.940859317779541,0.0,0.0,0.0,0,-62
1686415646.68029308,17734570,0.0,0.0,0.25,0.5,0.0,-6.035703659057617,-6.006730079650879,0.0,0.0,0.0,0,-62
1686415646.78025317,17834530,0.0,0.0,0.25,0.5,0.0,-6.098616123199463,-6.0366950035095215,0.0,0.0,0.0,0,-62
1686415646.88021302,17934490,0.0,0.0,0.25,0.5,0.0,-6.160499572753906,-6.115165710449219,0.0,0.0,0.0,0,-62
1686415646.98017311,18034450,0.0,0.0,0.25,0.5,0.0,-6.221438407897949,-6.159870624542236,0.0,0.0,0.0,0,-62
1686415647.08013296,18134410,0.0,0.0,0.25,0.5,0.0,-6.282034873962402,-6.226106643676758,0.0,0.0,0.0,0,-62
1686415647.18009305,18234370,0.0,0.0,0.25,0.5,0.0,-6.342041969299316,-6.315577030181885,0.0,0.0,0.0,0,-61
1686415647.28005314,18334330,0.0,0.0,0.25,0.5,0.0,-6.34303617477417,-6.360270977020264,0.0,0.0,0.0,0,-61
1686415647.38001299,18434290,0.0,0.0,0.25,0.5,0.0,-6.40488338470459,-6.402275085449219,0.0,0.0,0.0,0,-61
1686415647.47997308,18534250,0.0,0.0,0.25,0.5,0.0,-6.465317726135254,-6.463070869445801,0.0,0.0,0.0,0,-61
1686415647.57993317,18634210,0.0,0.0,0.25,0.5,0.0,-6.524804592132568,-6.553831100463867,0.0,0.0,0.0,0,-61
1686415647.67989302,18734170,0.0,0.0,0.25,0.5,0.0,-6.5850114822387695,-6.621460437774658,0.0,0.0,0.0,0,-61
1686415647.77985311,18834130,0.0,0.0,0.25,0.5,0.0,-6.646471977233887,-6.6602325439453125,0.0,0.0,0.0,0,-61
1686415647.87981296,18934090,0.0,0.0,0.25,0.5,0.0,-6.707860946655273,-6.732330799102783,0.0,0.0,0.0,0,-61
1686415647.97977304,19034050,0.0,0.0,0.25,0.5,0.0,-6.769366264343262,-6.790132522583008,0.0,0.0,0.0,0,-61
1686415648.07973313,19134010,0.0,0.0,0.25,0.5,0.0,-6.830924987792969,-6.871493816375732,0.0,0.0,0.0,0,-61
1686415648.17969298,19233970,0.0,0.0,0.25,0.5,0.0,-6.893378734588623,-6.935825824737549,0.0,0.0,0.0,0,-61
1686415648.27965307,19333930,0.0,0.0,0.25,0.5,0.0,-6.956844329833984,-6.995645523071289,0.0,0.0,0.0,0,-61
1686415648.37961316,19433890,0.0,0.0,0.25,0.5,0.0,-7.02091646194458,-7.030580520629883,0.0,0.0,0.0,0,-61
1686415648.48040605,19534683,0.0,0.0,0.25,0.5,0.0,-7.084588050842285,-7.101307392120361,0.0,0.0,0.0,0,-61
1686415648.58036613,19634643,0.0,0.0,0.25,0.5,0.0,-7.147062301635742,-7.159756183624268,0.0,0.0,0.0,0,-61
1686415648.68032598,19734603,0.0,0.0,0.25,0.5,0.0,-7.208974361419678,-7.23244571685791,0.0,0.0,0.0,0,-61
1686415648.78028607,19834563,0.0,0.0,0.25,0.5,0.0,-7.270933628082275,-7.301506519317627,0.0,0.0,0.0,0,-61
1686415648.88024616,19934523,0.0,0.0,0.25,0.5,0.0,-7.333415985107422,-7.367893695831299,0.0,0.0,0.0,0,-61
1686415648.98020601,20034483,0.0,0.0,0.25,0.5,0.0,-7.39656925201416,-7.425690174102783,0.0,0.0,0.0,0,-62
1686415649.08016610,20134443,0.0,0.0,0.25,0.5,0.0,-7.459507942199707,-7.474414825439453,0.0,0.0,0.0,0,-62
1686415649.18012595,20234403,0.0,0.0,0.25,0.5,0.0,-7.522477626800537,-7.545851230621338,0.0,0.0,0.0,0,-62
1686415649.28008604,20334363,0.0,0.0,0.25,0.5,0.0,-7.585321426391602,-7.6143670082092285,0.0,0.0,0.0,0,-62
1686415649.38004613,20434323,0.0,0.0,0.25,0.5,0.0,-7.648473262786865,-7.666508197784424,0.0,0.0,0.0,0,-62
1686415649.48000598,20534283,0.0,0.0,0.25,0.5,0.0,-7.71195650100708,-7.7007670402526855,0.0,0.0,0.0,0,-62
1686415649.57996607,20634243,0.0,0.0,0.25,0.5,0.0,-7.7733306884765625,-7.770470142364502,0.0,0.0,0.0,0,-62
1686415649.67992616,20734203,0.0,0.0,0.25,0.5,0.0,-7.833409786224365,-7.835870742797852,0.0,0.0,0.0,0,-62
1686415649.77988601,20834163,0.0,0.0,0.25,0.5,0.0,-7.8925957679748535,-7.9051995277404785,0.0,0.0,0.0,0,-61
1686415649.87984610,20934123,0.0,0.0,0.25,0.5,0.0,-7.951617240905762,-7.982546329498291,0.0,0.0,0.0,0,-61
1686415649.97980595,21034083,0.0,0.0,0.25,0.5,0.0,-8.011406898498535,-8.046141624450684,0.0,0.0,0.0,0,-61
1686415650.07976604,21134043,0.0,0.0,0.25,0.5,0.0,-8.072227478027344,-8.103686332702637,0.0,0.0,0.0,0,-61
1686415650.17972612,21234003,0.0,0.0,0.25,0.5,0.0,-8.133689880371094,-8.13095474243164,0.0,0.0,0.0,0,-61
1686415650.27968597,21333963,0.0,0.0,0.25,0.5,0.0,-8.194173812866211,-8.21909236907959,0.0,0.0,0.0,0,-61
1686415650.37964606,21433923,0.0,0.0,0.25,0.5,0.0,-8.25429630279541,-8.270278930664062,0.0,0.0,0.0,0,-61
1686415650.47960615,21533883,0.0,0.0,0.25,0.5,0.0,-8.31436824798584,-8.342748641967773,0.0,0.0,0.0,0,-61
1686415650.58039904,21634676,0.0,0.0,0.25,0.5,0.0,-8.375177383422852,-8.404095649719238,0.0,0.0,0.0,0,-61
1686415650.68035913,21734636,0.0,0.0,0.25,0.5,0.0,-8.43595027923584,-8.46390438079834,0.0,0.0,0.0,0,-61
1686415650.78031898,21834596,0.0,0.0,0.25,0.5,0.0,-8.497042655944824,-8.5281343460083,0.0,0.0,0.0,0,-61
1686415650.88027906,21934556,0.0,0.0,0.25,0.5,0.0,-8.558449745178223,-8.598116874694824,0.0,0.0,0.0,0,-61
1686415650.98023915,22034516,0.0,0.0,0.25,0.5,0.0,-8.620473861694336,-8.657811164855957,0.0,0.0,0.0,0,-61
1686415651.08019900,22134476,0.0,0.0,0.25,0.5,0.0,-8.683029174804688,-8.694479942321777,0.0,0.0,0.0,0,-61
1686415651.18015909,22234436,0.0,0.0,0.25,0.5,0.0,-8.744403839111328,-8.764777183532715,0.0,0.0,0.0,0,-61
1686415651.28011894,22334396,0.0,0.0,0.25,0.5,0.0,-8.805607795715332,-8.835384368896484,0.0,0.0,0.0,0,-61
1686415651.38007903,22434356,0.0,0.0,0.25,0.5,0.0,-8.8668794631958,-8.891621589660645,0.0,0.0,0.0,0,-61
1686415651.48003912,22534316,0.0,0.0,0.25,0.5,0.0,-8.92819881439209,-8.973196983337402,0.0,0.0,0.0,0,-61
1686415651.57999897,22634276,0.0,0.0,0.25,0.5,0.0,-8.990756034851074,-9.024028778076172,0.0,0.0,0.0,0,-61
1686415651.67995906,22734236,0.0,0.0,0.25,0.5,0.0,-9.053318977355957,-9.072423934936523,0.0,0.0,0.0,0,-61
1686415651.77991915,22834196,0.0,0.0,0.25,0.5,0.0,-9.115474700927734,-9.126114845275879,0.0,0.0,0.0,0,-61
1686415651.87987900,22934156,0.0,0.0,0.25,0.5,0.0,-9.17672348022461,-9.22363567352295,0.0,0.0,0.0,0,-61
1686415651.97983909,23034116,0.0,0.0,0.25,0.5,0.0,-9.238574028015137,-9.274660110473633,0.0,0.0,0.0,0,-61
1686415652.07979918,23134076,0.0,0.0,0.25,0.5,0.0,-9.301207542419434,-9.318565368652344,0.0,0.0,0.0,0,-61
1686415652.17975903,23234036,0.0,0.0,0.25,0.5,0.0,-9.363449096679688,-9.37567138671875,0.0,0.0,0.0,0,-61
1686415652.27971911,23333996,0.0,0.0,0.25,0.5,0.0,-9.424830436706543,-9.432065963745117,0.0,0.0,0.0,0,-61
1686415652.37967896,23433956,0.0,0.0,0.25,0.5,0.0,-9.48530387878418,-9.527832984924316,0.0,0.0,0.0,0,-61
1686415652.47963905,23533916,0.0,0.0,0.25,0.5,0.0,-9.546402931213379,-9.590892791748047,0.0,0.0,0.0,0,-61
1686415652.57959914,23633876,0.0,0.0,0.25,0.5,0.0,-9.608777046203613,-9.64648723602295,0.0,0.0,0.0,0,-61
1686415652.68039203,23734669,0.0,0.0,0.25,0.5,0.0,-9.672364234924316,-9.694099426269531,0.0,0.0,0.0,0,-61
1686415652.78035212,23834629,0.0,0.0,0.25,0.5,0.0,-9.73522663116455,-9.763439178466797,0.0,0.0,0.0,0,-61
1686415652.88031197,23934589,0.0,0.0,0.25,0.5,0.0,-9.797897338867188,-9.823917388916016,0.0,0.0,0.0,0,-61
1686415652.98027205,24034549,0.0,0.0,0.25,0.5,0.0,-9.86050796508789,-9.884748458862305,0.0,0.0,0.0,0,-61
1686415653.08023214,24134509,0.0,0.0,0.25,0.5,0.0,-9.922982215881348,-9.931763648986816,0.0,0.0,0.0,0,-61
1686415653.18019199,24234469,0.0,0.0,0.25,0.5,0.0,-9.984220504760742,-9.999040603637695,0.0,0.0,0.0,0,-61
1686415653.28015208,24334429,0.0,0.0,0.25,0.5,0.0,-10.045360565185547,-10.086785316467285,0.0,0.0,0.0,0,-61
1686415653.38011217,24434389,0.0,0.0,0.25,0.5,0.0,-10.107243537902832,-10.11705493927002,0.0,0.0,0.0,0,-61
1686415653.48007202,24534349,0.0,0.0,0.25,0.5,0.0,-10.16899299621582,-10.191024780273438,0.0,0.0,0.0,0,-61
1686415653.58003211,24634309,0.0,0.0,0.25,0.5,0.0,-10.23045539855957,-10.238537788391113,0.0,0.0,0.0,0,-61
1686415653.67999196,24734269,0.0,0.0,0.25,0.5,0.0,-10.291936874389648,-10.321639060974121,0.0,0.0,0.0,0,-61
1686415653.77995205,24834229,0.0,0.0,0.25,0.5,0.0,-10.353092193603516,-10.370495796203613,0.0,0.0,0.0,0,-61
1686415653.87991214,24934189,0.0,0.0,0.25,0.5,0.0,-10.414349555969238,-10.43547534942627,0.0,0.0,0.0,0,-61
1686415653.97987199,25034149,0.0,0.0,0.25,0.5,0.0,-10.475545883178711,-10.526782989501953,0.0,0.0,0.0,0,-61
1686415654.07983208,25134109,0.0,0.0,0.25,0.5,0.0,-10.537952423095703,-10.581921577453613,0.0,0.0,0.0,0,-61
1686415654.17979217,25234069,0.0,0.0,0.25,0.5,0.0,-10.601577758789062,-10.62209701538086,0.0,0.0,0.0,0,-61
1686415654.27975202,25334029,0.0,0.0,0.5,0.5,0.0,-10.661879539489746,-10.692514419555664,0.0,0.0,0.0,0,-51
1686415654.37971210,25433989,0.0,0.0,0.5,0.5,0.0,-10.707682609558105,-10.736491203308105,0.0,0.0,0.0,0,-38
1686415654.47967196,25533949,0.0,0.0,0.5,0.5,0.0,-10.742999076843262,-10.774507522583008,0.0,0.0,0.0,0,-31
1686415654.57963204,25633909,0.0,0.0,0.5,0.5,0.0,-10.771265983581543,-10.809295654296875,0.0,0.0,0.0,0,-25
1686415654.68042517,25734702,0.0,0.0,0.5,0.5,0.0,-10.794787406921387,-10.79893684387207,0.0,0.0,0.0,0,-21
1686415654.78038502,25834662,0.0,0.0,0.5,0.5,0.0,-10.81292724609375,-10.822277069091797,0.0,0.0,0.0,0,-18
1686415654.88034511,25934622,0.0,0.0,0.5,0.5,0.0,-10.826775550842285,-10.864420890808105,0.0,0.0,0.0,0,-16
1686415654.98030496,26034582,0.0,0.0,0.5,0.5,0.0,-10.838536262512207,-10.873059272766113,0.0,0.0,0.0,0,-14
1686415655.08026505,26134542,0.0,0.0,0.5,0.5,0.0,-10.84865665435791,-10.877131462097168,0.0,0.0,0.0,0,-12
1686415655.18022513,26234502,0.0,0.0,0.5,0.5,0.0,-10.85690975189209,-10.8796968460083,0.0,0.0,0.0,0,-10
1686415655.28018498,26334462,0.0,0.0,0.5,0.5,0.0,-10.863049507141113,-10.88008975982666,0.0,0.0,0.0,0,-9
1686415655.38014507,26434422,0.0,0.0,0.5,0.5,0.0,-10.867115020751953,-10.912590980529785,0.0,0.0,0.0,0,-7
1686415655.48010516,26534382,0.0,0.0,0.5,0.5,0.0,-10.870511054992676,-10.90224838256836,0.0,0.0,0.0,0,-6
1686415655.58006501,26634342,0.0,0.0,0.5,0.5,0.0,-10.872852325439453,-10.932190895080566,0.0,0.0,0.0,0,-5
1686415655.68002510,26734302,0.0,0.0,0.5,0.5,0.0,-10.875224113464355,-10.927786827087402,0.0,0.0,0.0,0,-4
1686415655.77998495,26834262,0.0,0.0,0.5,0.5,0.0,-10.877321243286133,-10.930328369140625,0.0,0.0,0.0,0,-3
1686415655.87994504,26934222,0.0,0.0,0.5,0.5,0.0,-10.878902435302734,-10.925074577331543,0.0,0.0,0.0,0,-2
1686415655.97990513,27034182,0.0,0.0,0.5,0.5,0.0,-10.879539489746094,-10.926701545715332,0.0,0.0,0.0,0,-1
1686415656.07986498,27134142,0.0,0.0,0.5,0.5,0.0,-10.87919807434082,-10.935237884521484,0.0,0.0,0.0,0,0
1686415656.17982507,27234102,0.0,0.0,0.5,0.5,0.0,-10.878331184387207,-10.955615043640137,0.0,0.0,0.0,0,0
1686415656.27978516,27334062,0.0,0.0,0.5,0.5,0.0,-10.87794303894043,-10.965460777282715,0.0,0.0,0.0,0,0
1686415656.37974501,27434022,0.0,0.0,0.5,0.5,0.0,-10.878443717956543,-10.942477226257324,0.0,0.0,0.0,0,1
1686415656.47970510,27533982,0.0,0.0,0.5,0.5,0.0,-10.878432273864746,-10.933562278747559,0.0,0.0,0.0,0,1
1686415656.57966495,27633942,0.0,0.0,0.5,0.5,0.0,-10.877129554748535,-10.95653247833252,0.0,0.0,0.0,0,2
1686415656.67962503,27733902,0.0,0.0,0.5,0.5,0.0,-10.875703811645508,-10.949332237243652,0.0,0.0,0.0,0,2
1686415656.78041816,27834695,0.0,0.0,0.5,0.5,0.0,-10.87404727935791,-10.941911697387695,0.0,0.0,0.0,0,3
1686415656.88037801,27934655,0.0,0.0,0.5,0.5,0.0,-10.871758460998535,-10.934504508972168,0.0,0.0,0.0,0,3
1686415656.98033810,28034615,0.0,0.0,0.5,0.5,0.0,-10.8685302734375,-10.926339149475098,0.0,0.0,0.0,0,4
1686415657.08029795,28134575,0.0,0.0,0.5,0.5,0.0,-10.864180564880371,-10.920945167541504,0.0,0.0,0.0,0,4
1686415657.18025804,28234535,0.0,0.0,0.5,0.5,0.0,-10.85876178741455,-10.921910285949707,0.0,0.0,0.0,0,5
1686415657.28021812,28334495,0.0,0.0,0.5,0.5,0.0,-10.852706909179688,-10.909050941467285,0.0,0.0,0.0,0,6
1686415657.38017797,28434455,0.0,0.0,0.5,0.5,0.0,-10.845878601074219,-10.91271686553955,0.0,0.0,0.0,0,6
1686415657.48013806,28534415,0.0,0.0,0.5,0.5,0.0,-10.838659286499023,-10.90770435333252,0.0,0.0,0.0,0,7
1686415657.58009815,28634375,0.0,0.0,0.5,0.5,0.0,-10.831307411193848,-10.907759666442871,0.0,0.0,0.0,0,7
1686415657.68005800,28734335,0.0,0.0,0.5,0.5,0.0,-10.824113845825195,-10.925005912780762,0.0,0.0,0.0,0,7
1686415657.78001809,28834295,0.0,0.0,0.5,0.5,0.0,-10.818094253540039,-10.89776611328125,0.0,0.0,0.0,0,8
1686415657.87997794,28934255,0.0,0.0,0.5,0.5,0.0,-10.812310218811035,-10.899274826049805,0.0,0.0,0.0,0,8
1686415657.97993803,29034215,0.0,0.0,0.5,0.5,0.0,-10.806568145751953,-10.898357391357422,0.0,0.0,0.0,0,8
1686415658.07989812,29134175,0.0,0.0,0.5,0.5,0.0,-10.801248550415039,-10.86123275756836,0.0,0.0,0.0,0,8
1686415658.17985797,29234135,0.0,0.0,0.5,0.5,0.0,-10.795064926147461,-10.89427661895752,0.0,0.0,0.0,0,8
1686415658.27981806,29334095,0.0,0.0,0.5,0.5,0.0,-10.789124488830566,-10.85434627532959,0.0,0.0,0.0,0,8
1686415658.37977815,29434055,0.0,0.0,0.5,0.5,0.0,-10.782867431640625,-10.865272521972656,0.0,0.0,0.0,0,8
1686415658.47973800,29534015,0.0,0.0,0.5,0.5,0.0,-10.77634334564209,-10.828557014465332,0.0,0.0,0.0,0,8
1686415658.57969809,29633975,0.0,0.0,0.5,0.5,0.0,-10.768831253051758,-10.862180709838867,0.0,0.0,0.0,0,8
1686415658.67965817,29733935,0.0,0.0,0.5,0.5,0.0,-10.761591911315918,-10.838441848754883,0.0,0.0,0.0,0,8
1686415658.77961802,29833895,0.0,0.0,0.5,0.5,0.0,-10.754783630371094,-10.839083671569824,0.0,0.0,0.0,0,8
1686415658.88041115,29934688,0.0,0.0,0.5,0.5,0.0,-10.748162269592285,-10.806559562683105,0.0,0.0,0.0,0,8
1686415658.98037100,30034648,0.0,0.0,0.5,0.5,0.0,-10.740968704223633,-10.809950828552246,0.0,0.0,0.0,0,8
1686415659.08033109,30134608,0.0,0.0,0.5,0.5,0.0,-10.733195304870605,-10.792987823486328,0.0,0.0,0.0,0,8
1686415659.18029118,30234568,0.0,0.0,0.5,0.5,0.0,-10.724897384643555,-10.78151798248291,0.0,0.0,0.0,0,8
1686415659.28025103,30334528,0.0,0.0,0.5,0.5,0.0,-10.715909957885742,-10.766605377197266,0.0,0.0,0.0,0,8
1686415659.38021111,30434488,0.0,0.0,0.5,0.5,0.0,-10.706138610839844,-10.78420639038086,0.0,0.0,0.0,0,9
1686415659.48017097,30534448,0.0,0.0,0.5,0.5,0.0,-10.696809768676758,-10.754255294799805,0.0,0.0,0.0,0,9
1686415659.58013105,30634408,0.0,0.0,0.5,0.5,0.0,-10.687431335449219,-10.760990142822266,0.0,0.0,0.0,0,9
1686415659.68009114,30734368,0.0,0.0,0.5,0.5,0.0,-10.678250312805176,-10.72495174407959,0.0,0.0,0.0,0,9
1686415659.78005099,30834328,0.0,0.0,0.5,0.5,0.0,-10.668492317199707,-10.749323844909668,0.0,0.0,0.0,0,9
1686415659.88001108,30934288,0.0,0.0,0.5,0.5,0.0,-10.658997535705566,-10.731795310974121,0.0,0.0,0.0,0,9
1686415659.97997117,31034248,0.0,0.0,0.5,0.5,0.0,-10.650213241577148,-10.724727630615234,0.0,0.0,0.0,0,9
1686415660.07993102,31134208,0.0,0.0,0.5,0.5,0.0,-10.641775131225586,-10.689400672912598,0.0,0.0,0.0,0,9
1686415660.17989111,31234168,0.0,0.0,0.5,0.5,0.0,-10.632569313049316,-10.707487106323242,0.0,0.0,0.0,0,9
1686415660.27985096,31334128,0.0,0.0,0.5,0.5,0.0,-10.623319625854492,-10.671554565429688,0.0,0.0,0.0,0,9
1686415660.37981105,31434088,0.0,0.0,0.5,0.5,0.0,-10.613571166992188,-10.68768310546875,0.0,0.0,0.0,0,9
1686415660.47977114,31534048,0.0,0.0,0.5,0.5,0.0,-10.603910446166992,-10.663962364196777,0.0,0.0,0.0,0,9
1686415660.57973099,31634008,0.0,0.0,0.5,0.5,0.0,-10.594303131103516,-10.662418365478516,0.0,0.0,0.0,0,9
1686415660.67969108,31733968,0.0,0.0,0.5,0.5,0.0,-10.58474349975586,-10.664097785949707,0.0,0.0,0.0,0,9
1686415660.77965117,31833928,0.0,0.0,0.5,0.5,0.0,-10.575824737548828,-10.657249450683594,0.0,0.0,0.0,0,9
1686415660.87961102,31933888,0.0,0.0,0.5,0.5,0.0,-10.567678451538086,-10.639078140258789,0.0,0.0,0.0,0,9
1686415660.98040414,32034681,0.0,0.0,0.5,0.5,0.0,-10.559666633605957,-10.627493858337402,0.0,0.0,0.0,0,9
1686415661.08036399,32134641,0.0,0.0,0.5,0.5,0.0,-10.551558494567871,-10.616869926452637,0.0,0.0,0.0,0,9
1686415661.18032408,32234601,0.0,0.0,0.5,0.5,0.0,-10.543179512023926,-10.582404136657715,0.0,0.0,0.0,0,9
1686415661.28028417,32334561,0.0,0.0,0.5,0.5,0.0,-10.533552169799805,-10.596298217773438,0.0,0.0,0.0,0,9
1686415661.38024402,32434521,0.0,0.0,0.5,0.5,0.0,-10.523408889770508,-10.58537483215332,0.0,0.0,0.0,0,9
1686415661.48020411,32534481,0.0,0.0,0.5,0.5,0.0,-10.51336669921875,-10.584074020385742,0.0,0.0,0.0,0,9
1686415661.58016396,32634441,0.0,0.0,0.5,0.5,0.0,-10.503789901733398,-10.551077842712402,0.0,0.0,0.0,0,9
1686415661.68012404,32734401,0.0,0.0,0.5,0.5,0.0,-10.493673324584961,-10.535269737243652,0.0,0.0,0.0,0,9
1686415661.78008413,32834361,0.0,0.0,0.5,0.5,0.0,-10.48249340057373,-10.524849891662598,0.0,0.0,0.0,0,9
1686415661.88004398,32934321,0.0,0.0,0.5,0.5,0.0,-10.470447540283203,-10.526556015014648,0.0,0.0,0.0,0,9
1686415661.98000407,33034281,0.0,0.0,0.5,0.5,0.0,-10.458211898803711,-10.529572486877441,0.0,0.0,0.0,0,9
1686415662.07996416,33134241,0.0,0.0,0.5,0.5,0.0,-10.44680404663086,-10.504387855529785,0.0,0.0,0.0,0,10
1686415662.17992401,33234201,0.0,0.0,0.5,0.5,0.0,-10.435657501220703,-10.516676902770996,0.0,0.0,0.0,0,10
1686415662.27988410,33334161,0.0,0.0,0.5,0.5,0.0,-10.425275802612305,-10.503450393676758,0.0,0.0,0.0,0,10
1686415662.37984395,33434121,0.0,0.0,0.5,0.5,0.0,-10.415794372558594,-10.49240779876709,0.0,0.0,0.0,0,10
1686415662.47980404,33534081,0.0,0.0,0.5,0.5,0.0,-10.406820297241211,-10.447322845458984,0.0,0.0,0.0,0,9
1686415662.57976413,33634041,0.0,0.0,0.5,0.5,0.0,-10.39676284790039,-10.470593452453613,0.0,0.0,0.0,0,9
1686415662.67972398,33734001,0.0,0.0,0.5,0.5,0.0,-10.38647174835205,-10.460811614990234,0.0,0.0,0.0,0,10
1686415662.77968407,33833961,0.0,0.0,0.5,0.5,0.0,-10.376736640930176,-10.441415786743164,0.0,0.0,0.0,0,10
1686415662.87964416,33933921,0.0,0.0,0.5,0.5,0.0,-10.36702823638916,-10.418723106384277,0.0,0.0,0.0,0,10
1686415662.97960401,34033881,0.0,0.0,0.5,0.5,0.0,-10.356624603271484,-10.436285018920898,0.0,0.0,0.0,0,10
1686415663.08039713,34134674,0.0,0.0,0.5,0.5,0.0,-10.346497535705566,-10.41291332244873,0.0,0.0,0.0,0,10
1686415663.18035698,34234634,0.0,0.0,0.5,0.5,0.0,-10.336691856384277,-10.395092010498047,0.0,0.0,0.0,0,10
1686415663.28031707,34334594,0.0,0.0,0.5,0.5,0.0,-10.32644271850586,-10.39482593536377,0.0,0.0,0.0,0,10
1686415663.38027716,34434554,0.0,0.0,0.5,0.5,0.0,-10.3162202835083,-10.366067886352539,0.0,0.0,0.0,0,10
1686415663.48023701,34534514,0.0,0.0,0.5,0.5,0.0,-10.305298805236816,-10.376587867736816,0.0,0.0,0.0,0,10
1686415663.58019710,34634474,0.0,0.0,0.5,0.5,0.0,-10.294672966003418,-10.345219612121582,0.0,0.0,0.0,0,10
1686415663.68015695,34734434,0.0,0.0,0.5,0.5,0.0,-10.283447265625,-10.351341247558594,0.0,0.0,0.0,0,10
1686415663.78011703,34834394,0.0,0.0,0.5,0.5,0.0,-10.272344589233398,-10.333869934082031,0.0,0.0,0.0,0,10
1686415663.88007712,34934354,0.0,0.0,0.5,0.5,0.0,-10.261251449584961,-10.319021224975586,0.0,0.0,0.0,0,10
1686415663.98003697,35034314,0.0,0.0,0.5,0.5,0.0,-10.249882698059082,-10.33736801147461,0.0,0.0,0.0,0,10
1686415664.07999706,35134274,0.0,0.0,0.5,0.5,0.0,-10.239523887634277,-10.318461418151855,0.0,0.0,0.0,0,10
1686415664.17995715,35234234,0.0,0.0,0.5,0.5,0.0,-10.230039596557617,-10.310744285583496,0.0,0.0,0.0,0,10
1686415664.27991700,35334194,0.0,0.0,0.5,0.5,0.0,-10.221089363098145,-10.30736255645752,0.0,0.0,0.0,0,10
1686415664.37987709,35434154,0.0,0.0,0.5,0.5,0.0,-10.21281623840332,-10.283217430114746,0.0,0.0,0.0,0,10
1686415664.47983694,35534114,0.0,0.0,0.5,0.5,0.0,-10.204404830932617,-10.25192928314209,0.0,0.0,0.0,0,10
1686415664.57979703,35634074,0.0,0.0,0.5,0.5,0.0,-10.194657325744629,-10.25251579284668,0.0,0.0,0.0,0,10
1686415664.67975712,35734034,0.0,0.0,0.5,0.5,0.0,-10.184125900268555,-10.275001525878906,0.0,0.0,0.0,0,10
1686415664.77971697,35833994,0.0,0.0,0.5,0.5,0.0,-10.174707412719727,-10.237788200378418,0.0,0.0,0.0,0,10
1686415664.87967706,35933954,0.0,0.0,0.5,0.5,0.0,-10.165273666381836,-10.225568771362305,0.0,0.0,0.0,0,10
1686415664.97963715,36033914,0.0,0.0,0.5,0.5,0.0,-10.155329704284668,-10.242327690124512,0.0,0.0,0.0,0,10
1686415665.07959700,36133874,0.0,0.0,0.5,0.5,0.0,-10.146219253540039,-10.22482967376709,0.0,0.0,0.0,0,9
1686415665.18039012,36234667,0.0,0.0,0.5,0.5,0.0,-10.137617111206055,-10.2186861038208,0.0,0.0,0.0,0,9
1686415665.28034997,36334627,0.0,0.0,0.5,0.5,0.0,-10.129541397094727,-10.206058502197266,0.0,0.0,0.0,0,9
1686415665.38031006,36434587,0.0,0.0,0.5,0.5,0.0,-10.121636390686035,-10.174325942993164,0.0,0.0,0.0,0,9
1686415665.48027015,36534547,0.0,0.0,0.5,0.5,0.0,-10.112728118896484,-10.188858032226562,0.0,0.0,0.0,0,9
1686415665.58023000,36634507,0.0,0.0,0.5,0.5,0.0,-10.103882789611816,-10.165752410888672,0.0,0.0,0.0,0,9
1686415665.68019009,36734467,0.0,0.0,0.5,0.5,0.0,-10.094849586486816,-10.175180435180664,0.0,0.0,0.0,0,9
1686415665.78015018,36834427,0.0,0.0,0.5,0.5,0.0,-10.086225509643555,-10.155455589294434,0.0,0.0,0.0,0,9
1686415665.88011003,36934387,0.0,0.0,0.5,0.5,0.0,-10.077715873718262,-10.126286506652832,0.0,0.0,0.0,0,9
1686415665.98007011,37034347,0.0,0.0,0.5,0.5,0.0,-10.068198204040527,-10.13209056854248,0.0,0.0,0.0,0,9
1686415666.08002996,37134307,0.0,0.0,0.5,0.5,0.0,-10.058310508728027,-10.101441383361816,0.0,0.0,0.0,0,9
1686415666.17999005,37234267,0.0,0.0,0.5,0.5,0.0,-10.047539710998535,-10.09507942199707,0.0,0.0,0.0,0,9
1686415666.27995014,37334227,0.0,0.0,0.5,0.5,0.0,-10.035989761352539,-10.095271110534668,0.0,0.0,0.0,0,9
1686415666.37990999,37434187,0.0,0.0,0.5,0.5,0.0,-10.024460792541504,-10.103309631347656,0.0,0.0,0.0,0,9
1686415666.47987008,37534147,0.0,0.0,0.5,0.5,0.0,-10.013980865478516,-10.0676851272583,0.0,0.0,0.0,0,9
1686415666.57983017,37634107,0.0,0.0,0.5,0.5,0.0,-10.00333023071289,-10.083675384521484,0.0,0.0,0.0,0,9
1686415666.67979002,37734067,0.0,0.0,0.5,0.5,0.0,-9.993414878845215,-10.053654670715332,0.0,0.0,0.0,0,9
1686415666.77975011,37834027,0.0,0.0,0.5,0.5,0.0,-9.983451843261719,-10.066237449645996,0.0,0.0,0.0,0,9
1686415666.87970996,37933987,0.0,0.0,0.5,0.5,0.0,-9.974203109741211,-10.056594848632812,0.0,0.0,0.0,0,9
1686415666.97967005,38033947,0.0,0.0,0.5,0.5,0.0,-9.965764999389648,-10.019732475280762,0.0,0.0,0.0,0,9
1686415667.07963014,38133907,0.0,0.0,0.5,0.5,0.0,-9.956602096557617,-10.027244567871094,0.0,0.0,0.0,0,9
1686415667.18042302,38234700,0.0,0.0,0.5,0.5,0.0,-9.947230339050293,-10.011302947998047,0.0,0.0,0.0,0,9
1686415667.28038311,38334660,0.0,0.0,0.5,0.5,0.0,-9.937786102294922,-10.001566886901855,0.0,0.0,0.0,0,9
1686415667.38034296,38434620,0.0,0.0,0.5,0.5,0.0,-9.928194046020508,-10.005607604980469,0.0,0.0,0.0,0,9
1686415667.48030305,38534580,0.0,0.0,0.5,0.5,0.0,-9.919034957885742,-9.992033004760742,0.0,0.0,0.0,0,9
1686415667.58026314,38634540,0.0,0.0,0.5,0.5,0.0,-9.91031265258789,-9.990687370300293,0.0,0.0,0.0,0,9
1686415667.68022299,38734500,0.0,0.0,0.5,0.5,0.0,-9.902108192443848,-9.970416069030762,0.0,0.0,0.0,0,9
1686415667.78018308,38834460,0.0,0.0,0.5,0.5,0.0,-9.894054412841797,-9.934028625488281,0.0,0.0,0.0,0,9
1686415667.88014317,38934420,0.0,0.0,0.5,0.5,0.0,-9.884641647338867,-9.943201065063477,0.0,0.0,0.0,0,9
1686415667.98010302,39034380,0.0,0.0,0.5,0.5,0.0,-9.874457359313965,-9.947884559631348,0.0,0.0,0.0,0,9
1686415668.08006310,39134340,0.0,0.0,0.5,0.5,0.0,-9.864701271057129,-9.928271293640137,0.0,0.0,0.0,0,9
1686415668.18002295,39234300,0.0,0.0,0.5,0.5,0.0,-9.855100631713867,-9.926624298095703,0.0,0.0,0.0,0,9
1686415668.27998304,39334260,0.0,0.0,0.5,0.5,0.0,-9.845845222473145,-9.92038631439209,0.0,0.0,0.0,0,9
1686415668.37994313,39434220,0.0,0.0,0.5,0.5,0.0,-9.837064743041992,-9.894580841064453,0.0,0.0,0.0,0,9
1686415668.47990298,39534180,0.0,0.0,0.5,0.5,0.0,-9.82802677154541,-9.875497817993164,0.0,0.0,0.0,0,9
1686415668.57986307,39634140,0.0,0.0,0.5,0.5,0.0,-9.818058967590332,-9.872185707092285,0.0,0.0,0.0,0,9
1686415668.67982316,39734100,0.0,0.0,0.5,0.5,0.0,-9.807477951049805,-9.866606712341309,0.0,0.0,0.0,0,9
1686415668.77978301,39834060,0.0,0.0,0.5,0.5,0.0,-9.796788215637207,-9.836400032043457,0.0,0.0,0.0,0,9
1686415668.87974310,39934020,0.0,0.0,0.5,0.5,0.0,-9.785340309143066,-9.868919372558594,0.0,0.0,0.0,0,9
1686415668.97970295,40033980,0.0,0.0,0.5,0.5,0.0,-9.774628639221191,-9.84235668182373,0.0,0.0,0.0,0,9
1686415669.07966304,40133940,0.0,0.0,0.5,0.5,0.0,-9.76472282409668,-9.827056884765625,0.0,0.0,0.0,0,9
1686415669.17962313,40233900,0.0,0.0,0.5,0.5,0.0,-9.754823684692383,-9.829258918762207,0.0,0.0,0.0,0,9
1686415669.28041601,40334693,0.0,0.0,0.5,0.5,0.0,-9.745196342468262,-9.790771484375,0.0,0.0,0.0,0,9
1686415669.38037610,40434653,0.0,0.0,0.5,0.5,0.0,-9.735020637512207,-9.793229103088379,0.0,0.0,0.0,0,9
1686415669.48033595,40534613,0.0,0.0,0.5,0.5,0.0,-9.724259376525879,-9.779939651489258,0.0,0.0,0.0,0,9
1686415669.58029604,40634573,0.0,0.0,0.5,0.5,0.0,-9.71323013305664,-9.781131744384766,0.0,0.0,0.0,0,9
1686415669.68025613,40734533,0.0,0.0,0.5,0.5,0.0,-9.702408790588379,-9.752638816833496,0.0,0.0,0.0,0,10
1686415669.78021598,40834493,0.0,0.0,0.5,0.5,0.0,-9.691279411315918,-9.772512435913086,0.0,0.0,0.0,0,10
1686415669.88017607,40934453,0.0,0.0,0.5,0.5,0.0,-9.68082332611084,-9.753578186035156,0.0,0.0,0.0,0,10
1686415669.98013616,41034413,0.0,0.0,0.5,0.5,0.0,-9.671014785766602,-9.732874870300293,0.0,0.0,0.0,0,10
1686415670.08009601,41134373,0.0,0.0,0.5,0.5,0.0,-9.66110897064209,-9.741850852966309,0.0,0.0,0.0,0,10
1686415670.18005610,41234333,0.0,0.0,0.5,0.5,0.0,-9.651637077331543,-9.720928192138672,0.0,0.0,0.0,0,10
1686415670.28001595,41334293,0.0,0.0,0.5,0.5,0.0,-9.642352104187012,-9.727611541748047,0.0,0.0,0.0,0,9
1686415670.37997603,41434253,0.0,0.0,0.5,0.5,0.0,-9.633724212646484,-9.689790725708008,0.0,0.0,0.0,0,9
1686415670.47993612,41534213,0.0,0.0,0.5,0.5,0.0,-9.624714851379395,-9.677736282348633,0.0,0.0,0.0,0,9
1686415670.57989597,41634173,0.0,0.0,0.5,0.5,0.0,-9.614712715148926,-9.690481185913086,0.0,0.0,0.0,0,9
1686415670.67985606,41734133,0.0,0.0,0.5,0.5,0.0,-9.60483455657959,-9.661921501159668,0.0,0.0,0.0,0,9
1686415670.77981615,41834093,0.0,0.0,0.5,0.5,0.0,-9.594806671142578,-9.663126945495605,0.0,0.0,0.0,0,9
1686415670.87977600,41934053,0.0,0.0,0.5,0.5,0.0,-9.584718704223633,-9.654263496398926,0.0,0.0,0.0,0,9
1686415670.97973609,42034013,0.0,0.0,0.5,0.5,0.0,-9.57486629486084,-9.63326358795166,0.0,0.0,0.0,0,9
1686415671.07969594,42133973,0.0,0.0,0.5,0.5,0.0,-9.564776420593262,-9.630463600158691,0.0,10.24,0.0,0,9
1686415671.17965603,42233933,0.0,0.0,0.5,0.5,0.0,-9.554560661315918,-9.633180618286133,0.0,10.25,0.0,0,9
1686415671.27961612,42333893,0.0,0.0,0.5,0.5,0.0,-9.544907569885254,-9.634993553161621,0.0,10.25,0.0,0,9
1686415671.38040900,42434686,0.0,0.0,0.5,0.5,0.0,-9.536494255065918,-9.609108924865723,0.0,10.26,0.0,0,9
1686415671.48036909,42534646,0.0,0.0,0.5,0.5,0.0,-9.528302192687988,-9.581202507019043,0.0,10.27,0.0,0,9
1686415671.58032894,42634606,0.0,0.0,0.5,0.5,0.0,-9.51914119720459,-9.58315658569336,0.0,10.290000000000001,0.0,0,9
1686415671.68028903,42734566,0.0,0.0,0.5,0.5,0.0,-9.509541511535645,-9.578914642333984,0.0,10.290000000000001,0.0,0,9
1686415671.78024912,42834526,0.0,0.0,0.5,0.5,0.0,-9.500031471252441,-9.56148910522461,0.0,10.3,0.0,0,9
1686415671.88020897,42934486,0.0,0.0,0.5,0.5,0.0,-9.490313529968262,-9.547779083251953,0.0,10.31,0.0,0,9
1686415671.98016906,43034446,0.0,0.0,0.5,0.5,0.0,-9.480236053466797,-9.564330101013184,0.0,10.33,0.0,0,9
1686415672.08012915,43134406,0.0,0.0,0.5,0.5,0.0,-9.470922470092773,-9.518270492553711,0.0,10.33,0.0,0,9
1686415672.18008900,43234366,0.0,0.0,0.5,0.5,0.0,-9.460908889770508,-9.50446605682373,0.0,10.34,0.0,0,9
1686415672.28004909,43334326,0.0,0.0,0.5,0.5,0.0,-9.449723243713379,-9.497496604919434,0.0,10.35,0.0,0,9
1686415672.38000917,43434286,0.0,0.0,0.5,0.5,0.0,-9.437731742858887,-9.506104469299316,0.0,10.370000000000001,0.0,0,9
1686415672.47996902,43534246,0.0,0.0,0.5,0.5,0.0,-9.42626667022705,-9.493841171264648,0.0,10.370000000000001,0.0,0,10
1686415672.57992911,43634206,0.0,0.0,0.5,0.5,0.0,-9.415324211120605,-9.468208312988281,0.0,10.370000000000001,0.0,0,10
1686415672.67988896,43734166,0.0,0.0,0.5,0.5,0.0,-9.404052734375,-9.469381332397461,0.0,10.38,0.0,0,10
1686415672.77984905,43834126,0.0,0.0,0.5,0.5,0.0,-9.392878532409668,-9.472834587097168,0.0,10.41,0.0,0,10
1686415672.87980914,43934086,0.0,0.0,0.5,0.5,0.0,-9.382586479187012,-9.450716018676758,0.0,10.41,0.0,0,10
1686415672.97976899,44034046,0.0,0.0,0.5,0.5,0.0,-9.372568130493164,-9.459142684936523,0.0,10.42,0.0,0,10
1686415673.07972908,44134006,0.0,0.0,0.5,0.5,0.0,-9.36342716217041,-9.424223899841309,0.0,10.42,0.0,0,10
1686415673.17968917,44233966,0.0,0.0,0.5,0.5,0.0,-9.35399055480957,-9.415263175964355,0.0,10.42,0.0,0,10
1686415673.27964902,44333926,0.3123069107532501,0.0,0.440859317779541,0.5,-9.344120025634766,-9.344035148620605,-9.424295425415039,10.370000000000001,10.43,0.0,9,9
1686415673.37960911,44433886,0.4137689471244812,0.0,0.3822138011455536,0.5,-9.336713790893555,-9.33654499053955,-9.398197174072266,10.370000000000001,10.450000000000001,0.0,5,5
1686415673.48040199,44534679,0.43854185938835144,0.0,0.4073706269264221,0.5,-9.332405090332031,-9.333487510681152,-9.38562297821045,10.370000000000001,10.46,0.0,3,1
1686415673.58036208,44634639,0.4516580402851105,0.0,0.4273034334182739,0.5,-9.330361366271973,-9.332673072814941,-9.404080390930176,10.370000000000001,10.47,0.0,1,0
1686415673.68032217,44734599,0.4585796594619751,0.0,0.4385692775249481,0.5,-9.329936981201172,-9.33376693725586,-9.397908210754395,10.370000000000001,10.49,0.0,0,-1
1686415673.78028202,44834559,0.4647359251976013,0.0,0.4465293884277344,0.5,-9.33077335357666,-9.335999488830566,-9.413919448852539,10.370000000000001,10.5,0.0,0,-2
1686415673.88024211,44934519,0.47074785828590393,0.0,0.4531503915786743,0.5,-9.332594871520996,-9.339484214782715,-9.400744438171387,10.370000000000001,10.5,0.0,0,-2
1686415673.98020196,45034479,0.47245171666145325,0.0,0.4581759572029114,0.5,-9.335166931152344,-9.343193054199219,-9.414648056030273,10.370000000000001,10.52,0.0,0,-2
1686415674.08016205,45134439,0.4725911617279053,0.0,0.45988404750823975,0.5,-9.338406562805176,-9.347190856933594,-9.404824256896973,10.370000000000001,10.52,0.0,0,-2
1686415674.18012214,45234399,0.4679548740386963,0.0,0.45871293544769287,0.5,-9.342192649841309,-9.350922584533691,-9.433294296264648,10.370000000000001,10.540000000000001,0.0,-1,-2
1686415674.28008199,45334359,0.4661182463169098,0.0,0.4553506672382355,0.5,-9.34650707244873,-9.35544204711914,-9.40622615814209,10.370000000000001,10.540000000000001,0.0,-1,-2
1686415674.38004208,45434319,0.4641120433807373,0.0,0.4548574388027191,0.5,-9.351264953613281,-9.359556198120117,-9.433565139770508,10.370000000000001,10.540000000000001,0.0,-2,-3
1686415674.48000216,45534279,0.46014708280563354,0.0,0.45161113142967224,0.5,-9.35638427734375,-9.36413288116455,-9.436229705810547,10.370000000000001,10.55,0.0,-2,-3
1686415674.57996202,45634239,0.4618876576423645,0.0,0.4507993459701538,0.5,-9.36185073852539,-9.36939525604248,-9.45124340057373,10.370000000000001,10.55,0.0,-3,-3
1686415674.67992210,45734199,0.4679647386074066,0.0,0.45456698536872864,0.5,-9.367596626281738,-9.375720024108887,-9.45040512084961,10.370000000000001,10.540000000000001,0.0,-3,-4
1686415674.77988195,45834159,0.4742580056190491,0.0,0.461431622505188,0.5,-9.373505592346191,-9.382614135742188,-9.423005104064941,10.370000000000001,10.540000000000001,0.0,-3,-4
1686415674.87984204,45934119,0.472290962934494,0.0,0.4661876857280731,0.5,-9.379534721374512,-9.3881254196167,-9.446033477783203,10.370000000000001,10.540000000000001,0.0,-3,-4
1686415674.97980213,46034079,0.46192365884780884,0.0,0.46212300658226013,0.5,-9.38565444946289,-9.3928861618042,-9.432820320129395,10.370000000000001,10.540000000000001,0.0,-3,-4
1686415675.07976198,46134039,0.44973427057266235,0.0,0.4536164402961731,0.5,-9.391846656799316,-9.396598815917969,-9.447528839111328,10.370000000000001,10.540000000000001,0.0,-4,-4
1686415675.17972207,46233999,0.4402894079685211,0.0,0.44333571195602417,0.5,-9.398092269897461,-9.400079727172852,-9.437419891357422,10.370000000000001,10.540000000000001,0.0,-5,-4
1686415675.27968216,46333959,0.4365714192390442,0.0,0.43973883986473083,0.5,-9.404335021972656,-9.403346061706543,-9.479352951049805,10.370000000000001,10.52,0.0,-6,-4
1686415675.37964201,46433919,0.4400835335254669,0.0,0.43868255615234375,0.5,-9.410388946533203,-9.408353805541992,-9.467409133911133,10.370000000000001,10.52,0.0,-6,-5
1686415675.47960210,46533879,0.4507584571838379,0.0,0.4464918375015259,0.5,-9.416274070739746,-9.414531707763672,-9.474054336547852,10.370000000000001,10.51,0.0,-6,-6
1686415675.58039498,46634672,0.45939701795578003,0.0,0.4558000862598419,0.5,-9.421998023986816,-9.421262741088867,-9.492267608642578,10.370000000000001,10.51,0.0,-5,-6
1686415675.68035507,46734632,0.46851006150245667,0.0,0.46533554792404175,0.5,-9.427504539489746,-9.428446769714355,-9.46893310546875,10.370000000000001,10.5,0.0,-5,-6
1686415675.78031516,46834592,0.4640851318836212,0.0,0.46963152289390564,0.5,-9.432807922363281,-9.434678077697754,-9.482544898986816,10.370000000000001,10.5,0.0,-4,-5
1686415675.88027501,46934552,0.4607953727245331,0.0,0.465850293636322,0.5,-9.437957763671875,-9.43946647644043,-9.496769905090332,10.370000000000001,10.5,0.0,-4,-5
1686415675.98023510,47034512,0.45435693860054016,0.0,0.46207159757614136,0.5,-9.443000793457031,-9.443882942199707,-9.502761840820312,10.370000000000001,10.49,0.0,-4,-4
1686415676.08019495,47134472,0.45293208956718445,0.0,0.46010392904281616,0.5,-9.447909355163574,-9.448326110839844,-9.50657844543457,10.370000000000001,10.49,0.0,-4,-4
1686415676.18015504,47234432,0.4530733525753021,0.0,0.4584044814109802,0.5,-9.452668190002441,-9.452885627746582,-9.517850875854492,10.370000000000001,10.49,0.0,-4,-4
1686415676.28011513,47334392,0.4553301930427551,0.0,0.45853695273399353,0.5,-9.457321166992188,-9.457756042480469,-9.504121780395508,10.370000000000001,10.47,0.0,-4,-4
1686415676.38007498,47434352,0.45932984352111816,0.0,0.4643613398075104,0.5,-9.461795806884766,-9.462244033813477,-9.533409118652344,10.370000000000001,10.47,0.0,-4,-4
1686415676.48003507,47534312,0.4604312479496002,0.0,0.4656497538089752,0.5,-9.466034889221191,-9.466882705688477,-9.524941444396973,10.370000000000001,10.46,0.0,-3,-4
1686415676.57999516,47634272,0.4575471878051758,0.0,0.4672847390174866,0.5,-9.470056533813477,-9.471513748168945,-9.531656265258789,10.370000000000001,10.450000000000001,0.0,-3,-3
1686415676.67995501,47734232,0.456267386674881,0.0,0.46727752685546875,0.5,-9.473825454711914,-9.47560977935791,-9.514896392822266,10.370000000000001,10.450000000000001,0.0,-3,-3
1686415676.77991509,47834192,0.45825302600860596,0.0,0.46624794602394104,0.5,-9.477354049682617,-9.478494644165039,-9.525033950805664,10.370000000000001,10.450000000000001,0.0,-3,-3
1686415676.87987494,47934152,0.44922712445259094,0.0,0.46183890104293823,0.5,-9.480703353881836,-9.480436325073242,-9.531814575195312,10.370000000000001,10.450000000000001,0.0,-3,-2
1686415676.97983503,48034112,0.4426867365837097,0.0,0.45436298847198486,0.5,-9.483914375305176,-9.48212718963623,-9.54248046875,10.370000000000001,10.43,0.0,-3,-2
1686415677.07979512,48134072,0.44375261664390564,0.0,0.45290276408195496,0.5,-9.486927032470703,-9.484243392944336,-9.52225112915039,10.370000000000001,10.43,0.0,-3,-2
1686415677.17975497,48234032,0.4452139139175415,0.0,0.4532841444015503,0.5,-9.489697456359863,-9.48608684539795,-9.55038070678711,10.370000000000001,10.42,0.0,-3,-3
1686415677.27971506,48333992,0.44729098677635193,0.0,0.45448532700538635,0.5,-9.492238998413086,-9.48830509185791,-9.531527519226074,10.370000000000001,10.42,0.0,-3,-3
1686415677.37967515,48433952,0.4511008858680725,0.0,0.4571225643157959,0.5,-9.494555473327637,-9.490522384643555,-9.52634048461914,10.370000000000001,10.41,0.0,-3,-3
1686415677.47963500,48533912,0.45031917095184326,0.0,0.4594712257385254,0.5,-9.496658325195312,-9.491945266723633,-9.53549861907959,10.370000000000001,10.41,0.0,-3,-3
1686415677.57959509,48633872,0.4457865357398987,0.0,0.4566629230976105,0.5,-9.498546600341797,-9.492870330810547,-9.539148330688477,10.370000000000001,10.41,0.0,-3,-2
1686415677.68038797,48734665,0.44274330139160156,0.0,0.4525718092918396,0.5,-9.500283241271973,-9.493765830993652,-9.563007354736328,10.370000000000001,10.41,0.0,-3,-2
1686415677.78034806,48834625,0.44708892703056335,0.0,0.4513077735900879,0.5,-9.501876831054688,-9.495637893676758,-9.530805587768555,10.370000000000001,10.41,0.0,-3,-3
1686415677.88030815,48934585,0.45271462202072144,0.0,0.4554087817668915,0.5,-9.503375053405762,-9.497440338134766,-9.566195487976074,10.370000000000001,10.41,0.0,-3,-3
1686415677.98026800,49034545,0.4559592306613922,0.0,0.45777130126953125,0.5,-9.504798889160156,-9.499683380126953,-9.547168731689453,10.370000000000001,10.41,0.0,-2,-3
1686415678.08022809,49134505,0.4615330398082733,0.0,0.4622986912727356,0.5,-9.506168365478516,-9.502025604248047,-9.57150650024414,10.370000000000001,10.39,0.0,-2,-3
1686415678.18018794,49234465,0.46032777428627014,0.0,0.4686729907989502,0.5,-9.507391929626465,-9.504631042480469,-9.557539939880371,10.370000000000001,10.39,0.0,-1,-2
1686415678.28014803,49334425,0.46051540970802307,0.0,0.46800777316093445,0.5,-9.508402824401855,-9.506821632385254,-9.57365608215332,10.370000000000001,10.39,0.0,-1,-2
1686415678.38010812,49434385,0.459719717502594,0.0,0.46750885248184204,0.5,-9.509258270263672,-9.508676528930664,-9.572628021240234,10.370000000000001,10.39,0.0,0,-1
1686415678.48006797,49534345,0.4604651629924774,0.0,0.4674789607524872,0.5,-9.509995460510254,-9.51038932800293,-9.575218200683594,10.370000000000001,10.39,0.0,0,-1
1686415678.58002806,49634305,0.4607028067111969,0.0,0.4673125445842743,0.5,-9.510647773742676,-9.511868476867676,-9.563308715820312,10.370000000000001,10.39,0.0,0,0
1686415678.67998815,49734265,0.464169979095459,0.0,0.4669932425022125,0.5,-9.511236190795898,-9.512588500976562,-9.56393814086914,10.370000000000001,10.38,0.0,0,0
1686415678.77994800,49834225,0.45792827010154724,0.0,0.4650900363922119,0.5,-9.511717796325684,-9.512441635131836,-9.571836471557617,10.370000000000001,10.38,0.0,0,0
1686415678.87990808,49934185,0.452233225107193,0.0,0.4610247313976288,0.5,-9.512075424194336,-9.51201057434082,-9.574505805969238,10.370000000000001,10.38,0.0,0,0
1686415678.97986817,50034145,0.45048803091049194,0.0,0.45708486437797546,0.5,-9.512336730957031,-9.511747360229492,-9.567827224731445,10.370000000000001,10.38,0.0,0,0
1686415679.07982802,50134105,0.45163121819496155,0.0,0.45581209659576416,0.5,-9.512530326843262,-9.511518478393555,-9.548697471618652,10.370000000000001,10.38,0.0,0,0
1686415679.17978811,50234065,0.44878876209259033,0.0,0.4546929895877838,0.5,-9.512677192687988,-9.510525703430176,-9.576760292053223,10.370000000000001,10.370000000000001,0.0,0,0
1686415679.27974796,50334025,0.4470551609992981,0.0,0.4531804919242859,0.5,-9.512726783752441,-9.509783744812012,-9.553693771362305,10.370000000000001,10.370000000000001,0.0,0,0
1686415679.37970805,50433985,0.44803863763809204,0.0,0.45291247963905334,0.5,-9.512651443481445,-9.509044647216797,-9.554312705993652,10.370000000000001,10.370000000000001,0.0,0,0
1686415679.47966814,50533945,0.4465085566043854,0.0,0.4519740045070648,0.5,-9.512493133544922,-9.507959365844727,-9.562222480773926,10.370000000000001,10.370000000000001,0.0,-1,0
1686415679.57962799,50633905,0.4462331533432007,0.0,0.4502628743648529,0.5,-9.5122709274292,-9.507078170776367,-9.59147834777832,10.370000000000001,10.370000000000001,0.0,-1,0
1686415679.68042111,50734698,0.4544011354446411,0.0,0.4519677460193634,0.5,-9.512005805969238,-9.50779914855957,-9.585040092468262,10.370000000000001,10.370000000000001,0.0,0,-1
1686415679.78038096,50834658,0.4703229069709778,0.0,0.4620530903339386,0.5,-9.511713027954102,-9.509995460510254,-9.58023452758789,10.370000000000001,10.370000000000001,0.0,0,-1
1686415679.88034105,50934618,0.4773753583431244,0.0,0.47279784083366394,0.5,-9.511399269104004,-9.51252555847168,-9.578694343566895,10.370000000000001,10.370000000000001,0.0,0,0
1686415679.98030114,51034578,0.4869702160358429,0.0,0.4816453754901886,0.5,-9.511072158813477,-9.514522552490234,-9.589763641357422,10.370000000000001,10.370000000000001,0.0,1,0
1686415680.08026099,51134538,0.4940456748008728,0.0,0.48952096700668335,0.5,-9.510732650756836,-9.516217231750488,-9.573186874389648,10.370000000000001,10.370000000000001,0.0,1,0
1686415680.18022108,51234498,0.4970809519290924,0.0,0.4955853819847107,0.5,-9.510390281677246,-9.51701831817627,-9.567544937133789,10.370000000000001,10.370000000000001,0.0,2,0
1686415680.28018117,51334458,0.4891301393508911,0.0,0.4950804114341736,0.5,-9.510046005249023,-9.516401290893555,-9.56014633178711,10.370000000000001,10.370000000000001,0.0,2,1
1686415680.38014102,51434418,0.4672788381576538,0.0,0.4834904968738556,0.5,-9.50969123840332,-9.514199256896973,-9.59354305267334,10.370000000000001,10.370000000000001,0.0,1,1
1686415680.48010111,51534378,0.4454779326915741,0.0,0.4607619047164917,0.5,-9.509329795837402,-9.511944770812988,-9.588313102722168,10.370000000000001,10.370000000000001,0.0,1,2
1686415680.58006096,51634338,0.4456731081008911,0.0,0.4502013921737671,0.5,-9.508964538574219,-9.510567665100098,-9.595788955688477,10.370000000000001,10.370000000000001,0.0,0,2
1686415680.68002105,51734298,0.45432525873184204,0.0,0.4505666494369507,0.5,-9.508598327636719,-9.510491371154785,-9.566534996032715,10.370000000000001,10.370000000000001,0.0,0,1
1686415680.77998114,51834258,0.4619126319885254,0.0,0.4573904573917389,0.5,-9.508232116699219,-9.51054573059082,-9.554350852966309,10.370000000000001,10.370000000000001,0.0,1,1
1686415680.87994099,51934218,0.4595693051815033,0.0,0.460745632648468,0.5,-9.507865905761719,-9.509519577026367,-9.573139190673828,10.370000000000001,10.370000000000001,0.0,0,1
1686415680.97990108,52034178,0.45353877544403076,0.0,0.4573989510536194,0.5,-9.507499694824219,-9.508193969726562,-9.55663776397705,10.370000000000001,10.370000000000001,0.0,0,1
1686415681.07986116,52134138,0.44947248697280884,0.0,0.4534563720226288,0.5,-9.507133483886719,-9.506587982177734,-9.582436561584473,10.370000000000001,10.370000000000001,0.0,0,1
1686415681.17982101,52234098,0.45020607113838196,0.0,0.450263649225235,0.5,-9.506767272949219,-9.505691528320312,-9.567466735839844,10.370000000000001,10.370000000000001,0.0,0,0
1686415681.27978110,52334058,0.5565221309661865,0.0,0.47513532638549805,0.5,-9.50624942779541,-9.505485534667969,-9.558066368103027,10.370000000000001,6.36,0.0,1,0
1686415681.37974095,52434018,0.8085159063339233,0.0,0.6487720608711243,0.5,-9.501667022705078,-9.504315376281738,-9.579988479614258,10.370000000000001,6.37,0.0,9,3
1686415681.47970104,52533978,0.783681333065033,0.0,0.7472678422927856,0.5,-9.485215187072754,-9.494035720825195,-9.551474571228027,10.370000000000001,6.37,0.0,27,20
1686415681.57966113,52633938,0.8000526428222656,0.0,0.7801482677459717,0.5,-9.450366020202637,-9.462923049926758,-9.521697998046875,10.370000000000001,6.37,0.0,48,41
1686415681.67962098,52733898,0.8515006303787231,0.0,0.8272229433059692,0.5,-9.39598274230957,-9.410531997680664,-9.478670120239258,10.370000000000001,6.37,0.0,68,60
1686415681.78041410,52834691,0.9009734988212585,0.0,0.8794273734092712,0.5,-9.321908950805664,-9.337767601013184,-9.416519165039062,10.370000000000001,6.37,0.0,87,78
1686415681.88037395,52934651,0.9335057139396667,0.0,0.9193564653396606,0.5,-9.230939865112305,-9.248613357543945,-9.295315742492676,10.370000000000001,6.37,0.0,103,93
1686415681.98033404,53034611,0.9463200569152832,0.0,0.9433073997497559,0.5,-9.126267433166504,-9.144214630126953,-9.237034797668457,10.370000000000001,6.37,0.0,115,104
1686415682.08029413,53134571,0.9473328590393066,0.0,0.9544031620025635,0.5,-9.012850761413574,-9.031095504760742,-9.08912181854248,10.370000000000001,6.37,0.0,121,110
1686415682.18025398,53234531,0.9359002113342285,0.0,0.9552490711212158,0.5,-8.895345687866211,-8.912212371826172,-8.986579895019531,10.370000000000001,6.37,0.0,123,113
1686415682.28021407,53334491,0.9233592748641968,0.0,0.9498440623283386,0.5,-8.777071952819824,-8.791065216064453,-8.860881805419922,10.370000000000001,6.38,0.0,122,113
1686415682.38017416,53434451,0.9172447919845581,0.0,0.9419578909873962,0.5,-8.65977668762207,-8.67052936553955,-8.762513160705566,10.370000000000001,6.390000000000001,0.0,119,112
1686415682.48013401,53534411,0.9122276306152344,0.0,0.9336745142936707,0.5,-8.544061660766602,-8.550714492797852,-8.637351989746094,10.370000000000001,6.41,0.0,116,111
1686415682.58009410,53634371,0.902667760848999,0.0,0.9268236756324768,0.5,-8.4298095703125,-8.432591438293457,-8.54489803314209,10.370000000000001,6.47,0.0,114,110
1686415682.68005395,53734331,0.9036250114440918,0.0,0.9213581085205078,0.5,-8.316675186157227,-8.316988945007324,-8.448713302612305,10.370000000000001,6.51,0.0,112,109
1686415682.78001404,53834291,0.9042328596115112,0.0,0.9189568161964417,0.5,-8.204362869262695,-8.203458786010742,-8.343995094299316,10.370000000000001,6.57,0.0,111,108
1686415682.87997413,53934251,0.9171152114868164,0.0,0.9173068404197693,0.5,-8.092588424682617,-8.093273162841797,-8.220290184020996,10.370000000000001,6.7,0.0,111,108
1686415682.97993398,54034211,0.9398106932640076,0.0,0.9172744154930115,0.5,-7.981470108032227,-7.983901023864746,-8.126972198486328,10.370000000000001,6.82,0.0,111,107
1686415683.07989407,54134171,0.9383790493011475,0.0,0.9159838557243347,0.5,-7.871346950531006,-7.875664710998535,-8.014888763427734,10.370000000000001,6.93,0.0,110,107
1686415683.17985415,54234131,0.9321997165679932,0.0,0.9137997031211853,0.5,-7.762304782867432,-7.768246173858643,-7.919429302215576,10.370000000000001,7.0200000000000005,0.0,110,107
1686415683.27981400,54334091,0.9294890761375427,0.0,0.9108436703681946,0.5,-7.654336929321289,-7.661979675292969,-7.806803226470947,10.370000000000001,7.13,0.0,109,107
1686415683.37977409,54434051,0.9190768003463745,0.0,0.9075442552566528,0.5,-7.547502517700195,-7.556512355804443,-7.720094203948975,10.370000000000001,7.28,0.0,108,106
1686415683.47973394,54534011,0.913635790348053,0.0,0.9034532308578491,0.5,-7.442099571228027,-7.45284366607666,-7.592831611633301,10.370000000000001,7.43,0.0,107,105
1686415683.57969403,54633971,0.9055778980255127,0.0,0.8975521326065063,0.5,-7.338542461395264,-7.350194454193115,-7.4822096824646,10.370000000000001,7.57,0.0,106,104
1686415683.67965412,54733931,0.8957988023757935,0.0,0.8894954323768616,0.5,-7.237174034118652,-7.248327255249023,-7.394780158996582,10.370000000000001,7.72,0.0,103,102
1686415683.77961397,54833891,0.8902002573013306,0.0,0.8801383376121521,0.5,-7.138265609741211,-7.148510456085205,-7.306270599365234,10.370000000000001,7.8,0.0,100,100
1686415683.88040709,54934684,0.8806781768798828,0.0,0.8716891407966614,0.5,-7.041053295135498,-7.050999164581299,-7.19140625,10.370000000000001,7.890000000000001,0.0,98,98
1686415683.98036695,55034644,0.8729956746101379,0.0,0.8636839985847473,0.5,-6.9469895362854,-6.956489086151123,-7.082849025726318,10.370000000000001,7.99,0.0,95,96
1686415684.08032703,55134604,0.8637388348579407,0.0,0.8550211787223816,0.5,-6.855205059051514,-6.863771915435791,-7.015427112579346,10.370000000000001,8.120000000000001,0.0,93,94
1686415684.18028712,55234564,0.8515160083770752,0.0,0.8447369337081909,0.5,-6.765707492828369,-6.774046897888184,-6.931411266326904,10.370000000000001,8.25,0.0,90,91
1686415684.28024697,55334524,0.8486739993095398,0.0,0.8367948532104492,0.5,-6.678680419921875,-6.688096046447754,-6.830452919006348,10.370000000000001,8.33,0.0,88,89
1686415684.38020706,55434484,0.8413153886795044,0.0,0.8299905061721802,0.5,-6.5942063331604,-6.604921340942383,-6.746929168701172,10.370000000000001,8.42,0.0,86,87
1686415684.48016715,55534444,0.833306610584259,0.0,0.8227156400680542,0.5,-6.512285232543945,-6.524619102478027,-6.647241592407227,10.370000000000001,8.51,0.0,84,85
1686415684.58012700,55634404,0.8215929269790649,0.0,0.8139848709106445,0.5,-6.432917594909668,-6.4450249671936035,-6.591120719909668,10.370000000000001,8.64,0.0,81,82
1686415684.68008709,55734364,0.8054254651069641,0.0,0.802333652973175,0.5,-6.356137752532959,-6.367875099182129,-6.507983207702637,10.370000000000001,8.76,0.0,78,80
1686415684.78004694,55834324,0.8003208637237549,0.0,0.792077898979187,0.5,-6.282177925109863,-6.293881893157959,-6.406500339508057,10.370000000000001,8.84,0.0,76,77
1686415684.88000703,55934284,0.7868799567222595,0.0,0.7806879281997681,0.5,-6.211135387420654,-6.221287250518799,-6.3303937911987305,10.370000000000001,8.92,0.0,72,74
1686415684.97996712,56034244,0.7732675075531006,0.0,0.767388105392456,0.5,-6.14300537109375,-6.151088714599609,-6.271455764770508,10.370000000000001,9.0,0.0,69,71
1686415685.07992697,56134204,0.7561221122741699,0.0,0.7525936365127563,0.5,-6.077792167663574,-6.083728313446045,-6.21396541595459,10.370000000000001,9.120000000000001,0.0,65,68
1686415685.17988706,56234164,0.7454606890678406,0.0,0.738885223865509,0.5,-6.015589714050293,-6.020288944244385,-6.123872756958008,10.370000000000001,9.21,0.0,62,65
