timestamp,TimeUS,ThI,ABst,ThO,ThH,DAlt,Alt,BAlt,DSAlt,SAlt,TAlt,DCRt,CRt
1685893232.68004799,21737135,0.0,0.0,0.5,0.5,0.0,-0.2579719126224518,-0.26589685678482056,0.0,0.0,0.0,0,-6
1685893232.78000808,21837095,0.0,0.0,0.5,0.5,0.0,-0.26364266872406006,-0.2933785021305084,0.0,0.0,0.0,0,-6
1685893232.87996817,21937055,0.0,0.0,0.5,0.5,0.0,-0.2708473801612854,-0.2759127914905548,0.0,0.0,0.0,0,-6
1685893232.97992802,22037015,0.0,0.0,0.5,0.5,0.0,-0.2782864272594452,-0.25802695751190186,0.0,0.0,0.0,0,-6
1685893233.07988811,22136975,0.0,0.0,0.5,0.5,0.0,-0.28436899185180664,-0.009921077638864517,0.0,0.0,0.0,0,-6
1685893233.17984796,22236935,0.0,0.0,0.5,0.5,0.0,-0.2796274721622467,-0.09805484861135483,0.0,0.0,0.0,0,-5
1685893233.27980804,22336895,0.0,0.0,0.5,0.5,0.0,-0.2645948529243469,-0.1995583474636078,0.0,0.0,0.0,0,-3
1685893233.37976813,22436855,0.0,0.0,0.5,0.5,0.0,-0.24864402413368225,-0.1471269130706787,0.0,0.0,0.0,0,-1
1685893233.47972798,22536815,0.0,0.0,0.4975000023841858,0.5,0.0,-0.23270095884799957,-0.3480644226074219,0.0,0.0,0.0,0,0
1685893233.57968807,22636775,0.0,0.0,0.3812499940395355,0.5,0.0,-0.22416403889656067,-0.24154415726661682,0.0,0.0,0.0,0,-2
1685893233.67964816,22736735,0.0,0.0,0.25,0.5,0.0,-0.23425355553627014,-0.12093271315097809,0.0,0.0,0.0,0,-23
1685893233.77960801,22836695,0.0,0.0,0.25,0.5,0.0,-0.2610836923122406,-0.08399872481822968,0.0,0.0,0.0,0,-39
1685893233.87956810,22936655,0.0,0.0,0.25,0.5,0.0,-0.2938959300518036,-0.48538345098495483,0.0,0.0,0.0,0,-48
1685893233.97952795,23036615,0.0,0.0,0.25,0.5,0.0,-0.3417811989784241,-0.44230788946151733,0.0,0.0,0.0,0,-52
1685893234.07948804,23136575,0.0,0.0,0.25,0.5,0.0,-0.40309759974479675,-0.31778061389923096,0.0,0.0,0.0,0,-55
1685893234.17944813,23236535,0.0,0.0,0.25,0.5,0.0,-0.4641389846801758,-0.3355006277561188,0.0,0.0,0.0,0,-57
1685893234.27940798,23336495,0.0,0.0,0.25,0.5,0.0,-0.5185779333114624,-0.34611526131629944,0.0,0.0,0.0,0,-57
1685893234.37936807,23436455,0.0,0.0,0.25,0.5,0.0,-0.5658276677131653,-0.7504328489303589,0.0,0.0,0.0,0,-56
1685893234.47932816,23536415,0.0,0.0,0.25,0.5,0.0,-0.6234327554702759,-0.8277009129524231,0.0,0.0,0.0,0,-56
1685893234.57928801,23636375,0.0,0.0,0.25,0.5,0.0,-0.6941915154457092,-0.8303101062774658,0.0,0.0,0.0,0,-57
1685893234.67924809,23736335,0.0,0.0,0.25,0.5,0.0,-0.7717669010162354,-0.7530938982963562,0.0,0.0,0.0,0,-59
1685893234.78004098,23837128,0.0,0.0,0.25,0.5,0.0,-0.8465657830238342,-0.8931704163551331,0.0,0.0,0.0,0,-60
1685893234.88000107,23937088,0.0,0.0,0.25,0.5,0.0,-0.9204861521720886,-0.9446141719818115,0.0,0.0,0.0,0,-61
1685893234.97996116,24037048,0.0,0.0,0.25,0.5,0.0,-0.9936492443084717,-0.9995846748352051,0.0,0.0,0.0,0,-61
1685893235.07992101,24137008,0.0,0.0,0.25,0.5,0.0,-1.0656827688217163,-0.9163974523544312,0.0,0.0,0.0,0,-62
1685893235.17988110,24236968,0.0,0.0,0.25,0.5,0.0,-1.1307870149612427,-1.0358322858810425,0.0,0.0,0.0,0,-62
1685893235.27984095,24336928,0.0,0.0,0.25,0.5,0.0,-1.1894882917404175,-1.3702049255371094,0.0,0.0,0.0,0,-61
1685893235.37980103,24436888,0.0,0.0,0.25,0.5,0.0,-1.2580037117004395,-1.1195623874664307,0.0,0.0,0.0,0,-62
1685893235.47976112,24536848,0.0,0.0,0.25,0.5,0.0,-1.3235732316970825,-1.3059254884719849,0.0,0.0,0.0,0,-62
1685893235.57972097,24636808,0.0,0.0,0.25,0.5,0.0,-1.3865149021148682,-1.227723240852356,0.0,0.0,0.0,0,-62
1685893235.67968106,24736768,0.0,0.0,0.25,0.5,0.0,-1.445273518562317,-1.5054033994674683,0.0,0.0,0.0,0,-62
1685893235.77964115,24836728,0.0,0.0,0.25,0.5,0.0,-1.505639910697937,-1.440626621246338,0.0,0.0,0.0,0,-61
1685893235.87960100,24936688,0.0,0.0,0.25,0.5,0.0,-1.567286491394043,-1.4346174001693726,0.0,0.0,0.0,0,-61
1685893235.97956109,25036648,0.0,0.0,0.25,0.5,0.0,-1.6238389015197754,-1.7943646907806396,0.0,0.0,0.0,0,-61
1685893236.07952094,25136608,0.0,0.0,0.25,0.5,0.0,-1.6899250745773315,-1.7924139499664307,0.0,0.0,0.0,0,-61
1685893236.17948103,25236568,0.0,0.0,0.25,0.5,0.0,-1.7629395723342896,-1.64081871509552,0.0,0.0,0.0,0,-62
1685893236.27944112,25336528,0.0,0.0,0.25,0.5,0.0,-1.8322824239730835,-1.8941349983215332,0.0,0.0,0.0,0,-63
1685893236.37940097,25436488,0.0,0.0,0.25,0.5,0.0,-1.901519775390625,-1.8830325603485107,0.0,0.0,0.0,0,-63
1685893236.47936106,25536448,0.0,0.0,0.25,0.5,0.0,-1.9715834856033325,-2.017287254333496,0.0,0.0,0.0,0,-64
1685893236.57932115,25636408,0.0,0.0,0.25,0.5,0.0,-2.0431878566741943,-2.1192243099212646,0.0,0.0,0.0,0,-64
1685893236.67928100,25736368,0.0,0.0,0.25,0.5,0.0,-2.1198792457580566,-1.8721779584884644,0.0,0.0,0.0,0,-65
1685893236.77924109,25836328,0.0,0.0,0.25,0.5,0.0,-2.1847407817840576,-1.962118148803711,0.0,0.0,0.0,0,-65
1685893236.88003397,25937121,0.0,0.0,0.25,0.5,0.0,-2.2387712001800537,-2.3425748348236084,0.0,0.0,0.0,0,-64
1685893236.97999406,26037081,0.0,0.0,0.25,0.5,0.0,-2.2999658584594727,-2.285515785217285,0.0,0.0,0.0,0,-64
1685893237.07995415,26137041,0.0,0.0,0.25,0.5,0.0,-2.365065813064575,-2.285240650177002,0.0,0.0,0.0,0,-64
1685893237.17991400,26237001,0.0,0.0,0.25,0.5,0.0,-2.428997278213501,-2.2699170112609863,0.0,0.0,0.0,0,-64
1685893237.27987409,26336961,0.0,0.0,0.25,0.5,0.0,-2.487642526626587,-2.2328402996063232,0.0,0.0,0.0,0,-63
1685893237.37983394,26436921,0.0,0.0,0.25,0.5,0.0,-2.5370543003082275,-2.516873359680176,0.0,0.0,0.0,0,-62
1685893237.47979403,26536881,0.0,0.0,0.25,0.5,0.0,-2.586742401123047,-2.372464895248413,0.0,0.0,0.0,0,-61
1685893237.57975411,26636841,0.0,0.0,0.25,0.5,0.0,-2.6337883472442627,-2.7333602905273438,0.0,0.0,0.0,0,-60
1685893237.67971396,26736801,0.0,0.0,0.25,0.5,0.0,-2.686945676803589,-2.648325204849243,0.0,0.0,0.0,0,-60
1685893237.77967405,26836761,0.0,0.0,0.25,0.5,0.0,-2.7452428340911865,-2.7352383136749268,0.0,0.0,0.0,0,-60
1685893237.87963414,26936721,0.0,0.0,0.25,0.5,0.0,-2.805082082748413,-2.6417179107666016,0.0,0.0,0.0,0,-60
1685893237.97959399,27036681,0.0,0.0,0.25,0.5,0.0,-2.8605797290802,-2.7194643020629883,0.0,0.0,0.0,0,-59
1685893238.07955408,27136641,0.0,0.0,0.25,0.5,0.0,-2.910489320755005,-2.7740895748138428,0.0,0.0,0.0,0,-58
1685893238.17951417,27236601,0.0,0.0,0.25,0.5,0.0,-2.956881284713745,-3.039335250854492,0.0,0.0,0.0,0,-57
1685893238.27947402,27336561,0.0,0.0,0.25,0.5,0.0,-3.0091018676757812,-3.199275255203247,0.0,0.0,0.0,0,-57
1685893238.37943411,27436521,0.0,0.0,0.25,0.5,0.0,-3.0754666328430176,-3.0309414863586426,0.0,0.0,0.0,0,-58
1685893238.47939396,27536481,0.0,0.0,0.25,0.5,0.0,-3.1421337127685547,-3.0032382011413574,0.0,0.0,0.0,0,-58
1685893238.57935405,27636441,0.0,0.0,0.25,0.5,0.0,-3.2022018432617188,-3.2944157123565674,0.0,0.0,0.0,0,-58
1685893238.67931414,27736401,0.0,0.0,0.25,0.5,0.0,-3.2642316818237305,-3.2839086055755615,0.0,0.0,0.0,0,-59
1685893238.77927399,27836361,0.0,0.0,0.25,0.5,0.0,-3.329765796661377,-3.2711775302886963,0.0,0.0,0.0,0,-59
1685893238.87923408,27936321,0.0,0.0,0.25,0.5,0.0,-3.393341064453125,-3.258599281311035,0.0,0.0,0.0,0,-59
1685893238.98002696,28037114,0.0,0.0,0.25,0.5,0.0,-3.4505019187927246,-3.3408920764923096,0.0,0.0,0.0,0,-59
1685893239.07998705,28137074,0.0,0.0,0.25,0.5,0.0,-3.503098487854004,-3.348433494567871,0.0,0.0,0.0,0,-58
1685893239.17994714,28237034,0.0,0.0,0.25,0.5,0.0,-3.55100154876709,-3.419560670852661,0.0,0.0,0.0,0,-57
1685893239.27990699,28336994,0.0,0.0,0.25,0.5,0.0,-3.5957982540130615,-3.454941749572754,0.0,0.0,0.0,0,-56
1685893239.37986708,28436954,0.0,0.0,0.25,0.5,0.0,-3.6379942893981934,-3.5530779361724854,0.0,0.0,0.0,0,-55
1685893239.47982717,28536914,0.0,0.0,0.25,0.5,0.0,-3.6804792881011963,-3.666893243789673,0.0,0.0,0.0,0,-54
1685893239.57978702,28636874,0.0,0.0,0.25,0.5,0.0,-3.726910352706909,-3.728945255279541,0.0,0.0,0.0,0,-53
1685893239.67974710,28736834,0.0,0.0,0.25,0.5,0.0,-3.777132749557495,-4.06535005569458,0.0,0.0,0.0,0,-53
1685893239.77970695,28836794,0.0,0.0,0.25,0.5,0.0,-3.8418943881988525,-3.854431629180908,0.0,0.0,0.0,0,-54
1685893239.87966704,28936754,0.0,0.0,0.25,0.5,0.0,-3.9116463661193848,-4.033470153808594,0.0,0.0,0.0,0,-55
1685893239.97962713,29036714,0.0,0.0,0.25,0.5,0.0,-3.98382306098938,-4.188239097595215,0.0,0.0,0.0,0,-56
1685893240.07958698,29136674,0.0,0.0,0.25,0.5,0.0,-4.066357135772705,-3.980938196182251,0.0,0.0,0.0,0,-58
1685893240.17954707,29236634,0.0,0.0,0.25,0.5,0.0,-4.140810012817383,-4.372872352600098,0.0,0.0,0.0,0,-59
1685893240.27950716,29336594,0.0,0.0,0.25,0.5,0.0,-4.220085144042969,-4.137538909912109,0.0,0.0,0.0,0,-61
1685893240.37946701,29436554,0.0,0.0,0.25,0.5,0.0,-4.2971673011779785,-4.410721302032471,0.0,0.0,0.0,0,-62
1685893240.47942710,29536514,0.0,0.0,0.25,0.5,0.0,-4.374092102050781,-4.207534313201904,0.0,0.0,0.0,0,-63
1685893240.57938695,29636474,0.0,0.0,0.25,0.5,0.0,-4.44459342956543,-4.605236530303955,0.0,0.0,0.0,0,-63
1685893240.67934704,29736434,0.0,0.0,0.25,0.5,0.0,-4.517602920532227,-4.531810283660889,0.0,0.0,0.0,0,-64
1685893240.77930713,29836394,0.0,0.0,0.25,0.5,0.0,-4.595180988311768,-4.702175617218018,0.0,0.0,0.0,0,-65
1685893240.87926698,29936354,0.0,0.0,0.25,0.5,0.0,-4.675105094909668,-4.5408711433410645,0.0,0.0,0.0,0,-66
1685893240.97922707,30036314,0.0,0.0,0.25,0.5,0.0,-4.749321937561035,-4.738752365112305,0.0,0.0,0.0,0,-66
1685893241.08001995,30137107,0.0,0.0,0.25,0.5,0.0,-4.820663928985596,-4.743347644805908,0.0,0.0,0.0,0,-67
1685893241.17998004,30237067,0.0,0.0,0.25,0.5,0.0,-4.889125823974609,-4.792582035064697,0.0,0.0,0.0,0,-67
1685893241.27994013,30337027,0.0,0.0,0.25,0.5,0.0,-4.954395771026611,-4.7049241065979,0.0,0.0,0.0,0,-67
1685893241.37989998,30436987,0.0,0.0,0.25,0.5,0.0,-5.0103020668029785,-5.044873237609863,0.0,0.0,0.0,0,-66
1685893241.47986007,30536947,0.0,0.0,0.25,0.5,0.0,-5.070141792297363,-4.909324645996094,0.0,0.0,0.0,0,-65
1685893241.57982016,30636907,0.0,0.0,0.25,0.5,0.0,-5.127736568450928,-5.140624046325684,0.0,0.0,0.0,0,-65
1685893241.67978001,30736867,0.0,0.0,0.25,0.5,0.0,-5.1888227462768555,-4.944218158721924,0.0,0.0,0.0,0,-65
1685893241.77974010,30836827,0.0,0.0,0.25,0.5,0.0,-5.2429423332214355,-5.351886749267578,0.0,0.0,0.0,0,-64
1685893241.87969995,30936787,0.0,0.0,0.25,0.5,0.0,-5.305014133453369,-5.340546131134033,0.0,0.0,0.0,0,-64
1685893241.97966003,31036747,0.0,0.0,0.25,0.5,0.0,-5.373271465301514,-5.433815956115723,0.0,0.0,0.0,0,-64
1685893242.07962012,31136707,0.0,0.0,0.25,0.5,0.0,-5.445748329162598,-5.2444987297058105,0.0,0.0,0.0,0,-65
1685893242.17957997,31236667,0.0,0.0,0.25,0.5,0.0,-5.512180805206299,-5.589303970336914,0.0,0.0,0.0,0,-65
1685893242.27954006,31336627,0.0,0.0,0.25,0.5,0.0,-5.57959508895874,-5.393929481506348,0.0,0.0,0.0,0,-65
1685893242.37950015,31436587,0.0,0.0,0.25,0.5,0.0,-5.64343786239624,-5.719171524047852,0.0,0.0,0.0,0,-65
1685893242.47946000,31536547,0.0,0.0,0.25,0.5,0.0,-5.709359169006348,-5.645905017852783,0.0,0.0,0.0,0,-65
1685893242.57942009,31636507,0.0,0.0,0.25,0.5,0.0,-5.776969909667969,-5.6919426918029785,0.0,0.0,0.0,0,-66
1685893242.67937994,31736467,0.0,0.0,0.25,0.5,0.0,-5.841733932495117,-5.872701644897461,0.0,0.0,0.0,0,-65
1685893242.77934003,31836427,0.0,0.0,0.25,0.5,0.0,-5.909029483795166,-5.968154430389404,0.0,0.0,0.0,0,-66
1685893242.87930012,31936387,0.0,0.0,0.25,0.5,0.0,-5.981347560882568,-5.950415134429932,0.0,0.0,0.0,0,-66
1685893242.97925997,32036347,0.0,0.0,0.25,0.5,0.0,-6.054449558258057,-5.998514652252197,0.0,0.0,0.0,0,-67
1685893243.08005309,32137140,0.0,0.0,0.25,0.5,0.0,-6.125360488891602,-6.056242942810059,0.0,0.0,0.0,0,-67
1685893243.18001294,32237100,0.0,0.0,0.25,0.5,0.0,-6.193757057189941,-5.875533103942871,0.0,0.0,0.0,0,-67
1685893243.27997303,32337060,0.0,0.0,0.25,0.5,0.0,-6.248955726623535,-6.1783952713012695,0.0,0.0,0.0,0,-66
1685893243.37993312,32437020,0.0,0.0,0.25,0.5,0.0,-6.302656650543213,-6.233125686645508,0.0,0.0,0.0,0,-65
1685893243.47989297,32536980,0.0,0.0,0.25,0.5,0.0,-6.358527660369873,-6.384071350097656,0.0,0.0,0.0,0,-65
1685893243.57985306,32636940,0.0,0.0,0.25,0.5,0.0,-6.420131683349609,-6.218060493469238,0.0,0.0,0.0,0,-64
1685893243.67981315,32736900,0.0,0.0,0.25,0.5,0.0,-6.47556209564209,-6.223910331726074,0.0,0.0,0.0,0,-64
1685893243.77977300,32836860,0.0,0.0,0.25,0.5,0.0,-6.522980690002441,-6.283675670623779,0.0,0.0,0.0,0,-62
1685893243.87973309,32936820,0.0,0.0,0.25,0.5,0.0,-6.563175678253174,-6.464702606201172,0.0,0.0,0.0,0,-61
1685893243.97969317,33036780,0.0,0.0,0.25,0.5,0.0,-6.604821681976318,-6.658803462982178,0.0,0.0,0.0,0,-59
1685893244.07965302,33136740,0.0,0.0,0.25,0.5,0.0,-6.655093193054199,-6.570904731750488,0.0,0.0,0.0,0,-59
1685893244.17961311,33236700,0.0,0.0,0.25,0.5,0.0,-6.70739221572876,-6.868012428283691,0.0,0.0,0.0,0,-58
1685893244.27957296,33336660,0.0,0.0,0.25,0.5,0.0,-6.77015495300293,-6.899710655212402,0.0,0.0,0.0,0,-59
1685893244.37953305,33436620,0.0,0.0,0.25,0.5,0.0,-6.842220306396484,-6.9531941413879395,0.0,0.0,0.0,0,-60
1685893244.47949314,33536580,0.0,0.0,0.25,0.5,0.0,-6.918888568878174,-6.666322708129883,0.0,0.0,0.0,0,-61
1685893244.57945299,33636540,0.0,0.0,0.25,0.5,0.0,-6.985509872436523,-6.9604949951171875,0.0,0.0,0.0,0,-61
1685893244.67941308,33736500,0.0,0.0,0.25,0.5,0.0,-7.046243190765381,-7.02663516998291,0.0,0.0,0.0,0,-61
1685893244.77937317,33836460,0.0,0.0,0.25,0.5,0.0,-7.107862949371338,-6.996641635894775,0.0,0.0,0.0,0,-61
1685893244.87933302,33936420,0.0,0.0,0.25,0.5,0.0,-7.166709899902344,-6.933669567108154,0.0,0.0,0.0,0,-61
1685893244.97929311,34036380,0.0,0.0,0.25,0.5,0.0,-7.21529483795166,-7.273205280303955,0.0,0.0,0.0,0,-60
1685893245.07925296,34136340,0.0,0.0,0.25,0.5,0.0,-7.269254684448242,-7.2034430503845215,0.0,0.0,0.0,0,-59
1685893245.18004608,34237133,0.0,0.0,0.25,0.5,0.0,-7.324467182159424,-7.189213275909424,0.0,0.0,0.0,0,-59
1685893245.28000617,34337093,0.0,0.0,0.25,0.5,0.0,-7.376136779785156,-7.350511074066162,0.0,0.0,0.0,0,-58
1685893245.37996602,34437053,0.0,0.0,0.25,0.5,0.0,-7.4289870262146,-7.22686767578125,0.0,0.0,0.0,0,-58
1685893245.47992611,34537013,0.0,0.0,0.25,0.5,0.0,-7.476068019866943,-7.496011734008789,0.0,0.0,0.0,0,-57
1685893245.57988596,34636973,0.0,0.0,0.25,0.5,0.0,-7.526415824890137,-7.346287250518799,0.0,0.0,0.0,0,-56
1685893245.67984605,34736933,0.0,0.0,0.25,0.5,0.0,-7.572852611541748,-7.571427822113037,0.0,0.0,0.0,0,-55
1685893245.77980614,34836893,0.0,0.0,0.25,0.5,0.0,-7.62162446975708,-7.560673713684082,0.0,0.0,0.0,0,-55
1685893245.87976599,34936853,0.0,0.0,0.25,0.5,0.0,-7.67158317565918,-7.576132774353027,0.0,0.0,0.0,0,-54
1685893245.97972608,35036813,0.0,0.0,0.25,0.5,0.0,-7.719794750213623,-7.923564434051514,0.0,0.0,0.0,0,-54
1685893246.07968616,35136773,0.0,0.0,0.25,0.5,0.0,-7.781306743621826,-7.898468494415283,0.0,0.0,0.0,0,-54
1685893246.17964602,35236733,0.0,0.0,0.25,0.5,0.0,-7.849420547485352,-7.985231876373291,0.0,0.0,0.0,0,-55
1685893246.27960610,35336693,0.0,0.0,0.25,0.5,0.0,-7.92341947555542,-8.115358352661133,0.0,0.0,0.0,0,-57
1685893246.37956595,35436653,0.0,0.0,0.25,0.5,0.0,-8.004790306091309,-8.037869453430176,0.0,0.0,0.0,0,-59
1685893246.47952604,35536613,0.0,0.0,0.25,0.5,0.0,-8.085375785827637,-7.888937473297119,0.0,0.0,0.0,0,-60
1685893246.57948613,35636573,0.0,0.0,0.25,0.5,0.0,-8.15316104888916,-8.058737754821777,0.0,0.0,0.0,0,-60
1685893246.67944598,35736533,0.0,0.0,0.25,0.5,0.0,-8.213547706604004,-8.345091819763184,0.0,0.0,0.0,0,-60
1685893246.77940607,35836493,0.0,0.0,0.25,0.5,0.0,-8.28049373626709,-8.136905670166016,0.0,0.0,0.0,0,-60
1685893246.87936616,35936453,0.0,0.0,0.25,0.5,0.0,-8.343708038330078,-8.178679466247559,0.0,0.0,0.0,0,-60
1685893246.97932601,36036413,0.0,0.0,0.25,0.5,0.0,-8.398816108703613,-8.520466804504395,0.0,0.0,0.0,0,-60
1685893247.07928610,36136373,0.0,0.0,0.25,0.5,0.0,-8.458815574645996,-8.50942325592041,0.0,0.0,0.0,0,-60
1685893247.17924595,36236333,0.0,0.0,0.25,0.5,0.0,-8.52562141418457,-8.611929893493652,0.0,0.0,0.0,0,-60
1685893247.28003907,36337126,0.0,0.0,0.25,0.5,0.0,-8.598628997802734,-8.649616241455078,0.0,0.0,0.0,0,-61
1685893247.37999916,36437086,0.0,0.0,0.25,0.5,0.0,-8.673301696777344,-8.496236801147461,0.0,0.0,0.0,0,-62
1685893247.47995901,36537046,0.0,0.0,0.25,0.5,0.0,-8.74020004272461,-8.80552864074707,0.0,0.0,0.0,0,-63
1685893247.57991910,36637006,0.0,0.0,0.25,0.5,0.0,-8.806681632995605,-8.738389015197754,0.0,0.0,0.0,0,-63
1685893247.67987895,36736966,0.0,0.0,0.25,0.5,0.0,-8.872946739196777,-8.996644973754883,0.0,0.0,0.0,0,-63
1685893247.77983904,36836926,0.0,0.0,0.25,0.5,0.0,-8.944967269897461,-8.963349342346191,0.0,0.0,0.0,0,-64
1685893247.87979913,36936886,0.0,0.0,0.25,0.5,0.0,-9.019133567810059,-8.835616111755371,0.0,0.0,0.0,0,-65
1685893247.97975898,37036846,0.0,0.0,0.25,0.5,0.0,-9.085003852844238,-9.057580947875977,0.0,0.0,0.0,0,-65
1685893248.07971907,37136806,0.0,0.0,0.25,0.5,0.0,-9.14992904663086,-8.915064811706543,0.0,0.0,0.0,0,-64
1685893248.17967916,37236766,0.0,0.0,0.25,0.5,0.0,-9.206047058105469,-9.015388488769531,0.0,0.0,0.0,0,-64
1685893248.27963901,37336726,0.0,0.0,0.25,0.5,0.0,-9.25528621673584,-9.18125057220459,0.0,0.0,0.0,0,-63
1685893248.37959909,37436686,0.0,0.0,0.25,0.5,0.0,-9.305289268493652,-9.425592422485352,0.0,0.0,0.0,0,-62
1685893248.47955894,37536646,0.0,0.0,0.25,0.5,0.0,-9.366300582885742,-9.233296394348145,0.0,0.0,0.0,0,-62
1685893248.57951903,37636606,0.0,0.0,0.25,0.5,0.0,-9.42551040649414,-9.557143211364746,0.0,0.0,0.0,0,-62
1685893248.67947912,37736566,0.0,0.0,0.25,0.5,0.0,-9.492165565490723,-9.4208984375,0.0,0.0,0.0,0,-62
1685893248.77943897,37836526,0.0,0.0,0.25,0.5,0.0,-9.55866813659668,-9.608213424682617,0.0,0.0,0.0,0,-62
1685893248.87939906,37936486,0.0,0.0,0.25,0.5,0.0,-9.62781810760498,-9.67572021484375,0.0,0.0,0.0,0,-63
1685893248.97935915,38036446,0.0,0.0,0.25,0.5,0.0,-9.70053768157959,-9.471067428588867,0.0,0.0,0.0,0,-64
1685893249.07931900,38136406,0.0,0.0,0.25,0.5,0.0,-9.76329231262207,-9.710143089294434,0.0,0.0,0.0,0,-64
1685893249.17927909,38236366,0.0,0.0,0.25,0.5,0.0,-9.823206901550293,-9.714659690856934,0.0,0.0,0.0,0,-63
1685893249.27923894,38336326,0.0,0.0,0.25,0.5,0.0,-9.881243705749512,-9.781246185302734,0.0,0.0,0.0,0,-63
1685893249.38003206,38437119,0.0,0.0,0.25,0.5,0.0,-9.936138153076172,-9.98562240600586,0.0,0.0,0.0,0,-62
1685893249.47999215,38537079,0.0,0.0,0.5,0.5,0.0,-9.994852066040039,-10.013827323913574,0.0,0.0,0.0,0,-53
1685893249.57995200,38637039,0.0,0.0,0.5,0.5,0.0,-10.04288387298584,-10.154065132141113,0.0,0.0,0.0,0,-40
1685893249.67991209,38736999,0.0,0.0,0.5,0.5,0.0,-10.08646297454834,-10.084576606750488,0.0,0.0,0.0,0,-32
1685893249.77987194,38836959,0.0,0.0,0.5,0.5,0.0,-10.1249361038208,-9.853903770446777,0.0,0.0,0.0,0,-28
1685893249.87983203,38936919,0.0,0.0,0.5,0.5,0.0,-10.146960258483887,-10.068602561950684,0.0,0.0,0.0,0,-23
1685893249.97979212,39036879,0.0,0.0,0.5,0.5,0.0,-10.158778190612793,-10.238386154174805,0.0,0.0,0.0,0,-20
1685893250.07975197,39136839,0.0,0.0,0.5,0.5,0.0,-10.173095703125,-10.16522216796875,0.0,0.0,0.0,0,-17
1685893250.17971206,39236799,0.0,0.0,0.5,0.5,0.0,-10.188822746276855,-10.261472702026367,0.0,0.0,0.0,0,-15
1685893250.27967215,39336759,0.0,0.0,0.5,0.5,0.0,-10.206731796264648,-10.31179428100586,0.0,0.0,0.0,0,-14
1685893250.37963200,39436719,0.0,0.0,0.5,0.5,0.0,-10.228652954101562,-10.166465759277344,0.0,0.0,0.0,0,-13
1685893250.47959208,39536679,0.0,0.0,0.5,0.5,0.0,-10.246217727661133,-10.088350296020508,0.0,0.0,0.0,0,-12
1685893250.57955217,39636639,0.0,0.0,0.5,0.5,0.0,-10.253872871398926,-10.167937278747559,0.0,0.0,0.0,0,-11
1685893250.67951202,39736599,0.0,0.0,0.5,0.5,0.0,-10.256070137023926,-10.224881172180176,0.0,0.0,0.0,0,-9
1685893250.77947211,39836559,0.0,0.0,0.5,0.5,0.0,-10.257499694824219,-10.035523414611816,0.0,0.0,0.0,0,-8
1685893250.87943196,39936519,0.0,0.0,0.5,0.5,0.0,-10.248218536376953,-10.360718727111816,0.0,0.0,0.0,0,-5
1685893250.97939205,40036479,0.0,0.0,0.5,0.5,0.0,-10.247055053710938,-10.207819938659668,0.0,0.0,0.0,0,-4
1685893251.07935214,40136439,0.0,0.0,0.5,0.5,0.0,-10.247172355651855,-10.157272338867188,0.0,0.0,0.0,0,-3
1685893251.17931199,40236399,0.0,0.0,0.5,0.5,0.0,-10.243452072143555,-10.281767845153809,0.0,0.0,0.0,0,-2
1685893251.27927208,40336359,0.0,0.0,0.5,0.5,0.0,-10.241731643676758,-10.009614944458008,0.0,0.0,0.0,0,-1
1685893251.37923217,40436319,0.0,0.0,0.5,0.5,0.0,-10.230536460876465,-10.136652946472168,0.0,0.0,0.0,0,0
1685893251.48002505,40537112,0.0,0.0,0.5,0.5,0.0,-10.214756965637207,-10.106222152709961,0.0,0.0,0.0,0,1
1685893251.57998514,40637072,0.0,0.0,0.5,0.5,0.0,-10.196401596069336,-10.220619201660156,0.0,0.0,0.0,0,3
1685893251.67994499,40737032,0.0,0.0,0.5,0.5,0.0,-10.18110466003418,-10.038166999816895,0.0,0.0,0.0,0,5
1685893251.77990508,40836992,0.0,0.0,0.5,0.5,0.0,-10.163249015808105,-10.33936595916748,0.0,0.0,0.0,0,6
1685893251.87986517,40936952,0.0,0.0,0.5,0.5,0.0,-10.151917457580566,-10.25247573852539,0.0,0.0,0.0,0,7
1685893251.97982502,41036912,0.0,0.0,0.5,0.5,0.0,-10.149365425109863,-10.14792537689209,0.0,0.0,0.0,0,7
1685893252.07978511,41136872,0.0,0.0,0.5,0.5,0.0,-10.145634651184082,-10.340150833129883,0.0,0.0,0.0,0,8
1685893252.17974496,41236832,0.0,0.0,0.5,0.5,0.0,-10.147253036499023,-10.233410835266113,0.0,0.0,0.0,0,7
1685893252.27970505,41336792,0.0,0.0,0.5,0.5,0.0,-10.152344703674316,-10.392449378967285,0.0,0.0,0.0,0,7
1685893252.37966514,41436752,0.4091601073741913,0.0,0.42133402824401855,0.5,-10.148360252380371,-10.163816452026367,-10.11672306060791,0.0,0.0,0.0,10,5
1685893252.47962499,41536712,0.536713719367981,0.0,0.4786694049835205,0.5,-10.143446922302246,-10.17345905303955,-10.098654747009277,0.0,0.0,0.0,12,4
1685893252.57958508,41636672,0.5779402256011963,0.0,0.5427020192146301,0.5,-10.140157699584961,-10.174211502075195,-10.318313598632812,0.0,0.0,0.0,12,4
1685893252.67954516,41736632,0.5631263256072998,0.0,0.5573703646659851,0.5,-10.137955665588379,-10.1766996383667,-10.135190963745117,0.0,0.0,0.0,13,5
1685893252.77950501,41836592,0.5493710041046143,0.0,0.5586899518966675,0.5,-10.136483192443848,-10.17464542388916,-10.239447593688965,0.0,0.0,0.0,12,7
1685893252.87946510,41936552,0.5250589847564697,0.0,0.5403261184692383,0.5,-10.135498046875,-10.171499252319336,-10.253288269042969,0.0,0.0,0.0,11,8
1685893252.97942495,42036512,0.528434157371521,0.0,0.5282205939292908,0.5,-10.134839057922363,-10.170140266418457,-10.135533332824707,0.0,0.0,0.0,11,8
1685893253.07938504,42136472,0.5207496881484985,0.0,0.5274797677993774,0.5,-10.134398460388184,-10.165604591369629,-10.09727954864502,0.0,9.74,0.0,9,8
1685893253.17934513,42236432,0.46821725368499756,0.0,0.5042315125465393,0.5,-10.134103775024414,-10.155829429626465,-10.216687202453613,0.0,9.72,0.0,6,8
1685893253.27930498,42336392,0.4081476628780365,0.0,0.44830039143562317,0.5,-10.133906364440918,-10.147860527038574,-10.327003479003906,0.0,9.71,0.0,4,8
1685893253.37926507,42436352,0.4412915110588074,0.0,0.42780497670173645,0.5,-10.133773803710938,-10.148927688598633,-10.17064380645752,0.0,9.71,0.0,4,6
1685893253.47922516,42536312,0.48453032970428467,0.0,0.45756956934928894,0.5,-10.133686065673828,-10.152222633361816,-9.983789443969727,0.0,9.71,0.0,5,4
1685893253.58001804,42637105,0.4623052477836609,0.0,0.47435474395751953,0.5,-10.133626937866211,-10.145944595336914,-10.095566749572754,0.0,9.71,0.0,3,4
1685893253.67997813,42737065,0.4011401832103729,0.0,0.4387466311454773,0.5,-10.133586883544922,-10.135149002075195,-10.15560531616211,0.0,9.71,0.0,0,5
1685893253.77993798,42837025,0.39338093996047974,0.0,0.4041603207588196,0.5,-10.133562088012695,-10.12688159942627,-10.073578834533691,0.0,9.71,0.0,-1,3
1685893253.87989807,42936985,0.40829968452453613,0.0,0.40412554144859314,0.5,-10.133537292480469,-10.12082290649414,-10.03894329071045,0.0,9.71,0.0,-3,0
1685893253.97985816,43036945,0.409422904253006,0.0,0.4090287387371063,0.5,-10.133527755737305,-10.11466121673584,-10.306941032409668,0.0,9.71,0.0,-5,-1
1685893254.07981801,43136905,0.4476214349269867,0.0,0.4184664785861969,0.5,-10.133527755737305,-10.118809700012207,-9.959049224853516,0.0,9.72,0.0,-4,-4
1685893254.17977810,43236865,0.48135924339294434,0.0,0.45976459980010986,0.5,-10.133527755737305,-10.122396469116211,-9.923480987548828,0.0,9.74,0.0,-3,-4
1685893254.27973795,43336825,0.43405771255493164,0.0,0.46016213297843933,0.5,-10.133527755737305,-10.11553955078125,-9.966503143310547,0.0,9.74,0.0,-5,-3
1685893254.37969804,43436785,0.3569676876068115,0.0,0.4085814952850342,0.5,-10.133527755737305,-10.10023307800293,-10.155062675476074,0.0,9.74,0.0,-9,-2
1685893254.47965813,43536745,0.38539671897888184,0.0,0.3777107894420624,0.5,-10.133527755737305,-10.094451904296875,-10.145123481750488,0.0,9.74,0.0,-11,-5
1685893254.57961798,43636705,0.4507335126399994,0.0,0.40294837951660156,0.5,-10.098990440368652,-10.098580360412598,-10.001510620117188,9.72,9.75,0.0,-9,-9
1685893254.67957807,43736665,0.5006781220436096,0.0,0.47707733511924744,0.5,-10.107566833496094,-10.10330581665039,-10.125971794128418,9.72,9.75,0.0,-8,-8
1685893254.77953815,43836625,0.4694882929325104,0.0,0.4780443012714386,0.5,-10.113604545593262,-10.107335090637207,-10.273225784301758,9.72,9.75,0.0,-6,-6
1685893254.87949800,43936585,0.4866933524608612,0.0,0.4721401631832123,0.5,-10.117814064025879,-10.118124961853027,-10.1749849319458,9.72,9.76,0.0,-3,-5
1685893254.97945809,44036545,0.5609143972396851,0.0,0.5109562277793884,0.5,-10.120885848999023,-10.132221221923828,-10.37196159362793,9.72,9.76,0.0,0,-5
1685893255.07941794,44136505,0.6511956453323364,0.0,0.5838969945907593,0.5,-10.123286247253418,-10.155121803283691,-10.125246047973633,9.72,9.77,0.0,7,-4
1685893255.17937803,44236465,0.626535177230835,0.0,0.628915548324585,0.5,-10.125332832336426,-10.170324325561523,-10.045906066894531,9.72,9.77,0.0,11,0
1685893255.27933812,44336425,0.5564751029014587,0.0,0.5992112159729004,0.5,-10.127236366271973,-10.169316291809082,-10.238676071166992,9.72,9.77,0.0,10,6
1685893255.37929797,44436385,0.5021913647651672,0.0,0.5439394116401672,0.5,-10.129131317138672,-10.164284706115723,-10.069929122924805,9.72,9.790000000000001,0.0,8,8
1685893255.47925806,44536345,0.4281550645828247,0.0,0.48907366394996643,0.5,-10.131141662597656,-10.153570175170898,-10.036419868469238,9.72,9.790000000000001,0.0,4,9
1685893255.58005095,44637138,0.33729416131973267,0.0,0.40144506096839905,0.5,-10.133378028869629,-10.136491775512695,-10.210716247558594,9.72,9.790000000000001,0.0,-1,8
1685893255.68001103,44737098,0.37391531467437744,0.0,0.36559492349624634,0.5,-10.135834693908691,-10.126330375671387,-10.046560287475586,9.72,9.77,0.0,-5,3
1685893255.77997112,44837058,0.39534807205200195,0.0,0.3833450376987457,0.5,-10.138494491577148,-10.120972633361816,-10.206668853759766,9.72,9.77,0.0,-7,-1
1685893255.87993097,44937018,0.4228837490081787,0.0,0.40047377347946167,0.5,-10.141302108764648,-10.12316608428955,-10.085148811340332,9.72,9.75,0.0,-8,-5
1685893255.97989106,45036978,0.4487852156162262,0.0,0.42949947714805603,0.5,-10.144198417663574,-10.129015922546387,-10.23443603515625,9.72,9.74,0.0,-7,-6
1685893256.07985115,45136938,0.4805559813976288,0.0,0.4536667764186859,0.5,-10.147085189819336,-10.139896392822266,-10.04399585723877,9.72,9.72,0.0,-5,-7
1685893256.17981100,45236898,0.5064197778701782,0.0,0.48760226368904114,0.5,-10.149853706359863,-10.146805763244629,-10.328662872314453,9.72,9.72,0.0,-3,-6
1685893256.27977109,45336858,0.5544769763946533,0.0,0.515602171421051,0.5,-10.152403831481934,-10.15957260131836,-10.068244934082031,9.72,9.71,0.0,0,-5
1685893256.37973094,45436818,0.5903244614601135,0.0,0.567445695400238,0.5,-10.154666900634766,-10.16849422454834,-10.249407768249512,9.72,9.74,0.0,2,-4
1685893256.47969103,45536778,0.5707364678382874,0.0,0.5728680491447449,0.5,-10.156635284423828,-10.175210952758789,-10.286293983459473,9.72,9.75,0.0,3,-1
1685893256.57965112,45636738,0.5766209363937378,0.0,0.5716150999069214,0.5,-10.158391952514648,-10.18394660949707,-10.436440467834473,9.72,9.75,0.0,5,0
1685893256.67961097,45736698,0.611498236656189,0.0,0.5853757262229919,0.5,-10.160027503967285,-10.199403762817383,-10.32557487487793,9.72,9.76,0.0,10,1
1685893256.77957106,45836658,0.6382932066917419,0.0,0.6169729232788086,0.5,-10.161614418029785,-10.218548774719238,-10.041346549987793,9.72,9.75,0.0,15,4
1685893256.87953115,45936618,0.5786652565002441,0.0,0.6136064529418945,0.5,-10.163201332092285,-10.21766185760498,-10.261359214782715,9.72,9.75,0.0,14,10
1685893256.97949100,46036578,0.5240797400474548,0.0,0.5637038350105286,0.5,-10.164799690246582,-10.20928955078125,-10.01654052734375,9.72,9.75,0.0,11,12
1685893257.07945108,46136538,0.4489777982234955,0.0,0.5098129510879517,0.5,-10.166411399841309,-10.192172050476074,-10.143108367919922,9.72,9.74,0.0,6,12
1685893257.17941117,46236498,0.32472121715545654,0.0,0.4063768982887268,0.5,-10.168022155761719,-10.170929908752441,-10.031780242919922,9.72,9.72,0.0,0,11
1685893257.27937102,46336458,0.33852797746658325,0.0,0.35542598366737366,0.5,-10.16959285736084,-10.149593353271484,-10.338397979736328,9.72,9.71,0.0,-7,6
1685893257.37933111,46436418,0.39577364921569824,0.0,0.36088111996650696,0.5,-10.171024322509766,-10.143363952636719,-10.218961715698242,9.72,9.700000000000001,0.0,-9,-1
1685893257.47929096,46536378,0.46543341875076294,0.0,0.41537725925445557,0.5,-10.172235488891602,-10.152225494384766,-10.182939529418945,9.72,9.700000000000001,0.0,-7,-6
1685893257.57925105,46636338,0.526887834072113,0.0,0.4772566854953766,0.5,-10.173162460327148,-10.164532661437988,-10.365069389343262,9.72,9.68,0.0,-3,-7
1685893257.68004417,46737131,0.6460410356521606,0.0,0.558856725692749,0.5,-10.173760414123535,-10.184337615966797,-10.039505004882812,9.72,9.66,0.0,2,-7
1685893257.78000402,46837091,0.6175225973129272,0.0,0.6230204105377197,0.5,-10.173937797546387,-10.19465446472168,-10.17561149597168,9.72,9.67,0.0,6,-2
1685893257.87996411,46937051,0.566253125667572,0.0,0.5959361791610718,0.5,-10.173632621765137,-10.195258140563965,-10.21539306640625,9.72,9.67,0.0,7,2
1685893257.97992396,47037011,0.5376104116439819,0.0,0.5624449849128723,0.5,-10.17284870147705,-10.191862106323242,-10.265066146850586,9.72,9.68,0.0,6,5
1685893258.07988405,47136971,0.529321551322937,0.0,0.5397658944129944,0.5,-10.17162799835205,-10.189448356628418,-10.190528869628906,9.72,9.71,0.0,6,6
1685893258.17984414,47236931,0.5299447178840637,0.0,0.5321034789085388,0.5,-10.17006778717041,-10.186713218688965,-10.293007850646973,9.72,9.74,0.0,6,6
1685893258.27980399,47336891,0.539909303188324,0.0,0.5318381786346436,0.5,-10.168349266052246,-10.186544418334961,-10.145466804504395,9.72,9.74,0.0,7,5
1685893258.37976408,47436851,0.5411913990974426,0.0,0.5397063493728638,0.5,-10.166661262512207,-10.184891700744629,-10.325624465942383,9.72,9.72,0.0,7,6
1685893258.47972417,47536811,0.5476759672164917,0.0,0.5395008325576782,0.5,-10.165091514587402,-10.186872482299805,-10.23069953918457,9.72,9.72,0.0,8,5
1685893258.57968402,47636771,0.5774165987968445,0.0,0.5588091015815735,0.5,-10.1636381149292,-10.189459800720215,-10.287607192993164,9.72,9.700000000000001,0.0,9,5
1685893258.67964411,47736731,0.59105384349823,0.0,0.5774033665657043,0.5,-10.162263870239258,-10.193309783935547,-10.007277488708496,9.72,9.68,0.0,10,6
1685893258.77960396,47836691,0.5580262541770935,0.0,0.5809213519096375,0.5,-10.160881042480469,-10.186802864074707,-10.098414421081543,9.72,9.700000000000001,0.0,9,8
1685893258.87956405,47936651,0.48452919721603394,0.0,0.5355011224746704,0.5,-10.159407615661621,-10.171170234680176,-10.145732879638672,9.72,9.700000000000001,0.0,5,9
1685893258.97952414,48036611,0.3907374143600464,0.0,0.4631999135017395,0.5,-10.157844543457031,-10.154809951782227,-10.242145538330078,9.72,9.700000000000001,0.0,0,9
1685893259.07948399,48136571,0.3925919532775879,0.0,0.4039919376373291,0.5,-10.156200408935547,-10.144773483276367,-10.01933479309082,9.72,9.700000000000001,0.0,-1,6
1685893259.17944407,48236531,0.4073871374130249,0.0,0.40761181712150574,0.5,-10.1544828414917,-10.13511848449707,-10.187923431396484,9.72,9.700000000000001,0.0,-4,3
1685893259.27940416,48336491,0.4214209020137787,0.0,0.41001173853874207,0.5,-10.152700424194336,-10.13087272644043,-9.98914909362793,9.72,9.700000000000001,0.0,-4,0
1685893259.37936401,48436451,0.42917561531066895,0.0,0.42545780539512634,0.5,-10.150863647460938,-10.125598907470703,-9.937273025512695,9.72,9.700000000000001,0.0,-5,-1
1685893259.47932410,48536411,0.39627009630203247,0.0,0.41735339164733887,0.5,-10.148975372314453,-10.114156723022461,-10.028865814208984,9.72,9.700000000000001,0.0,-8,-2
1685893259.57928395,48636371,0.3798980116844177,0.0,0.3924451172351837,0.5,-10.147046089172363,-10.102046012878418,-9.962898254394531,9.72,9.700000000000001,0.0,-11,-4
1685893259.67924404,48736331,0.3845878839492798,0.0,0.387118935585022,0.5,-10.145079612731934,-10.09146785736084,-10.201481819152832,9.72,9.700000000000001,0.0,-14,-7
1685893259.78003716,48837124,0.41933250427246094,0.0,0.39455166459083557,0.5,-10.143065452575684,-10.091504096984863,-9.88969898223877,9.72,9.72,0.0,-13,-10
1685893259.87999701,48937084,0.4351789355278015,0.0,0.4243122339248657,0.5,-10.14106559753418,-10.09083366394043,-10.15139389038086,9.72,9.74,0.0,-13,-11
1685893259.97995710,49037044,0.44469472765922546,0.0,0.43179598450660706,0.5,-10.139145851135254,-10.095502853393555,-9.971354484558105,9.72,9.75,0.0,-11,-11
1685893260.07991695,49137004,0.45568203926086426,0.0,0.4487141966819763,0.5,-10.13741683959961,-10.098323822021484,-10.225000381469727,9.72,9.75,0.0,-10,-10
1685893260.17987704,49236964,0.4773458242416382,0.0,0.4571460485458374,0.5,-10.135958671569824,-10.107626914978027,-9.99311351776123,9.72,9.75,0.0,-7,-10
1685893260.27983713,49336924,0.5017434358596802,0.0,0.4847783148288727,0.5,-10.134807586669922,-10.113645553588867,-10.164507865905762,9.72,9.75,0.0,-5,-8
1685893260.37979698,49436884,0.5191436409950256,0.0,0.5015813708305359,0.5,-10.133970260620117,-10.120599746704102,-10.164474487304688,9.72,9.76,0.0,-3,-7
1685893260.47975707,49536844,0.5573153495788574,0.0,0.52802574634552,0.5,-10.133469581604004,-10.129403114318848,-10.200614929199219,9.72,9.790000000000001,0.0,0,-6
1685893260.57971716,49636804,0.5832098126411438,0.0,0.5589019656181335,0.5,-10.133380889892578,-10.140275001525879,-10.091781616210938,9.72,9.790000000000001,0.0,1,-5
1685893260.67967701,49736764,0.5759847164154053,0.0,0.5766488313674927,0.5,-10.133769989013672,-10.14725399017334,-10.098077774047852,9.72,9.790000000000001,0.0,3,-2
1685893260.77963710,49836724,0.5342106223106384,0.0,0.5594895482063293,0.5,-10.13464069366455,-10.14775276184082,-10.177057266235352,9.72,9.790000000000001,0.0,2,0
1685893260.87959695,49936684,0.49759072065353394,0.0,0.5236298441886902,0.5,-10.13598346710205,-10.146530151367188,-10.203750610351562,9.72,9.790000000000001,0.0,1,1
1685893260.97955704,50036644,0.4671061635017395,0.0,0.49146798253059387,0.5,-10.137763023376465,-10.147567749023438,-10.136961936950684,9.72,9.790000000000001,0.0,0,1
1685893261.07951713,50136604,0.43808555603027344,0.0,0.46140989661216736,0.5,-10.139942169189453,-10.147424697875977,-9.94566535949707,9.72,9.790000000000001,0.0,0,2
1685893261.17947698,50236564,0.3936156928539276,0.0,0.43181943893432617,0.5,-10.142474174499512,-10.138848304748535,-10.226287841796875,9.72,9.77,0.0,-3,2
1685893261.27943707,50336524,0.38355809450149536,0.0,0.39184820652008057,0.5,-10.145270347595215,-10.132486343383789,-9.99562931060791,9.72,9.76,0.0,-6,0
1685893261.37939715,50436484,0.3965260982513428,0.0,0.3967399597167969,0.5,-10.148214340209961,-10.127622604370117,-10.001813888549805,9.72,9.75,0.0,-9,-3
1685893261.47935700,50536444,0.3824901580810547,0.0,0.39208856225013733,0.5,-10.151193618774414,-10.12061595916748,-9.988693237304688,9.72,9.75,0.0,-12,-5
1685893261.57931709,50636404,0.367967814207077,0.0,0.38079309463500977,0.5,-10.15414810180664,-10.111200332641602,-10.291475296020508,9.72,9.75,0.0,-15,-7
1685893261.67927694,50736364,0.4101483225822449,0.0,0.3824010193347931,0.5,-10.157029151916504,-10.11789321899414,-10.23735237121582,9.72,9.75,0.0,-14,-11
1685893261.77923703,50836324,0.4791845381259918,0.0,0.42957454919815063,0.5,-10.159814834594727,-10.13633918762207,-10.209793090820312,9.72,9.74,0.0,-9,-13
1685893261.88003016,50937117,0.5607118010520935,0.0,0.49694961309432983,0.5,-10.162493705749512,-10.158645629882812,-10.214890480041504,9.72,9.74,0.0,-3,-12
1685893261.97999001,51037077,0.6431511640548706,0.0,0.5854329466819763,0.5,-10.164998054504395,-10.179210662841797,-10.335831642150879,9.72,9.74,0.0,1,-10
1685893262.07995009,51137037,0.6377713084220886,0.0,0.6228808164596558,0.5,-10.167346954345703,-10.200552940368652,-10.180296897888184,9.72,9.75,0.0,7,-5
1685893262.17990994,51236997,0.6063927412033081,0.0,0.6236861944198608,0.5,-10.169568061828613,-10.212621688842773,-10.13412094116211,9.72,9.75,0.0,10,1
1685893262.27987003,51336957,0.5505675077438354,0.0,0.5896034836769104,0.5,-10.171697616577148,-10.211519241333008,-10.049911499023438,9.72,9.75,0.0,9,6
1685893262.37983012,51436917,0.4623688757419586,0.0,0.529794454574585,0.5,-10.173760414123535,-10.197369575500488,-10.383864402770996,9.72,9.76,0.0,5,8
1685893262.47978997,51536877,0.3700404167175293,0.0,0.43496474623680115,0.5,-10.175788879394531,-10.189778327941895,-10.321324348449707,9.72,9.76,0.0,2,8
1685893262.57975006,51636837,0.4260476529598236,0.0,0.4095135033130646,0.5,-10.177836418151855,-10.190969467163086,-10.385832786560059,9.72,9.76,0.0,1,5
1685893262.67971015,51736797,0.49595436453819275,0.0,0.4465346038341522,0.5,-10.179908752441406,-10.202184677124023,-10.093304634094238,9.72,9.75,0.0,4,2
1685893262.77967000,51836757,0.5425809621810913,0.0,0.5054625868797302,0.5,-10.181995391845703,-10.207234382629395,-10.073929786682129,9.72,9.75,0.0,5,2
1685893262.87963009,51936717,0.518061101436615,0.0,0.5290404558181763,0.5,-10.184062004089355,-10.202994346618652,-10.25156307220459,9.72,9.71,0.0,3,3
1685893262.97958994,52036677,0.45648428797721863,0.0,0.49546927213668823,0.5,-10.186003684997559,-10.197449684143066,-10.086546897888184,9.72,9.700000000000001,0.0,1,3
1685893263.07955003,52136637,0.3998693823814392,0.0,0.4441811144351959,0.5,-10.18768310546875,-10.188705444335938,-10.334284782409668,9.72,9.68,0.0,-1,4
1685893263.17951012,52236597,0.41102609038352966,0.0,0.41024157404899597,0.5,-10.188977241516113,-10.185099601745605,-10.184586524963379,9.72,9.67,0.0,-2,2
1685893263.27946997,52336557,0.549814760684967,0.0,0.4526873826980591,0.5,-10.189645767211914,-10.186554908752441,-10.090585708618164,9.72,5.68,0.0,0,0
1685893263.37943006,52436517,0.815049409866333,0.0,0.639737069606781,0.5,-10.185771942138672,-10.183435440063477,-10.309809684753418,9.72,5.68,0.0,8,2
1685893263.47939014,52536477,0.8054142594337463,0.0,0.7494531273841858,0.5,-10.169549942016602,-10.176077842712402,-10.116896629333496,9.72,5.7,0.0,27,19
1685893263.57934999,52636437,0.8241136074066162,0.0,0.7850949764251709,0.5,-10.134509086608887,-10.146295547485352,-10.095796585083008,9.72,5.68,0.0,48,41
1685893263.67931008,52736397,0.8770186305046082,0.0,0.8330614566802979,0.5,-10.079483032226562,-10.091279029846191,-10.126636505126953,9.72,5.68,0.0,68,61
1685893263.77927017,52836357,0.9002434015274048,0.0,0.8779439330101013,0.5,-10.00472640991211,-10.017118453979492,-10.150683403015137,9.72,5.68,0.0,87,79
1685893263.87923002,52936317,0.9554442167282104,0.0,0.9245921969413757,0.5,-9.912691116333008,-9.931866645812988,-9.768647193908691,9.72,5.68,0.0,105,93
1685893263.98002315,53037110,0.9798886775970459,0.0,0.9656005501747131,0.5,-9.805705070495605,-9.825326919555664,-10.005594253540039,9.72,5.7,0.0,118,106
1685893264.07998300,53137070,1.01687490940094,0.0,0.9980221390724182,0.5,-9.688232421875,-9.711296081542969,-9.540914535522461,9.72,5.7,0.0,129,116
1685893264.17994308,53237030,1.132793664932251,0.0,1.0,0.5,-9.561569213867188,-9.580952644348145,-9.519699096679688,9.72,5.7,0.0,136,122
1685893264.27990317,53336990,1.2008743286132812,0.0,1.0,0.5,-9.427410125732422,-9.441774368286133,-9.26691722869873,9.72,5.7,0.0,141,124
1685893264.37986302,53436950,1.2228732109069824,0.0,1.0,0.5,-9.287104606628418,-9.29355525970459,-9.287423133850098,9.72,5.72,0.0,144,126
1685893264.47982311,53536910,1.2194957733154297,0.0,1.0,0.5,-9.141757011413574,-9.142413139343262,-9.029767990112305,9.72,5.74,0.0,147,128
1685893264.57978296,53636870,1.2360169887542725,0.0,1.0,0.5,-8.992276191711426,-8.991128921508789,-9.109416961669922,9.72,5.8100000000000005,0.0,150,130
1685893264.67974305,53736830,1.2773911952972412,0.0,1.0,0.5,-8.839447975158691,-8.845537185668945,-9.049330711364746,9.72,5.89,0.0,156,131
1685893264.77970314,53836790,1.3988358974456787,0.0,1.0,0.5,-8.683978080749512,-8.709085464477539,-9.006341934204102,9.72,5.97,0.0,164,131
1685893264.87966299,53936750,1.6227740049362183,0.0,1.0,0.5,-8.526490211486816,-8.586055755615234,-8.660770416259766,9.72,6.0600000000000005,0.0,176,130
1685893264.97962308,54036710,1.8953572511672974,0.0,1.0,0.5,-8.367536544799805,-8.463255882263184,-8.629318237304688,9.72,6.16,0.0,188,130
1685893265.07958317,54136670,2.161928176879883,0.0,1.0,0.5,-8.207620620727539,-8.341750144958496,-8.51269245147705,9.72,6.3100000000000005,0.0,200,129
1685893265.17954302,54236630,2.4488039016723633,0.0,1.0,0.5,-8.047218322753906,-8.22258472442627,-8.459822654724121,9.72,6.47,0.0,213,128
1685893265.27950311,54336590,2.745352268218994,0.0,1.0,0.5,-7.886739730834961,-8.107470512390137,-8.225040435791016,9.72,6.6000000000000005,0.0,226,127
1685893265.37946296,54436550,3.0388357639312744,0.0,1.0,0.5,-7.7265825271606445,-7.992838382720947,-8.259683609008789,9.72,6.74,0.0,238,127
1685893265.47942305,54536510,3.2917609214782715,0.0,1.0,0.5,-7.567127704620361,-7.88193941116333,-7.888795375823975,9.72,6.86,0.0,249,126
1685893265.57938313,54636470,3.504615068435669,0.0,1.0,0.5,-7.408719062805176,-7.767326354980469,-7.684305667877197,9.72,7.04,0.0,257,125
1685893265.67934299,54736430,3.623645305633545,0.0,1.0,0.5,-7.2516770362854,-7.641772270202637,-7.701488494873047,9.72,7.22,0.0,261,125
1685893265.77930307,54836390,3.6751010417938232,0.0,1.0,0.5,-7.0963454246521,-7.511645317077637,-7.71814489364624,9.72,7.3100000000000005,0.0,264,126
1685893265.87926316,54936350,3.734046220779419,0.0,1.0,0.5,-6.943033218383789,-7.388232231140137,-7.368753910064697,9.72,7.41,0.0,267,125
1685893265.98005605,55037143,3.786087989807129,0.0,1.0,0.5,-6.790725231170654,-7.262314796447754,-7.184908390045166,9.72,7.5200000000000005,0.0,270,126
1685893266.08001614,55137103,3.7872605323791504,0.0,1.0,0.5,-6.642102241516113,-7.127814769744873,-7.299718379974365,9.72,7.66,0.0,269,126
1685893266.17997599,55237063,3.766913414001465,0.0,1.0,0.5,-6.49605655670166,-6.997810363769531,-7.1563401222229,9.72,7.8,0.0,269,127
1685893266.27993608,55337023,3.765366554260254,0.0,1.0,0.5,-6.352754592895508,-6.873210906982422,-6.946018218994141,9.72,7.9,0.0,269,126
1685893266.37989616,55436983,3.7589898109436035,0.0,1.0,0.5,-6.2123637199401855,-6.748548984527588,-6.91005802154541,9.72,8.0,0.0,269,126
1685893266.47985601,55536943,3.746466636657715,0.0,1.0,0.5,-6.075017929077148,-6.626592636108398,-6.599724769592285,9.72,8.1,0.0,268,126
1685893266.57981610,55636903,3.7142069339752197,0.0,1.0,0.5,-5.940813064575195,-6.4995951652526855,-6.735299110412598,9.72,8.25,0.0,266,126
1685893266.67977595,55736863,3.6650137901306152,0.0,1.0,0.5,-5.8098464012146,-6.377956867218018,-6.600724697113037,9.72,8.42,0.0,264,126
1685893266.77973604,55836823,3.6359846591949463,0.0,1.0,0.5,-5.682278633117676,-6.263077259063721,-6.180206298828125,9.72,8.51,0.0,262,125
1685893266.87969613,55936783,3.580742597579956,0.0,1.0,0.5,-5.558310508728027,-6.138500690460205,-6.105705738067627,9.72,8.620000000000001,0.0,259,125
1685893266.97965598,56036743,3.4625160694122314,0.0,1.0,0.5,-5.438095569610596,-6.0077385902404785,-6.110631942749023,9.72,8.72,0.0,253,125
1685893267.07961607,56136703,3.3214757442474365,0.0,1.0,0.5,-5.321768760681152,-5.878076553344727,-6.130043983459473,9.72,8.89,0.0,247,126
1685893267.17957616,56236663,3.1912105083465576,0.0,1.0,0.5,-5.209485054016113,-5.7572922706604,-5.7107391357421875,9.72,9.040000000000001,0.0,242,125
1685893267.27953601,56336623,3.051734447479248,0.0,1.0,0.5,-5.101477146148682,-5.631903648376465,-5.761544227600098,9.72,9.14,0.0,235,125
1685893267.37949610,56436583,2.8728599548339844,0.0,1.0,0.5,-4.998029708862305,-5.507009029388428,-5.357882022857666,9.72,9.25,0.0,227,125
1685893267.47945595,56536543,2.649223804473877,0.0,1.0,0.5,-4.899384498596191,-5.372673988342285,-5.54710054397583,9.72,9.35,0.0,216,126
1685893267.57941604,56636503,2.3780665397644043,0.0,1.0,0.5,-4.805783271789551,-5.241896152496338,-5.398868560791016,9.72,9.5,0.0,205,126
1685893267.67937613,56736463,2.106470823287964,0.0,1.0,0.5,-4.717502117156982,-5.116584777832031,-5.261610984802246,9.72,9.66,0.0,192,126
1685893267.77933598,56836423,1.8135677576065063,0.0,1.0,0.5,-4.6349568367004395,-4.995114326477051,-4.963305950164795,9.72,9.75,0.0,179,126
1685893267.87929606,56936383,1.461259365081787,0.0,1.0,0.5,-4.558708190917969,-4.869668006896973,-4.827208995819092,9.72,9.870000000000001,0.0,162,126
1685893267.97925615,57036343,0.9823428988456726,0.0,0.9997732639312744,0.5,-4.489376544952393,-4.737463474273682,-4.722014427185059,9.72,9.97,0.0,139,126
1685893268.08004904,57137136,0.8045786619186401,0.0,0.9041000008583069,0.5,-4.427231788635254,-4.6040520668029785,-4.70471715927124,9.72,10.13,0.0,110,116
1685893268.18000913,57237096,0.7053074836730957,0.0,0.7894236445426941,0.5,-4.373921871185303,-4.490931510925293,-4.500252723693848,9.72,10.290000000000001,0.0,84,97
1685893268.27996898,57337056,0.5976282358169556,0.0,0.6783459782600403,0.5,-4.329444885253906,-4.399195194244385,-4.687094211578369,9.72,10.39,0.0,60,76
1685893268.37992907,57437016,0.4987899363040924,0.0,0.566521942615509,0.5,-4.29426383972168,-4.336719036102295,-4.50255012512207,9.72,10.5,0.0,43,57
1685893268.47988915,57536976,0.3754057288169861,0.0,0.46242982149124146,0.5,-4.268604278564453,-4.298457622528076,-4.4533491134643555,9.72,10.620000000000001,0.0,29,43
1685893268.57984900,57636936,0.34262949228286743,0.0,0.36708909273147583,0.5,-4.252567291259766,-4.275195598602295,-4.250086784362793,9.72,10.77,0.0,18,31
1685893268.67980909,57736896,0.3209974467754364,0.0,0.3349933326244354,0.5,-4.246225357055664,-4.26061487197876,-4.362752914428711,9.72,10.92,0.0,5,19
1685893268.77976894,57836856,0.3225867748260498,0.0,0.3117528259754181,0.5,-4.24971342086792,-4.25654935836792,-4.37143087387085,9.72,11.09,0.0,-6,6
1685893268.87972903,57936816,0.338296502828598,0.0,0.3154299855232239,0.5,-4.263223648071289,-4.268651962280273,-4.146697044372559,9.72,11.24,0.0,-16,-7
1685893268.97968912,58036776,0.29742497205734253,0.0,0.3070196211338043,0.5,-4.287002086639404,-4.286047458648682,-4.421362400054932,9.72,11.33,0.0,-29,-19
1685893269.07964897,58136736,0.2902671694755554,0.0,0.28565359115600586,0.5,-4.321123123168945,-4.318193435668945,-4.42338228225708,9.72,11.42,0.0,-40,-31
1685893269.17960906,58236696,0.2797686755657196,0.0,0.2745702862739563,0.5,-4.365089416503906,-4.366173267364502,-4.1925787925720215,9.72,11.5,0.0,-48,-41
1685893269.27956915,58336656,0.23380160331726074,0.0,0.2534748315811157,0.5,-4.418078899383545,-4.414327621459961,-4.5619730949401855,9.72,11.55,0.0,-58,-49
1685893269.37952900,58436616,0.22563481330871582,0.0,0.22899362444877625,0.5,-4.479188442230225,-4.476069927215576,-4.669579982757568,9.72,11.6,0.0,-65,-57
1685893269.47948909,58536576,0.22910219430923462,0.0,0.21960587799549103,0.5,-4.547506332397461,-4.553706645965576,-4.436526775360107,9.72,11.620000000000001,0.0,-69,-65
1685893269.57944894,58636536,0.20314228534698486,0.0,0.2118266373872757,0.5,-4.622173309326172,-4.6310882568359375,-4.4523444175720215,9.72,11.620000000000001,0.0,-74,-69
1685893269.67940903,58736496,0.16588908433914185,0.0,0.18729470670223236,0.5,-4.702368259429932,-4.702109336853027,-4.626789569854736,9.72,11.620000000000001,0.0,-82,-73
1685893269.77936912,58836456,0.13940471410751343,0.0,0.15742474794387817,0.5,-4.787323474884033,-4.775251865386963,-4.589227676391602,9.72,11.6,0.0,-90,-79
1685893269.87932897,58936416,0.10781309008598328,0.0,0.12898388504981995,0.5,-4.8763322830200195,-4.849719524383545,-4.722664833068848,9.72,11.58,0.0,-98,-85
1685893269.97928905,59036376,0.08156296610832214,0.0,0.09981158375740051,0.5,-4.968746662139893,-4.928954124450684,-5.0062079429626465,9.72,11.540000000000001,0.0,-105,-92
1685893270.07924914,59136336,0.08163538575172424,0.0,0.08280202746391296,0.5,-5.0639777183532715,-5.022181510925293,-4.873514652252197,9.72,11.49,0.0,-109,-99
1685893270.18004203,59237129,0.06785187125205994,0.0,0.0752924233675003,0.5,-5.162291049957275,-5.120316028594971,-4.928396701812744,9.72,11.49,0.0,-111,-102
1685893270.28000212,59337089,0.05256497859954834,0.0,0.06342468410730362,0.5,-5.261562347412109,-5.2155680656433105,-5.163830280303955,9.72,11.450000000000001,0.0,-113,-104
1685893270.37996197,59437049,0.04744651913642883,0.0,0.053051017224788666,0.5,-5.362164497375488,-5.314689636230469,-5.459262371063232,9.72,11.370000000000001,0.0,-115,-107
1685893270.47992206,59537009,0.06545698642730713,0.0,0.054448891431093216,0.5,-5.463665962219238,-5.426052093505859,-5.402191638946533,9.72,11.27,0.0,-113,-109
1685893270.57988214,59636969,0.0777970552444458,0.0,0.06888581812381744,0.5,-5.565617561340332,-5.542134761810303,-5.56593656539917,9.72,11.21,0.0,-109,-108
1685893270.67984200,59736929,0.09474495053291321,0.0,0.08435238152742386,0.5,-5.667606353759766,-5.65741491317749,-5.5525994300842285,9.72,11.16,0.0,-104,-105
1685893270.77980208,59836889,0.10109445452690125,0.0,0.09835439175367355,0.5,-5.769293785095215,-5.766745567321777,-5.570249557495117,9.72,11.08,0.0,-102,-102
1685893270.87976217,59936849,0.09279140830039978,0.0,0.1016867533326149,0.5,-5.870361328125,-5.865283489227295,-5.868281841278076,9.72,10.99,0.0,-102,-99
1685893270.97972202,60036809,0.0975809097290039,0.0,0.10023366659879684,0.5,-5.97048282623291,-5.962533950805664,-6.1197662353515625,9.72,10.88,0.0,-101,-99
1685893271.07968211,60136769,0.12554937601089478,0.0,0.11275608092546463,0.5,-6.069316387176514,-6.071067810058594,-6.261144161224365,9.72,10.8,0.0,-97,-98
1685893271.17964196,60236729,0.16690057516098022,0.0,0.14195840060710907,0.5,-6.166543006896973,-6.1874260902404785,-6.017947196960449,9.72,10.72,0.0,-90,-96
1685893271.27960205,60336689,0.17800429463386536,0.0,0.1704261302947998,0.5,-6.2618727684021,-6.291635990142822,-6.3813018798828125,9.72,10.64,0.0,-85,-90
1685893271.37956214,60436649,0.20135337114334106,0.0,0.1897771656513214,0.5,-6.355041980743408,-6.391724586486816,-6.182319164276123,9.72,10.5,0.0,-81,-86
1685893271.47952199,60536609,0.1988196074962616,0.0,0.20395784080028534,0.5,-6.445709705352783,-6.478634357452393,-6.499659538269043,9.72,10.370000000000001,0.0,-79,-81
1685893271.57948208,60636569,0.21273934841156006,0.0,0.21042969822883606,0.5,-6.533477306365967,-6.562073707580566,-6.693066596984863,9.72,10.27,0.0,-77,-78
1685893271.67944217,60736529,0.24952667951583862,0.0,0.23052550852298737,0.5,-6.6179423332214355,-6.650751113891602,-6.427969455718994,9.72,10.18,0.0,-72,-76
1685893271.77940202,60836489,0.2483573853969574,0.0,0.25015363097190857,0.5,-6.698731899261475,-6.727392196655273,-6.703897476196289,9.72,10.08,0.0,-70,-72
1685893271.87936211,60936449,0.2611343264579773,0.0,0.26007041335105896,0.5,-6.775467395782471,-6.798293113708496,-6.84876823425293,9.72,9.96,0.0,-67,-69
1685893271.97932196,61036409,0.2953221797943115,0.0,0.2801451086997986,0.5,-6.8476996421813965,-6.870414733886719,-6.808743000030518,9.72,9.84,0.0,-63,-66
1685893272.07928205,61136369,0.32604897022247314,0.0,0.3108980655670166,0.5,-6.914864540100098,-6.937736511230469,-6.958113193511963,9.72,9.75,0.0,-57,-61
1685893272.17924213,61236329,0.36720776557922363,0.0,0.34428200125694275,0.5,-6.976327896118164,-7.001296043395996,-6.809556007385254,9.72,9.66,0.0,-50,-56
1685893272.28003502,61337122,0.38344645500183105,0.0,0.3779042661190033,0.5,-7.031947135925293,-7.051686763763428,-6.904344081878662,9.72,9.56,0.0,-45,-49
1685893272.37999511,61437082,0.3887776732444763,0.0,0.39136892557144165,0.5,-7.080397129058838,-7.090116500854492,-6.991046905517578,9.72,9.450000000000001,0.0,-42,-43
1685893272.47995496,61537042,0.41030433773994446,0.0,0.40501904487609863,0.5,-7.121843338012695,-7.122165203094482,-7.1739726066589355,9.72,9.34,0.0,-37,-39
1685893272.57991505,61637002,0.4649125933647156,0.0,0.43413418531417847,0.5,-7.156024932861328,-7.154679298400879,-7.137465953826904,9.72,9.27,0.0,-30,-35
1685893272.67987514,61736962,0.568452000617981,0.0,0.5023738741874695,0.5,-7.182817459106445,-7.186351776123047,-7.2355732917785645,9.72,9.21,0.0,-22,-30
1685893272.77983499,61836922,0.6873199343681335,0.0,0.6146368384361267,0.5,-7.202250957489014,-7.217063903808594,-7.194243431091309,9.72,9.13,0.0,-11,-25
1685893272.87979507,61936882,0.6698570251464844,0.0,0.6671507358551025,0.5,-7.21441650390625,-7.240118026733398,-7.053336143493652,9.72,9.040000000000001,0.0,0,-15
1685893272.97975516,62036842,0.6254132986068726,0.0,0.661594808101654,0.5,-7.219386577606201,-7.244575500488281,-7.020410537719727,9.72,8.96,0.0,6,-3
1685893273.07971501,62136802,0.5870064496994019,0.0,0.6288634538650513,0.5,-7.21723747253418,-7.228461742401123,-7.269933700561523,9.72,8.91,0.0,9,6
1685893273.17967510,62236762,0.5887253284454346,0.0,0.6007240414619446,0.5,-7.208112716674805,-7.207462787628174,-6.999122142791748,9.72,8.870000000000001,0.0,12,11
1685893273.27963495,62336722,0.598312497138977,0.0,0.6075892448425293,0.5,-7.192265510559082,-7.180017948150635,-7.051517009735107,9.72,8.83,0.0,15,15
1685893273.37959504,62436682,0.593305766582489,0.0,0.6054351329803467,0.5,-7.169997692108154,-7.145225524902344,-7.173001289367676,9.72,8.77,0.0,17,18
1685893273.47955513,62536642,0.6195030212402344,0.0,0.6096205711364746,0.5,-7.141599178314209,-7.110866069793701,-7.071118354797363,9.72,8.75,0.0,22,21
1685893273.57951498,62636602,0.6543135046958923,0.0,0.6388865113258362,0.5,-7.107389450073242,-7.078531265258789,-7.169500350952148,9.72,8.76,0.0,28,24
1685893273.67947507,62736562,0.6877410411834717,0.0,0.6668540835380554,0.5,-7.067837715148926,-7.048104763031006,-6.825206279754639,9.72,8.76,0.0,36,29
1685893273.77943516,62836522,0.6742342710494995,0.0,0.6843422651290894,0.5,-7.023520469665527,-7.0043230056762695,-6.952296733856201,9.72,8.76,0.0,40,35
1685893273.87939501,62936482,0.6731644868850708,0.0,0.6798432469367981,0.5,-6.975047588348389,-6.952530860900879,-6.798250198364258,9.72,8.77,0.0,43,40
1685893273.97935510,63036442,0.6610499024391174,0.0,0.6753868460655212,0.5,-6.923032760620117,-6.893159866333008,-6.762572765350342,9.72,8.8,0.0,44,43
1685893274.07931495,63136402,0.6433619260787964,0.0,0.6614112854003906,0.5,-6.868095874786377,-6.828697204589844,-6.586277961730957,9.72,8.85,0.0,44,45
1685893274.17927504,63236362,0.6107973456382751,0.0,0.6370128393173218,0.5,-6.8108696937561035,-6.754137992858887,-6.61150598526001,9.72,8.91,0.0,41,45
1685893274.27923512,63336322,0.587746262550354,0.0,0.6099746227264404,0.5,-6.752003192901611,-6.682769775390625,-6.576818466186523,9.72,8.97,0.0,38,44
1685893274.38002801,63437115,0.5669541358947754,0.0,0.5854787230491638,0.5,-6.691624641418457,-6.614762306213379,-6.671788215637207,9.72,9.02,0.0,37,42
1685893274.47998810,63537075,0.5904092192649841,0.0,0.5769585371017456,0.5,-6.631297588348389,-6.557323932647705,-6.700317859649658,9.72,9.06,0.0,38,39
1685893274.57994795,63637035,0.6451605558395386,0.0,0.6055431365966797,0.5,-6.571005821228027,-6.51212739944458,-6.594954490661621,9.72,9.14,0.0,42,38
1685893274.67990804,63736995,0.6768854856491089,0.0,0.6468707323074341,0.5,-6.511250019073486,-6.473537921905518,-6.759772777557373,9.72,9.22,0.0,48,40
1685893274.77986813,63836955,0.7108119130134583,0.0,0.6748576760292053,0.5,-6.452554702758789,-6.442535877227783,-6.478063583374023,9.72,9.290000000000001,0.0,55,43
1685893274.87982798,63936915,0.7122952938079834,0.0,0.7001057863235474,0.5,-6.395442008972168,-6.408733367919922,-6.415637016296387,9.72,9.370000000000001,0.0,60,48
1685893274.97978806,64036875,0.6965804100036621,0.0,0.6988198161125183,0.5,-6.340447425842285,-6.364745140075684,-6.664882659912109,9.72,9.450000000000001,0.0,61,52
1685893275.07974815,64136835,0.7062105536460876,0.0,0.6916216611862183,0.5,-6.288120269775391,-6.32453727722168,-6.418899059295654,9.72,9.55,0.0,61,53
1685893275.17970800,64236795,0.7043801546096802,0.0,0.6973385810852051,0.5,-6.239002227783203,-6.287537574768066,-6.431797504425049,9.72,9.66,0.0,61,53
1685893275.27966809,64336755,0.6914942264556885,0.0,0.6908637881278992,0.5,-6.193643569946289,-6.248538494110107,-6.328306198120117,9.72,9.75,0.0,59,53
1685893275.37962794,64436715,0.669950008392334,0.0,0.6770023107528687,0.5,-6.152528285980225,-6.208388328552246,-6.136598587036133,9.72,9.81,0.0,55,51
1685893275.47958803,64536675,0.6223366260528564,0.0,0.6494353413581848,0.5,-6.115920543670654,-6.162994384765625,-6.303513050079346,9.72,9.88,0.0,48,49
1685893275.57954812,64636635,0.5777959823608398,0.0,0.6027467846870422,0.5,-6.083973407745361,-6.121339797973633,-6.302178859710693,9.72,9.950000000000001,0.0,40,44
1685893275.67950797,64736595,0.5558639168739319,0.0,0.5672747492790222,0.5,-6.056816577911377,-6.09108304977417,-6.310662269592285,9.72,10.040000000000001,0.0,35,37
1685893275.77946806,64836555,0.5560700297355652,0.0,0.5501368045806885,0.5,-6.034580230712891,-6.072865962982178,-5.918092250823975,9.72,10.08,0.0,31,31
1685893275.87942815,64936515,0.5203330516815186,0.0,0.5426586866378784,0.5,-6.017388820648193,-6.051362037658691,-5.954794883728027,9.72,10.13,0.0,24,27
1685893275.97938800,65036475,0.36559152603149414,0.0,0.46544885635375977,0.5,-6.005247592926025,-6.021726608276367,-5.859893798828125,9.72,10.200000000000001,0.0,14,25
1685893276.07934809,65136435,0.27890294790267944,0.0,0.33820948004722595,0.5,-5.998128890991211,-5.987841606140137,-6.049351692199707,9.72,10.26,0.0,1,19
1685893276.17930794,65236395,0.32207784056663513,0.0,0.3072962760925293,0.5,-5.996026515960693,-5.967092990875244,-6.076889991760254,9.72,10.34,0.0,-9,6
1685893276.27926803,65336355,0.3639294505119324,0.0,0.32960760593414307,0.5,-5.9989495277404785,-5.966940402984619,-6.045399188995361,9.72,10.41,0.0,-15,-5
1685893276.37922812,65436315,0.380112886428833,0.0,0.35412725806236267,0.5,-6.006947040557861,-5.981750965118408,-5.868199348449707,9.72,10.46,0.0,-18,-13
1685893276.48002100,65537108,0.3562760651111603,0.0,0.3598646819591522,0.5,-6.020181655883789,-5.997644424438477,-5.887197971343994,9.72,10.52,0.0,-22,-18
1685893276.57998109,65637068,0.32112592458724976,0.0,0.3374280035495758,0.5,-6.0384111404418945,-6.012648105621338,-5.947446823120117,9.72,10.58,0.0,-28,-22
1685893276.67994094,65737028,0.298377126455307,0.0,0.30989161133766174,0.5,-6.0616984367370605,-6.030369281768799,-5.9793806076049805,9.72,10.64,0.0,-35,-27
1685893276.77990103,65836988,0.280272901058197,0.0,0.288198322057724,0.5,-6.090018272399902,-6.054348468780518,-5.9795684814453125,9.72,10.700000000000001,0.0,-41,-33
1685893276.87986112,65936948,0.25999030470848083,0.0,0.2688288986682892,0.5,-6.1233391761779785,-6.084451675415039,-6.122872352600098,9.72,10.75,0.0,-47,-40
1685893276.97982097,66036908,0.2533256411552429,0.0,0.25262999534606934,0.5,-6.161629676818848,-6.124157428741455,-6.37164306640625,9.72,10.790000000000001,0.0,-51,-46
1685893277.07978106,66136868,0.27639856934547424,0.0,0.2553631067276001,0.5,-6.204774856567383,-6.183446407318115,-6.2849321365356445,9.72,10.83,0.0,-51,-51
1685893277.17974114,66236828,0.28786903619766235,0.0,0.2688581347465515,0.5,-6.252535343170166,-6.25053596496582,-6.3825883865356445,9.72,10.870000000000001,0.0,-50,-52
1685893277.27970099,66336788,0.2989226281642914,0.0,0.2807523310184479,0.5,-6.304608345031738,-6.321465969085693,-6.237701892852783,9.72,10.88,0.0,-49,-52
1685893277.37966108,66436748,0.2802311182022095,0.0,0.284161776304245,0.5,-6.360659122467041,-6.386063098907471,-6.648637771606445,9.72,10.88,0.0,-50,-51
1685893277.47962117,66536708,0.2930099368095398,0.0,0.27865639328956604,0.5,-6.420280933380127,-6.4552154541015625,-6.504629135131836,9.72,10.91,0.0,-50,-52
