timestamp,TimeUS,ThI,ABst,ThO,ThH,DAlt,Alt,BAlt,DSAlt,SAlt,TAlt,DCRt,CRt
1686004563.78000784,17836196,0.0,0.0,0.5,0.5,0.0,-0.3013821840286255,-0.1251371204853058,0.0,0.0,0.0,0,0
1686004563.87996793,17936156,0.0,0.0,0.5,0.5,0.0,-0.30517417192459106,-0.29502230882644653,0.0,0.0,0.0,0,0
1686004563.97992778,18036116,0.0,0.0,0.5,0.5,0.0,-0.3035351037979126,-0.12726642191410065,0.0,0.0,0.0,0,0
1686004564.07988787,18136076,0.0,0.0,0.5,0.5,0.0,-0.29505765438079834,-0.17478077113628387,0.0,0.0,0.0,0,0
1686004564.17984796,18236036,0.0,0.0,0.5,0.5,0.0,-0.28027138113975525,-0.4546835124492645,0.0,0.0,0.0,0,1
1686004564.27980781,18335996,0.0,0.0,0.5,0.5,0.0,-0.0036173867993056774,-0.28681281208992004,0.0,0.0,0.0,0,2
1686004564.38060093,18436789,0.0,0.0,0.5,0.5,0.0,-0.002453665714710951,-0.09202965348958969,0.0,0.0,0.0,0,2
1686004564.48056078,18536749,0.0,0.0,0.35499998927116394,0.5,0.0,0.005969007033854723,-0.08517458289861679,0.0,0.0,0.0,0,2
1686004564.58052087,18636709,0.0,0.0,0.25,0.5,0.0,0.017016936093568802,-0.37795281410217285,0.0,0.0,0.0,0,-12
1686004564.68048096,18736669,0.0,0.0,0.25,0.5,0.0,0.0019198547815904021,-0.4701730012893677,0.0,0.0,0.0,0,-31
1686004564.78044081,18836629,0.0,0.0,0.25,0.5,0.0,-0.042866300791502,-0.28407126665115356,0.0,0.0,0.0,0,-44
1686004564.88040090,18936589,0.0,0.0,0.25,0.5,0.0,-0.09970525652170181,-0.3389923572540283,0.0,0.0,0.0,0,-52
1686004564.98036098,19036549,0.0,0.0,0.25,0.5,0.0,-0.15857715904712677,-0.363677442073822,0.0,0.0,0.0,0,-55
1686004565.08032084,19136509,0.0,0.0,0.25,0.5,0.0,-0.21672362089157104,-0.6137165427207947,0.0,0.0,0.0,0,-57
1686004565.18028092,19236469,0.0,0.0,0.25,0.5,0.0,-0.280254989862442,-0.7036886215209961,0.0,0.0,0.0,0,-58
1686004565.28024101,19336429,0.0,0.0,0.25,0.5,0.0,-0.3534013628959656,-0.7485578656196594,0.0,0.0,0.0,0,-59
1686004565.38020086,19436389,0.0,0.0,0.25,0.5,0.0,-0.4326094090938568,-0.5445623397827148,0.0,0.0,0.0,0,-61
1686004565.48016095,19536349,0.0,0.0,0.25,0.5,0.0,-0.5047539472579956,-0.6984980702400208,0.0,0.0,0.0,0,-62
1686004565.58012080,19636309,0.0,0.0,0.25,0.5,0.0,-0.5693531632423401,-0.7296516299247742,0.0,0.0,0.0,0,-62
1686004565.68008089,19736269,0.0,0.0,0.25,0.5,0.0,-0.6297484040260315,-0.9032142758369446,0.0,0.0,0.0,0,-61
1686004565.78004098,19836229,0.0,0.0,0.25,0.5,0.0,-0.6900902986526489,-1.0404918193817139,0.0,0.0,0.0,0,-61
1686004565.88000083,19936189,0.0,0.0,0.25,0.5,0.0,-0.7562352418899536,-1.15101957321167,0.0,0.0,0.0,0,-62
1686004565.97996092,20036149,0.0,0.0,0.25,0.5,0.0,-0.829960286617279,-1.1859040260314941,0.0,0.0,0.0,0,-62
1686004566.07992101,20136109,0.0,0.0,0.25,0.5,0.0,-0.908660888671875,-1.1198134422302246,0.0,0.0,0.0,0,-64
1686004566.17988086,20236069,0.0,0.0,0.25,0.5,0.0,-0.98466956615448,-1.2808489799499512,0.0,0.0,0.0,0,-65
1686004566.27984095,20336029,0.0,0.0,0.25,0.5,0.0,-1.0593215227127075,-1.4126594066619873,0.0,0.0,0.0,0,-65
1686004566.37980080,20435989,0.0,0.0,0.25,0.5,0.0,-1.1373493671417236,-1.3807309865951538,0.0,0.0,0.0,0,-66
1686004566.48059392,20536782,0.0,0.0,0.25,0.5,0.0,-1.2165982723236084,-1.1699999570846558,0.0,0.0,0.0,0,-67
1686004566.58055401,20636742,0.0,0.0,0.25,0.5,0.0,-1.278364658355713,-1.3136966228485107,0.0,0.0,0.0,0,-67
1686004566.68051386,20736702,0.0,0.0,0.25,0.5,0.0,-1.329066276550293,-1.4143606424331665,0.0,0.0,0.0,0,-65
1686004566.78047395,20836662,0.0,0.0,0.25,0.5,0.0,-1.3751575946807861,-1.554315209388733,0.0,0.0,0.0,0,-64
1686004566.88043380,20936622,0.0,0.0,0.25,0.5,0.0,-1.422687292098999,-1.77445387840271,0.0,0.0,0.0,0,-63
1686004566.98039389,21036582,0.0,0.0,0.25,0.5,0.0,-1.4801758527755737,-1.8570647239685059,0.0,0.0,0.0,0,-62
1686004567.08035398,21136542,0.0,0.0,0.25,0.5,0.0,-1.548121452331543,-1.8791661262512207,0.0,0.0,0.0,0,-63
1686004567.18031383,21236502,0.0,0.0,0.25,0.5,0.0,-1.6217341423034668,-1.5985339879989624,0.0,0.0,0.0,0,-64
1686004567.28027391,21336462,0.0,0.0,0.25,0.5,0.0,-1.6819895505905151,-1.926568865776062,0.0,0.0,0.0,0,-64
1686004567.38023400,21436422,0.0,0.0,0.25,0.5,0.0,-1.741004467010498,-1.8850940465927124,0.0,0.0,0.0,0,-63
1686004567.48019385,21536382,0.0,0.0,0.25,0.5,0.0,-1.7977396249771118,-2.0564565658569336,0.0,0.0,0.0,0,-63
1686004567.58015394,21636342,0.0,0.0,0.25,0.5,0.0,-1.856629729270935,-2.1165919303894043,0.0,0.0,0.0,0,-62
1686004567.68011379,21736302,0.0,0.0,0.25,0.5,0.0,-1.9191312789916992,-2.1613552570343018,0.0,0.0,0.0,0,-62
1686004567.78007388,21836262,0.0,0.0,0.25,0.5,0.0,-1.982484221458435,-2.250318765640259,0.0,0.0,0.0,0,-63
1686004567.88003397,21936222,0.0,0.0,0.25,0.5,0.0,-2.047739267349243,-2.2943344116210938,0.0,0.0,0.0,0,-63
1686004567.97999382,22036182,0.0,0.0,0.25,0.5,0.0,-2.113739013671875,-2.33793044090271,0.0,0.0,0.0,0,-63
1686004568.07995391,22136142,0.0,0.0,0.25,0.5,0.0,-2.1789793968200684,-2.151305913925171,0.0,0.0,0.0,0,-63
1686004568.17991400,22236102,0.0,0.0,0.25,0.5,0.0,-2.2317819595336914,-2.3009207248687744,0.0,0.0,0.0,0,-62
1686004568.27987385,22336062,0.0,0.0,0.25,0.5,0.0,-2.27655291557312,-2.453660011291504,0.0,0.0,0.0,0,-61
1686004568.37983394,22436022,0.0,0.0,0.25,0.5,0.0,-2.321626901626587,-2.462710380554199,0.0,0.0,0.0,0,-60
1686004568.47979379,22535982,0.0,0.0,0.25,0.5,0.0,-2.3664259910583496,-2.7251291275024414,0.0,0.0,0.0,0,-58
1686004568.58058691,22636775,0.0,0.0,0.25,0.5,0.0,-2.420710563659668,-2.68009090423584,0.0,0.0,0.0,0,-58
1686004568.68054700,22736735,0.0,0.0,0.25,0.5,0.0,-2.4791312217712402,-2.6107141971588135,0.0,0.0,0.0,0,-58
1686004568.78050685,22836695,0.0,0.0,0.25,0.5,0.0,-2.533426523208618,-2.594273805618286,0.0,0.0,0.0,0,-58
1686004568.88046694,22936655,0.0,0.0,0.25,0.5,0.0,-2.5795695781707764,-3.026399850845337,0.0,0.0,0.0,0,-57
1686004568.98042679,23036615,0.0,0.0,0.25,0.5,0.0,-2.6364831924438477,-2.983323574066162,0.0,0.0,0.0,0,-57
1686004569.08038688,23136575,0.0,0.0,0.25,0.5,0.0,-2.7016890048980713,-2.8690426349639893,0.0,0.0,0.0,0,-58
1686004569.18034697,23236535,0.0,0.0,0.25,0.5,0.0,-2.7631659507751465,-2.8867642879486084,0.0,0.0,0.0,0,-58
1686004569.28030682,23336495,0.0,0.0,0.25,0.5,0.0,-2.8174846172332764,-2.897378921508789,0.0,0.0,0.0,0,-57
1686004569.38026690,23436455,0.0,0.0,0.25,0.5,0.0,-2.8635318279266357,-3.3016955852508545,0.0,0.0,0.0,0,-56
1686004569.48022699,23536415,0.0,0.0,0.25,0.5,0.0,-2.9202075004577637,-3.378964424133301,0.0,0.0,0.0,0,-56
1686004569.58018684,23636375,0.0,0.0,0.25,0.5,0.0,-2.989948034286499,-3.3815712928771973,0.0,0.0,0.0,0,-57
1686004569.68014693,23736335,0.0,0.0,0.25,0.5,0.0,-3.0663390159606934,-3.304356575012207,0.0,0.0,0.0,0,-59
1686004569.78010678,23836295,0.0,0.0,0.25,0.5,0.0,-3.140238046646118,-3.4444332122802734,0.0,0.0,0.0,0,-60
1686004569.88006687,23936255,0.0,0.0,0.25,0.5,0.0,-3.212721109390259,-3.4958760738372803,0.0,0.0,0.0,0,-61
1686004569.98002696,24036215,0.0,0.0,0.25,0.5,0.0,-3.2847816944122314,-3.5508475303649902,0.0,0.0,0.0,0,-61
1686004570.07998681,24136175,0.0,0.0,0.25,0.5,0.0,-3.355743646621704,-3.4676601886749268,0.0,0.0,0.0,0,-62
1686004570.17994690,24236135,0.0,0.0,0.25,0.5,0.0,-3.4188358783721924,-3.5870957374572754,0.0,0.0,0.0,0,-62
1686004570.27990699,24336095,0.0,0.0,0.25,0.5,0.0,-3.4769177436828613,-3.9112205505371094,0.0,0.0,0.0,0,-61
1686004570.37986684,24436055,0.0,0.0,0.25,0.5,0.0,-3.544513463973999,-3.6605780124664307,0.0,0.0,0.0,0,-62
1686004570.47982693,24536015,0.0,0.0,0.25,0.5,0.0,-3.6080241203308105,-3.8469412326812744,0.0,0.0,0.0,0,-62
1686004570.57978678,24635975,0.0,0.0,0.25,0.5,0.0,-3.669955253601074,-3.768739700317383,0.0,0.0,0.0,0,-62
1686004570.68057990,24736768,0.0,0.0,0.25,0.5,0.0,-3.726534605026245,-4.046419620513916,0.0,0.0,0.0,0,-61
1686004570.78053999,24836728,0.0,0.0,0.25,0.5,0.0,-3.7866759300231934,-3.9816415309906006,0.0,0.0,0.0,0,-61
1686004570.88049984,24936688,0.0,0.0,0.25,0.5,0.0,-3.847019672393799,-3.9756338596343994,0.0,0.0,0.0,0,-61
1686004570.98045993,25036648,0.0,0.0,0.25,0.5,0.0,-3.9026870727539062,-4.3353800773620605,0.0,0.0,0.0,0,-61
1686004571.08041978,25136608,0.0,0.0,0.25,0.5,0.0,-3.9680252075195312,-4.333430290222168,0.0,0.0,0.0,0,-61
1686004571.18037987,25236568,0.0,0.0,0.25,0.5,0.0,-4.04140043258667,-4.1818342208862305,0.0,0.0,0.0,0,-62
1686004571.28033996,25336528,0.0,0.0,0.25,0.5,0.0,-4.109358310699463,-4.435150623321533,0.0,0.0,0.0,0,-63
1686004571.38029981,25436488,0.0,0.0,0.25,0.5,0.0,-4.179011344909668,-4.424048900604248,0.0,0.0,0.0,0,-63
1686004571.48025990,25536448,0.0,0.0,0.25,0.5,0.0,-4.24832820892334,-4.558302879333496,0.0,0.0,0.0,0,-64
1686004571.58021998,25636408,0.0,0.0,0.25,0.5,0.0,-4.320359706878662,-4.660240173339844,0.0,0.0,0.0,0,-64
1686004571.68017983,25736368,0.0,0.0,0.25,0.5,0.0,-4.396427631378174,-4.4131927490234375,0.0,0.0,0.0,0,-65
1686004571.78013992,25836328,0.0,0.0,0.25,0.5,0.0,-4.461130142211914,-4.503133773803711,0.0,0.0,0.0,0,-65
1686004571.88010001,25936288,0.0,0.0,0.25,0.5,0.0,-4.515044689178467,-4.893838405609131,0.0,0.0,0.0,0,-64
1686004571.98005986,26036248,0.0,0.0,0.25,0.5,0.0,-4.576175212860107,-4.83677864074707,0.0,0.0,0.0,0,-64
1686004572.08001995,26136208,0.0,0.0,0.25,0.5,0.0,-4.642004489898682,-4.8365044593811035,0.0,0.0,0.0,0,-64
1686004572.17997980,26236168,0.0,0.0,0.25,0.5,0.0,-4.706506729125977,-4.821178913116455,0.0,0.0,0.0,0,-64
1686004572.27993989,26336128,0.0,0.0,0.25,0.5,0.0,-4.765453815460205,-4.7841033935546875,0.0,0.0,0.0,0,-64
1686004572.37989998,26436088,0.0,0.0,0.25,0.5,0.0,-4.814811706542969,-5.068137168884277,0.0,0.0,0.0,0,-62
1686004572.47985983,26536048,0.0,0.0,0.25,0.5,0.0,-4.866629600524902,-4.9237284660339355,0.0,0.0,0.0,0,-62
1686004572.57981992,26636008,0.0,0.0,0.25,0.5,0.0,-4.914154052734375,-5.284623146057129,0.0,0.0,0.0,0,-61
1686004572.68061280,26736801,0.0,0.0,0.25,0.5,0.0,-4.970593452453613,-5.199586391448975,0.0,0.0,0.0,0,-60
1686004572.78057289,26836761,0.0,0.0,0.25,0.5,0.0,-5.030158996582031,-5.286502838134766,0.0,0.0,0.0,0,-60
1686004572.88053298,26936721,0.0,0.0,0.25,0.5,0.0,-5.091055870056152,-5.192980766296387,0.0,0.0,0.0,0,-60
1686004572.98049283,27036681,0.0,0.0,0.25,0.5,0.0,-5.147158622741699,-5.270727634429932,0.0,0.0,0.0,0,-60
1686004573.08045292,27136641,0.0,0.0,0.25,0.5,0.0,-5.197307586669922,-5.3151044845581055,0.0,0.0,0.0,0,-59
1686004573.18041301,27236601,0.0,0.0,0.25,0.5,0.0,-5.243307590484619,-5.58035135269165,0.0,0.0,0.0,0,-58
1686004573.28037286,27336561,0.0,0.0,0.25,0.5,0.0,-5.2945990562438965,-5.740291118621826,0.0,0.0,0.0,0,-58
1686004573.38033295,27436521,0.0,0.0,0.25,0.5,0.0,-5.358342170715332,-5.571957111358643,0.0,0.0,0.0,0,-58
1686004573.48029280,27536481,0.0,0.0,0.25,0.5,0.0,-5.424044609069824,-5.544252872467041,0.0,0.0,0.0,0,-59
1686004573.58025289,27636441,0.0,0.0,0.25,0.5,0.0,-5.482072830200195,-5.835433006286621,0.0,0.0,0.0,0,-59
1686004573.68021297,27736401,0.0,0.0,0.25,0.5,0.0,-5.54262638092041,-5.824925899505615,0.0,0.0,0.0,0,-59
1686004573.78017282,27836361,0.0,0.0,0.25,0.5,0.0,-5.606795310974121,-5.812192916870117,0.0,0.0,0.0,0,-59
1686004573.88013291,27936321,0.0,0.0,0.25,0.5,0.0,-5.669079303741455,-5.79961633682251,0.0,0.0,0.0,0,-59
1686004573.98009300,28036281,0.0,0.0,0.25,0.5,0.0,-5.726029396057129,-5.8819074630737305,0.0,0.0,0.0,0,-59
1686004574.08005285,28136241,0.0,0.0,0.25,0.5,0.0,-5.777731418609619,-5.889449119567871,0.0,0.0,0.0,0,-58
1686004574.18001294,28236201,0.0,0.0,0.25,0.5,0.0,-5.824785232543945,-5.96057653427124,0.0,0.0,0.0,0,-57
1686004574.27997279,28336161,0.0,0.0,0.25,0.5,0.0,-5.868355751037598,-5.995957374572754,0.0,0.0,0.0,0,-56
1686004574.37993288,28436121,0.0,0.0,0.25,0.5,0.0,-5.909374713897705,-6.094095230102539,0.0,0.0,0.0,0,-55
1686004574.47989297,28536081,0.0,0.0,0.25,0.5,0.0,-5.950310707092285,-6.207909107208252,0.0,0.0,0.0,0,-54
1686004574.57985282,28636041,0.0,0.0,0.25,0.5,0.0,-5.994879245758057,-6.269962310791016,0.0,0.0,0.0,0,-53
1686004574.67981291,28736001,0.0,0.0,0.25,0.5,0.0,-6.043928623199463,-6.60636568069458,0.0,0.0,0.0,0,-53
1686004574.78060579,28836794,0.0,0.0,0.25,0.5,0.0,-6.107940673828125,-6.395447254180908,0.0,0.0,0.0,0,-53
1686004574.88056588,28936754,0.0,0.0,0.25,0.5,0.0,-6.186349391937256,-6.5847344398498535,0.0,0.0,0.0,0,-55
1686004574.98052597,29036714,0.0,0.0,0.25,0.5,0.0,-6.2578277587890625,-6.739503383636475,0.0,0.0,0.0,0,-56
1686004575.08048582,29136674,0.0,0.0,0.25,0.5,0.0,-6.340272903442383,-6.532201290130615,0.0,0.0,0.0,0,-58
1686004575.18044591,29236634,0.0,0.0,0.25,0.5,0.0,-6.415291786193848,-6.924135208129883,0.0,0.0,0.0,0,-59
1686004575.28040600,29336594,0.0,0.0,0.25,0.5,0.0,-6.495393753051758,-6.68880033493042,0.0,0.0,0.0,0,-61
1686004575.38036585,29436554,0.0,0.0,0.25,0.5,0.0,-6.573557376861572,-6.961984157562256,0.0,0.0,0.0,0,-62
1686004575.48032594,29536514,0.0,0.0,0.25,0.5,0.0,-6.651674270629883,-6.7587971687316895,0.0,0.0,0.0,0,-63
1686004575.58028579,29636474,0.0,0.0,0.25,0.5,0.0,-6.723426818847656,-7.15649938583374,0.0,0.0,0.0,0,-64
1686004575.68024588,29736434,0.0,0.0,0.25,0.5,0.0,-6.7976274490356445,-7.083073139190674,0.0,0.0,0.0,0,-64
1686004575.78020597,29836394,0.0,0.0,0.25,0.5,0.0,-6.876367568969727,-7.253439903259277,0.0,0.0,0.0,0,-65
1686004575.88016582,29936354,0.0,0.0,0.25,0.5,0.0,-6.957264423370361,-7.09213399887085,0.0,0.0,0.0,0,-66
1686004575.98012590,30036314,0.0,0.0,0.25,0.5,0.0,-7.032369613647461,-7.29001522064209,0.0,0.0,0.0,0,-67
1686004576.08008599,30136274,0.0,0.0,0.25,0.5,0.0,-7.104065895080566,-7.284363269805908,0.0,0.0,0.0,0,-67
1686004576.18004584,30236234,0.0,0.0,0.25,0.5,0.0,-7.173150539398193,-7.33359956741333,0.0,0.0,0.0,0,-67
1686004576.28000593,30336194,0.0,0.0,0.25,0.5,0.0,-7.238138675689697,-7.245941638946533,0.0,0.0,0.0,0,-67
1686004576.37996578,30436154,0.0,0.0,0.25,0.5,0.0,-7.2939629554748535,-7.585888862609863,0.0,0.0,0.0,0,-66
1686004576.47992587,30536114,0.0,0.0,0.25,0.5,0.0,-7.350244045257568,-7.450340270996094,0.0,0.0,0.0,0,-66
1686004576.57988596,30636074,0.0,0.0,0.25,0.5,0.0,-7.406128883361816,-7.681639671325684,0.0,0.0,0.0,0,-65
1686004576.67984581,30736034,0.0,0.0,0.25,0.5,0.0,-7.46566104888916,-7.485233783721924,0.0,0.0,0.0,0,-65
1686004576.77980590,30835994,0.0,0.0,0.25,0.5,0.0,-7.518544673919678,-7.892902374267578,0.0,0.0,0.0,0,-64
1686004576.88059878,30936787,0.0,0.0,0.25,0.5,0.0,-7.579508304595947,-7.881561756134033,0.0,0.0,0.0,0,-64
1686004576.98055887,31036747,0.0,0.0,0.25,0.5,0.0,-7.646817684173584,-7.974831581115723,0.0,0.0,0.0,0,-64
1686004577.08051896,31136707,0.0,0.0,0.25,0.5,0.0,-7.718472003936768,-7.7855143547058105,0.0,0.0,0.0,0,-65
1686004577.18047881,31236667,0.0,0.0,0.25,0.5,0.0,-7.784162998199463,-8.130319595336914,0.0,0.0,0.0,0,-65
1686004577.28043890,31336627,0.0,0.0,0.25,0.5,0.0,-7.850918292999268,-7.934945106506348,0.0,0.0,0.0,0,-65
1686004577.38039899,31436587,0.0,0.0,0.25,0.5,0.0,-7.914185523986816,-8.260189056396484,0.0,0.0,0.0,0,-65
1686004577.48035884,31536547,0.0,0.0,0.25,0.5,0.0,-7.979616641998291,-8.186920166015625,0.0,0.0,0.0,0,-65
1686004577.58031893,31636507,0.0,0.0,0.25,0.5,0.0,-8.046812057495117,-8.232958793640137,0.0,0.0,0.0,0,-65
1686004577.68027878,31736467,0.0,0.0,0.25,0.5,0.0,-8.111255645751953,-8.413717269897461,0.0,0.0,0.0,0,-65
1686004577.78023887,31836427,0.0,0.0,0.25,0.5,0.0,-8.17829704284668,-8.519415855407715,0.0,0.0,0.0,0,-65
1686004577.88019896,31936387,0.0,0.0,0.25,0.5,0.0,-8.250824928283691,-8.501678466796875,0.0,0.0,0.0,0,-66
1686004577.98015881,32036347,0.0,0.0,0.25,0.5,0.0,-8.324686050415039,-8.54977798461914,0.0,0.0,0.0,0,-67
1686004578.08011889,32136307,0.0,0.0,0.25,0.5,0.0,-8.396726608276367,-8.607505798339844,0.0,0.0,0.0,0,-67
1686004578.18007898,32236267,0.0,0.0,0.25,0.5,0.0,-8.466649055480957,-8.426795959472656,0.0,0.0,0.0,0,-67
1686004578.28003883,32336227,0.0,0.0,0.25,0.5,0.0,-8.523082733154297,-8.729658126831055,0.0,0.0,0.0,0,-66
1686004578.37999892,32436187,0.0,0.0,0.25,0.5,0.0,-8.577747344970703,-8.78438663482666,0.0,0.0,0.0,0,-65
1686004578.47995901,32536147,0.0,0.0,0.25,0.5,0.0,-8.634395599365234,-8.935335159301758,0.0,0.0,0.0,0,-65
1686004578.57991886,32636107,0.0,0.0,0.25,0.5,0.0,-8.695947647094727,-8.76932430267334,0.0,0.0,0.0,0,-65
1686004578.67987895,32736067,0.0,0.0,0.25,0.5,0.0,-8.75406551361084,-8.775174140930176,0.0,0.0,0.0,0,-64
1686004578.77983880,32836027,0.0,0.0,0.25,0.5,0.0,-8.802750587463379,-8.834939002990723,0.0,0.0,0.0,0,-63
1686004578.87979889,32935987,0.0,0.0,0.25,0.5,0.0,-8.841142654418945,-9.015962600708008,0.0,0.0,0.0,0,-61
1686004578.98059201,33036780,0.0,0.0,0.25,0.5,0.0,-8.88339900970459,-9.210065841674805,0.0,0.0,0.0,0,-60
1686004579.08055186,33136740,0.0,0.0,0.25,0.5,0.0,-8.933799743652344,-9.122167587280273,0.0,0.0,0.0,0,-59
1686004579.18051195,33236700,0.0,0.0,0.25,0.5,0.0,-8.987128257751465,-9.409029960632324,0.0,0.0,0.0,0,-59
1686004579.28047180,33336660,0.0,0.0,0.25,0.5,0.0,-9.05020809173584,-9.440726280212402,0.0,0.0,0.0,0,-59
1686004579.38043189,33436620,0.0,0.0,0.25,0.5,0.0,-9.121983528137207,-9.494210243225098,0.0,0.0,0.0,0,-60
1686004579.48039198,33536580,0.0,0.0,0.25,0.5,0.0,-9.198062896728516,-9.20733642578125,0.0,0.0,0.0,0,-61
1686004579.58035183,33636540,0.0,0.0,0.25,0.5,0.0,-9.263995170593262,-9.501510620117188,0.0,0.0,0.0,0,-62
1686004579.68031192,33736500,0.0,0.0,0.25,0.5,0.0,-9.32392406463623,-9.567648887634277,0.0,0.0,0.0,0,-61
1686004579.78027201,33836460,0.0,0.0,0.25,0.5,0.0,-9.38463306427002,-9.537656784057617,0.0,0.0,0.0,0,-61
1686004579.88023186,33936420,0.0,0.0,0.25,0.5,0.0,-9.442544937133789,-9.474684715270996,0.0,0.0,0.0,0,-61
1686004579.98019195,34036380,0.0,0.0,0.25,0.5,0.0,-9.490137100219727,-9.81422233581543,0.0,0.0,0.0,0,-60
1686004580.08015180,34136340,0.0,0.0,0.25,0.5,0.0,-9.543218612670898,-9.74445915222168,0.0,0.0,0.0,0,-59
1686004580.18011189,34236300,0.0,0.0,0.25,0.5,0.0,-9.598069190979004,-9.730228424072266,0.0,0.0,0.0,0,-59
1686004580.28007197,34336260,0.0,0.0,0.25,0.5,0.0,-9.649463653564453,-9.891526222229004,0.0,0.0,0.0,0,-58
1686004580.38003182,34436220,0.0,0.0,0.25,0.5,0.0,-9.700998306274414,-9.767885208129883,0.0,0.0,0.0,0,-57
1686004580.47999191,34536180,0.0,0.0,0.25,0.5,0.0,-9.747960090637207,-10.037027359008789,0.0,0.0,0.0,0,-57
1686004580.57995200,34636140,0.0,0.0,0.25,0.5,0.0,-9.795723915100098,-9.887303352355957,0.0,0.0,0.0,0,-56
1686004580.67991185,34736100,0.0,0.0,0.25,0.5,0.0,-9.841235160827637,-10.112444877624512,0.0,0.0,0.0,0,-55
1686004580.77987194,34836060,0.0,0.0,0.25,0.5,0.0,-9.88870620727539,-10.111937522888184,0.0,0.0,0.0,0,-54
1686004580.87983179,34936020,0.0,0.0,0.25,0.5,0.0,-9.93832015991211,-10.127395629882812,0.0,0.0,0.0,0,-54
1686004580.97979188,35035980,0.0,0.0,0.25,0.5,0.0,-9.986919403076172,-10.47482681274414,0.0,0.0,0.0,0,-53
1686004581.08058500,35136773,0.0,0.0,0.25,0.5,0.0,-10.047101020812988,-10.449732780456543,0.0,0.0,0.0,0,-54
1686004581.18054485,35236733,0.0,0.0,0.25,0.5,0.0,-10.116287231445312,-10.53649616241455,0.0,0.0,0.0,0,-55
1686004581.28050494,35336693,0.0,0.0,0.25,0.5,0.0,-10.19168472290039,-10.666619300842285,0.0,0.0,0.0,0,-56
1686004581.38046479,35436653,0.0,0.0,0.25,0.5,0.0,-10.274636268615723,-10.589132308959961,0.0,0.0,0.0,0,-58
1686004581.48042488,35536613,0.0,0.0,0.25,0.5,0.0,-10.356939315795898,-10.440201759338379,0.0,0.0,0.0,0,-60
1686004581.58038497,35636573,0.0,0.0,0.5,0.5,0.0,-10.423840522766113,-10.610002517700195,0.0,0.0,0.0,0,-50
1686004581.68034482,35736533,0.0,0.0,0.5,0.5,0.0,-10.46876335144043,-10.875860214233398,0.0,0.0,0.0,0,-37
1686004581.78030491,35836493,0.0,0.0,0.5,0.5,0.0,-10.509523391723633,-10.636933326721191,0.0,0.0,0.0,0,-30
1686004581.88026500,35936453,0.0,0.0,0.5,0.5,0.0,-10.539186477661133,-10.647966384887695,0.0,0.0,0.0,0,-25
1686004581.98022485,36036413,0.0,0.0,0.5,0.5,0.0,-10.55531120300293,-10.938517570495605,0.0,0.0,0.0,0,-20
1686004582.08018494,36136373,0.0,0.0,0.5,0.5,0.0,-10.571696281433105,-10.886487007141113,0.0,0.0,0.0,0,-17
1686004582.18014479,36236333,0.0,0.0,0.5,0.5,0.0,-10.591052055358887,-10.948006629943848,0.0,0.0,0.0,0,-15
1686004582.28010488,36336293,0.0,0.0,0.5,0.5,0.0,-10.612401962280273,-10.93445873260498,0.0,0.0,0.0,0,-14
1686004582.38006496,36436253,0.0,0.0,0.5,0.5,0.0,-10.63547420501709,-10.729841232299805,0.0,0.0,0.0,0,-13
1686004582.48002481,36536213,0.0,0.0,0.5,0.5,0.0,-10.64687728881836,-10.998151779174805,0.0,0.0,0.0,0,-11
1686004582.57998490,36636173,0.0,0.0,0.5,0.5,0.0,-10.658265113830566,-10.869526863098145,0.0,0.0,0.0,0,-10
1686004582.67994499,36736133,0.0,0.0,0.5,0.5,0.0,-10.66823959350586,-11.076547622680664,0.0,0.0,0.0,0,-9
1686004582.77990484,36836093,0.0,0.0,0.5,0.5,0.0,-10.681676864624023,-10.99201774597168,0.0,0.0,0.0,0,-8
1686004582.87986493,36936053,0.0,0.0,0.5,0.5,0.0,-10.697794914245605,-10.813051223754883,0.0,0.0,0.0,0,-8
1686004582.97982478,37036013,0.0,0.0,0.5,0.5,0.0,-10.706087112426758,-10.973533630371094,0.0,0.0,0.0,0,-7
1686004583.07978487,37135973,0.0,0.0,0.5,0.5,0.0,-10.710123062133789,-10.77978229522705,0.0,0.0,0.0,0,-6
1686004583.18057799,37236766,0.0,0.0,0.5,0.5,0.0,-10.70466136932373,-10.818623542785645,0.0,0.0,0.0,0,-4
1686004583.28053784,37336726,0.0,0.0,0.5,0.5,0.0,-10.693493843078613,-10.93325138092041,0.0,0.0,0.0,0,-2
1686004583.38049793,37436686,0.0,0.0,0.5,0.5,0.0,-10.68273639678955,-11.116111755371094,0.0,0.0,0.0,0,-1
1686004583.48045778,37536646,0.0,0.0,0.5,0.5,0.0,-10.682461738586426,-10.862335205078125,0.0,0.0,0.0,0,0
1686004583.58041787,37636606,0.0,0.0,0.5,0.5,0.0,-10.680259704589844,-11.124701499938965,0.0,0.0,0.0,0,0
1686004583.68037796,37736566,0.0,0.0,0.5,0.5,0.0,-10.684957504272461,-10.926971435546875,0.0,0.0,0.0,0,0
1686004583.78033781,37836526,0.0,0.0,0.5,0.5,0.0,-10.688953399658203,-11.052806854248047,0.0,0.0,0.0,0,0
1686004583.88029790,37936486,0.0,0.0,0.5,0.5,0.0,-10.695037841796875,-11.058830261230469,0.0,0.0,0.0,0,0
1686004583.98025799,38036446,0.0,0.0,0.5,0.5,0.0,-10.704179763793945,-10.792694091796875,0.0,0.0,0.0,0,0
1686004584.08021784,38136406,0.0,0.0,0.5,0.5,0.0,-10.702991485595703,-10.970291137695312,0.0,0.0,0.0,0,0
1686004584.18017793,38236366,0.0,0.0,0.5,0.5,0.0,-10.698625564575195,-10.913325309753418,0.0,0.0,0.0,0,1
1686004584.28013778,38336326,0.0,0.0,0.5,0.5,0.0,-10.692193031311035,-10.918427467346191,0.0,0.0,0.0,0,2
1686004584.38009787,38436286,0.0,0.0,0.5,0.5,0.0,-10.683443069458008,-11.051078796386719,0.0,0.0,0.0,0,3
1686004584.48005795,38536246,0.0,0.0,0.5,0.5,0.0,-10.678507804870605,-11.017802238464355,0.0,0.0,0.0,0,4
1686004584.58001781,38636206,0.0,0.0,0.5,0.5,0.0,-10.67799186706543,-11.106803894042969,0.0,0.0,0.0,0,4
1686004584.67997789,38736166,0.0,0.0,0.5,0.5,0.0,-10.683390617370605,-10.996329307556152,0.0,0.0,0.0,0,4
1686004584.77993798,38836126,0.0,0.0,0.5,0.5,0.0,-10.691547393798828,-10.734914779663086,0.0,0.0,0.0,0,3
1686004584.87989783,38936086,0.0,0.0,0.5,0.5,0.0,-10.684934616088867,-10.918869018554688,0.0,0.0,0.0,0,4
1686004584.97985792,39036046,0.0,0.0,0.5,0.5,0.0,-10.673847198486328,-11.057913780212402,0.0,0.0,0.0,0,5
1686004585.07981801,39136006,0.0,0.0,0.5,0.5,0.0,-10.667668342590332,-10.964256286621094,0.0,0.0,0.0,0,5
1686004585.18061090,39236799,0.0,0.0,0.5,0.5,0.0,-10.66462230682373,-11.04001235961914,0.0,0.0,0.0,0,5
1686004585.28057098,39336759,0.0,0.0,0.5,0.5,0.0,-10.665939331054688,-11.080086708068848,0.0,0.0,0.0,0,5
1686004585.38053083,39436719,0.0,0.0,0.5,0.5,0.0,-10.672568321228027,-10.914265632629395,0.0,0.0,0.0,0,4
1686004585.48049092,39536679,0.0,0.0,0.5,0.5,0.0,-10.676154136657715,-10.815655708312988,0.0,0.0,0.0,0,4
1686004585.58045101,39636639,0.0,0.0,0.5,0.5,0.0,-10.670681953430176,-10.874749183654785,0.0,0.0,0.0,0,4
1686004585.68041086,39736599,0.0,0.0,0.5,0.5,0.0,-10.66023063659668,-10.921446800231934,0.0,0.0,0.0,0,5
1686004585.78037095,39836559,0.0,0.0,0.5,0.5,0.0,-10.649638175964355,-10.71159553527832,0.0,0.0,0.0,0,5
1686004585.88033080,39936519,0.0,0.0,0.5,0.5,0.0,-10.628866195678711,-11.026544570922852,0.0,0.0,0.0,0,7
1686004585.98029089,40036479,0.0,0.0,0.5,0.5,0.0,-10.61646556854248,-10.8531494140625,0.0,0.0,0.0,0,7
1686004586.08025098,40136439,0.0,0.0,0.5,0.5,0.0,-10.605531692504883,-10.79235553741455,0.0,0.0,0.0,0,8
1686004586.18021083,40236399,0.0,0.0,0.5,0.5,0.0,-10.591005325317383,-10.90660285949707,0.0,0.0,0.0,0,8
1686004586.28017092,40336359,0.0,0.0,0.5,0.5,0.0,-10.578892707824707,-10.624205589294434,0.0,0.0,0.0,0,8
1686004586.38013101,40436319,0.0,0.0,0.5,0.5,0.0,-10.557808876037598,-10.740995407104492,0.0,0.0,0.0,0,10
1686004586.48009086,40536279,0.0,0.0,0.5,0.5,0.0,-10.532636642456055,-10.700319290161133,0.0,0.0,0.0,0,11
1686004586.58005095,40636239,0.0,0.0,0.5,0.5,0.0,-10.505459785461426,-10.804466247558594,0.0,0.0,0.0,0,12
1686004586.68001080,40736199,0.0,0.0,0.5,0.5,0.0,-10.481889724731445,-10.61176872253418,0.0,0.0,0.0,0,13
1686004586.77997088,40836159,0.0,0.0,0.5,0.5,0.0,-10.456233978271484,-10.902722358703613,0.0,0.0,0.0,0,14
1686004586.87993097,40936119,0.0,0.0,0.5,0.5,0.0,-10.437423706054688,-10.805583953857422,0.0,0.0,0.0,0,14
1686004586.97989082,41036079,0.0,0.0,0.5,0.5,0.0,-10.426898956298828,-10.69078540802002,0.0,0.0,0.0,0,14
1686004587.07985091,41136039,0.0,0.0,0.5,0.5,0.0,-10.41645336151123,-10.872763633728027,0.0,0.0,0.0,0,14
1686004587.17981100,41235999,0.0,0.0,0.5,0.5,0.0,-10.412677764892578,-10.755779266357422,0.0,0.0,0.0,0,13
1686004587.28060389,41336792,0.0,0.0,0.5,0.5,0.0,-10.412067413330078,-10.914815902709961,0.0,0.0,0.0,0,12
1686004587.38056397,41436752,0.0,0.0,0.5,0.5,0.0,-10.41755199432373,-10.639087677001953,0.0,0.0,0.0,0,11
1686004587.48052382,41536712,0.0,0.0,0.5,0.5,0.0,-10.41834831237793,-10.6107759475708,0.0,0.0,0.0,0,10
1686004587.58048391,41636672,0.0,0.0,0.5,0.5,0.0,-10.411665916442871,-10.830434799194336,0.0,0.0,0.0,0,10
1686004587.68044400,41736632,0.0,0.0,0.5,0.5,0.0,-10.40821647644043,-10.637063980102539,0.0,0.0,0.0,0,9
1686004587.78040385,41836592,0.0,0.0,0.5,0.5,0.0,-10.402382850646973,-10.741320610046387,0.0,0.0,0.0,0,9
1686004587.88036394,41936552,0.0,0.0,0.5,0.5,0.0,-10.397367477416992,-10.744913101196289,0.0,0.0,0.0,0,9
1686004587.98032379,42036512,0.0,0.0,0.5,0.5,0.0,-10.394942283630371,-10.62716007232666,0.0,0.0,0.0,0,8
1686004588.08028388,42136472,0.0,0.0,0.5,0.5,0.0,-10.389477729797363,-10.588905334472656,0.0,9.47,0.0,0,8
1686004588.18024397,42236432,0.0,0.0,0.5,0.5,0.0,-10.37890625,-10.708313941955566,0.0,9.47,0.0,0,9
1686004588.28020382,42336392,0.0,0.0,0.5,0.5,0.0,-10.370217323303223,-10.818629264831543,0.0,9.47,0.0,0,9
1686004588.38016391,42436352,0.0,0.0,0.5,0.5,0.0,-10.369831085205078,-10.652024269104004,0.0,9.47,0.0,0,8
1686004588.48012400,42536312,0.0,0.0,0.5,0.5,0.0,-10.369800567626953,-10.465171813964844,0.0,9.47,0.0,0,7
1686004588.58008385,42636272,0.0,0.0,0.5,0.5,0.0,-10.35956859588623,-10.576946258544922,0.0,9.49,0.0,0,7
1686004588.68004394,42736232,0.0,0.0,0.5,0.5,0.0,-10.344945907592773,-10.626736640930176,0.0,9.49,0.0,0,8
1686004588.78000379,42836192,0.0,0.0,0.5,0.5,0.0,-10.331666946411133,-10.544709205627441,0.0,9.5,0.0,0,8
1686004588.87996387,42936152,0.0,0.0,0.5,0.5,0.0,-10.317068099975586,-10.49982738494873,0.0,9.5,0.0,0,9
1686004588.97992396,43036112,0.0,0.0,0.5,0.5,0.0,-10.29914665222168,-10.75757884979248,0.0,9.5,0.0,0,10
1686004589.07988381,43136072,0.0,0.0,0.5,0.5,0.0,-10.2893648147583,-10.399439811706543,0.0,9.5,0.0,0,9
1686004589.17984390,43236032,0.0,0.0,0.5,0.5,0.0,-10.277223587036133,-10.353625297546387,0.0,9.51,0.0,0,10
1686004589.27980399,43335992,0.0,0.0,0.5,0.5,0.0,-10.254758834838867,-10.376153945922852,0.0,9.51,0.0,0,11
1686004589.38059688,43436785,0.0,0.0,0.5,0.5,0.0,-10.223482131958008,-10.554466247558594,0.0,9.52,0.0,0,12
1686004589.48055696,43536745,0.0,0.0,0.5,0.5,0.0,-10.199572563171387,-10.52403450012207,0.0,9.540000000000001,0.0,0,13
1686004589.58051682,43636705,0.29152944684028625,0.0,0.42351770401000977,0.5,-10.182960510253906,-10.18143367767334,-10.359926223754883,9.49,9.540000000000001,0.0,12,13
1686004589.68047690,43736665,0.3842790126800537,0.0,0.36374667286872864,0.5,-10.172901153564453,-10.16491985321045,-10.46389389038086,9.49,9.55,0.0,5,7
1686004589.78043699,43836625,0.4040994644165039,0.0,0.3780810534954071,0.5,-10.166732788085938,-10.155454635620117,-10.600899696350098,9.49,9.58,0.0,1,2
1686004589.88039684,43936585,0.4516512453556061,0.0,0.40424543619155884,0.5,-10.16342544555664,-10.159674644470215,-10.482166290283203,9.49,9.59,0.0,1,-2
1686004589.98035693,44036545,0.5054518580436707,0.0,0.4535922408103943,0.5,-10.162344932556152,-10.171079635620117,-10.679142951965332,9.49,9.6,0.0,2,-4
1686004590.08031678,44136505,0.5980687737464905,0.0,0.5129686594009399,0.5,-10.163017272949219,-10.192511558532715,-10.442672729492188,9.49,9.6,0.0,7,-4
1686004590.18027687,44236465,0.6475870609283447,0.0,0.6017507314682007,0.5,-10.165105819702148,-10.20931339263916,-10.363332748413086,9.49,9.620000000000001,0.0,10,-3
1686004590.28023696,44336425,0.5682047605514526,0.0,0.5947189331054688,0.5,-10.16845417022705,-10.212732315063477,-10.556102752685547,9.49,9.64,0.0,9,1
1686004590.38019681,44436385,0.5069835782051086,0.0,0.5399139523506165,0.5,-10.172995567321777,-10.212718963623047,-10.397601127624512,9.49,9.67,0.0,6,4
1686004590.48015690,44536345,0.41720113158226013,0.0,0.4771144986152649,0.5,-10.178766250610352,-10.207189559936523,-10.364094734191895,9.49,9.700000000000001,0.0,2,5
1686004590.58011699,44636305,0.34013062715530396,0.0,0.3850661814212799,0.5,-10.185837745666504,-10.19533634185791,-10.548639297485352,9.49,9.71,0.0,-4,4
1686004590.68007684,44736265,0.3816438317298889,0.0,0.35751593112945557,0.5,-10.194218635559082,-10.191606521606445,-10.384481430053711,9.49,9.72,0.0,-9,-2
1686004590.78003693,44836225,0.38990482687950134,0.0,0.370926171541214,0.5,-10.203865051269531,-10.192371368408203,-10.55483627319336,9.49,9.72,0.0,-13,-7
1686004590.87999678,44936185,0.4130285382270813,0.0,0.38342079520225525,0.5,-10.214673042297363,-10.203373908996582,-10.433317184448242,9.49,9.71,0.0,-14,-12
1686004590.97995687,45036145,0.42527180910110474,0.0,0.40481966733932495,0.5,-10.226468086242676,-10.21719741821289,-10.592851638793945,9.49,9.700000000000001,0.0,-14,-14
1686004591.07991695,45136105,0.4453981816768646,0.0,0.42058229446411133,0.5,-10.239025115966797,-10.236790657043457,-10.402411460876465,9.49,9.68,0.0,-13,-15
1686004591.17987680,45236065,0.4475010633468628,0.0,0.44163140654563904,0.5,-10.252050399780273,-10.252150535583496,-10.707572937011719,9.49,9.67,0.0,-13,-14
1686004591.27983689,45336025,0.46205514669418335,0.0,0.4443965256214142,0.5,-10.265344619750977,-10.273839950561523,-10.457403182983398,9.49,9.67,0.0,-10,-14
1686004591.37979698,45435985,0.48172956705093384,0.0,0.4681236147880554,0.5,-10.278843879699707,-10.29135799407959,-10.638564109802246,9.49,9.68,0.0,-9,-12
1686004591.48058987,45536778,0.4749864339828491,0.0,0.4673680365085602,0.5,-10.292696952819824,-10.309035301208496,-10.685697555541992,9.49,9.68,0.0,-8,-11
1686004591.58054996,45636738,0.48859918117523193,0.0,0.47285720705986023,0.5,-10.306645393371582,-10.329550743103027,-10.84609317779541,9.49,9.68,0.0,-7,-10
1686004591.68050981,45736698,0.5585029125213623,0.0,0.504727840423584,0.5,-10.32076644897461,-10.357275009155273,-10.74547290802002,9.49,9.68,0.0,-3,-11
1686004591.78046989,45836658,0.6520822644233704,0.0,0.5875973105430603,0.5,-10.335030555725098,-10.38863468170166,-10.48173713684082,9.49,9.68,0.0,1,-10
1686004591.88042998,45936618,0.5911939144134521,0.0,0.6167086362838745,0.5,-10.349382400512695,-10.406011581420898,-10.711997032165527,9.49,9.67,0.0,2,-5
1686004591.98038983,46036578,0.5219228863716125,0.0,0.5676890015602112,0.5,-10.363722801208496,-10.4129638671875,-10.47742748260498,9.49,9.66,0.0,0,-1
1686004592.08034992,46136538,0.4367888867855072,0.0,0.5093482136726379,0.5,-10.377925872802734,-10.409036636352539,-10.624488830566406,9.49,9.63,0.0,-4,0
1686004592.18031001,46236498,0.3050517439842224,0.0,0.3978436291217804,0.5,-10.391751289367676,-10.399450302124023,-10.523406028747559,9.49,9.620000000000001,0.0,-11,0
1686004592.28026986,46336458,0.3343455195426941,0.0,0.35296517610549927,0.5,-10.405106544494629,-10.389185905456543,-10.840271949768066,9.49,9.6,0.0,-17,-4
1686004592.38022995,46436418,0.3824508786201477,0.0,0.36121341586112976,0.5,-10.417877197265625,-10.393961906433105,-10.720834732055664,9.49,9.58,0.0,-19,-12
1686004592.48018980,46536378,0.44312185049057007,0.0,0.409759521484375,0.5,-10.429944038391113,-10.412745475769043,-10.70530891418457,9.49,9.55,0.0,-16,-16
1686004592.58014989,46636338,0.4992547631263733,0.0,0.46506935358047485,0.5,-10.441141128540039,-10.43415355682373,-10.897684097290039,9.49,9.52,0.0,-12,-16
1686004592.68010998,46736298,0.6122449636459351,0.0,0.5366876721382141,0.5,-10.451302528381348,-10.462564468383789,-10.572117805480957,9.49,9.5,0.0,-6,-15
1686004592.78006983,46836258,0.6148223280906677,0.0,0.6160985827445984,0.5,-10.46030044555664,-10.480996131896973,-10.728720664978027,9.49,9.5,0.0,-2,-11
1686004592.88002992,46936218,0.5641732215881348,0.0,0.6008626818656921,0.5,-10.468170166015625,-10.489938735961914,-10.76850414276123,9.49,9.48,0.0,0,-5
1686004592.97999001,47036178,0.5344451665878296,0.0,0.570360004901886,0.5,-10.474896430969238,-10.494565963745117,-10.828422546386719,9.49,9.47,0.0,0,-2
1686004593.07994986,47136138,0.5275620222091675,0.0,0.5482209324836731,0.5,-10.480518341064453,-10.4995698928833,-10.764128684997559,9.49,9.49,0.0,0,0
1686004593.17990994,47236098,0.525056779384613,0.0,0.5398536920547485,0.5,-10.485204696655273,-10.50311279296875,-10.866609573364258,9.49,9.5,0.0,1,0
1686004593.27986979,47336058,0.532564103603363,0.0,0.5358179211616516,0.5,-10.489145278930664,-10.508572578430176,-10.729316711425781,9.49,9.49,0.0,2,0
1686004593.37982988,47436018,0.5390685200691223,0.0,0.5458235740661621,0.5,-10.492386817932129,-10.510612487792969,-10.90947437286377,9.49,9.47,0.0,2,1
1686004593.47978997,47535978,0.5476877689361572,0.0,0.5477767586708069,0.5,-10.494885444641113,-10.515874862670898,-10.824793815612793,9.49,9.46,0.0,4,1
1686004593.58058286,47636771,0.5780839920043945,0.0,0.5692774057388306,0.5,-10.49662971496582,-10.521512985229492,-10.881702423095703,9.49,9.43,0.0,6,2
1686004593.68054295,47736731,0.589773416519165,0.0,0.588153600692749,0.5,-10.497481346130371,-10.527578353881836,-10.601371765136719,9.49,9.42,0.0,8,4
1686004593.78050280,47836691,0.5538098216056824,0.0,0.5893245935440063,0.5,-10.497424125671387,-10.522017478942871,-10.692510604858398,9.49,9.39,0.0,7,7
1686004593.88046288,47936651,0.4883488416671753,0.0,0.5473915934562683,0.5,-10.496429443359375,-10.506155014038086,-10.739827156066895,9.49,9.39,0.0,4,8
1686004593.98042297,48036611,0.41365164518356323,0.0,0.48472461104393005,0.5,-10.494434356689453,-10.488884925842285,-10.825994491577148,9.49,9.38,0.0,0,8
1686004594.08038282,48136571,0.3916302025318146,0.0,0.42357930541038513,0.5,-10.491476058959961,-10.47695541381836,-10.61343002319336,9.49,9.38,0.0,0,7
1686004594.18034291,48236531,0.404384583234787,0.0,0.41897574067115784,0.5,-10.487592697143555,-10.463945388793945,-10.782017707824707,9.49,9.370000000000001,0.0,-2,4
1686004594.28030300,48336491,0.4194088578224182,0.0,0.41892337799072266,0.5,-10.482839584350586,-10.456204414367676,-10.583243370056152,9.49,9.370000000000001,0.0,-2,2
1686004594.38026285,48436451,0.4319840669631958,0.0,0.4354712665081024,0.5,-10.477265357971191,-10.44722843170166,-10.521121978759766,9.49,9.370000000000001,0.0,-3,1
1686004594.48022294,48536411,0.3993004560470581,0.0,0.4291600286960602,0.5,-10.470955848693848,-10.431475639343262,-10.612712860107422,9.49,9.370000000000001,0.0,-5,1
1686004594.58018279,48636371,0.3758663833141327,0.0,0.4006430506706238,0.5,-10.463998794555664,-10.414359092712402,-10.536498069763184,9.49,9.370000000000001,0.0,-7,0
1686004594.68014288,48736331,0.38191789388656616,0.0,0.39184868335723877,0.5,-10.456480979919434,-10.39794635772705,-10.775083541870117,9.49,9.370000000000001,0.0,-9,-2
1686004594.78010297,48836291,0.42170587182044983,0.0,0.4001879096031189,0.5,-10.448472023010254,-10.391895294189453,-10.463302612304688,9.49,9.38,0.0,-8,-5
1686004594.88006282,48936251,0.44407764077186584,0.0,0.4337828755378723,0.5,-10.440101623535156,-10.385233879089355,-10.714747428894043,9.49,9.39,0.0,-7,-6
1686004594.98002291,49036211,0.4635382890701294,0.0,0.44624897837638855,0.5,-10.431536674499512,-10.384134292602539,-10.534708976745605,9.49,9.41,0.0,-5,-6
1686004595.07998300,49136171,0.4840168058872223,0.0,0.4681568741798401,0.5,-10.422989845275879,-10.38129711151123,-10.788355827331543,9.49,9.41,0.0,-4,-5
1686004595.17994285,49236131,0.5126120448112488,0.0,0.4821968972682953,0.5,-10.41455364227295,-10.385214805603027,-10.546220779418945,9.49,9.43,0.0,0,-4
1686004595.27990294,49336091,0.569871723651886,0.0,0.526465892791748,0.5,-10.406340599060059,-10.385905265808105,-10.717615127563477,9.49,9.450000000000001,0.0,1,-3
1686004595.37986279,49436051,0.5816192626953125,0.0,0.5553677082061768,0.5,-10.398517608642578,-10.388001441955566,-10.707334518432617,9.49,9.450000000000001,0.0,4,-2
1686004595.47982287,49536011,0.5941148996353149,0.0,0.5741927027702332,0.5,-10.391148567199707,-10.391554832458496,-10.743476867675781,9.49,9.46,0.0,7,0
1686004595.58061600,49636804,0.6015767455101013,0.0,0.5856422781944275,0.5,-10.384185791015625,-10.396684646606445,-10.624398231506348,9.49,9.49,0.0,10,2
1686004595.68057585,49736764,0.5771372318267822,0.0,0.5815466642379761,0.5,-10.377854347229004,-10.394962310791016,-10.620444297790527,9.49,9.5,0.0,11,5
1686004595.78053594,49836724,0.531563401222229,0.0,0.553072988986969,0.5,-10.372221946716309,-10.387003898620605,-10.69942569732666,9.49,9.5,0.0,9,8
1686004595.88049579,49936684,0.49049752950668335,0.0,0.5129314661026001,0.5,-10.367291450500488,-10.37816047668457,-10.715869903564453,9.49,9.5,0.0,7,8
1686004595.98045588,50036644,0.45253056287765503,0.0,0.47354787588119507,0.5,-10.363018035888672,-10.372320175170898,-10.638834953308105,9.49,9.5,0.0,6,8
1686004596.08041596,50136604,0.4425564706325531,0.0,0.4489505887031555,0.5,-10.359333038330078,-10.365897178649902,-10.43729019165039,9.49,9.5,0.0,5,8
1686004596.18037581,50236564,0.40106266736984253,0.0,0.4275483787059784,0.5,-10.35617446899414,-10.351655006408691,-10.717913627624512,9.49,9.5,0.0,1,7
1686004596.28033590,50336524,0.38920027017593384,0.0,0.39098888635635376,0.5,-10.353470802307129,-10.340164184570312,-10.477007865905762,9.49,9.5,0.0,-1,5
1686004596.38029599,50436484,0.401422917842865,0.0,0.395805686712265,0.5,-10.351165771484375,-10.330375671386719,-10.48319149017334,9.49,9.5,0.0,-4,1
1686004596.48025584,50536444,0.38937631249427795,0.0,0.3923734128475189,0.5,-10.349199295043945,-10.31872272491455,-10.459827423095703,9.49,9.5,0.0,-7,0
1686004596.58021593,50636404,0.37630796432495117,0.0,0.38332298398017883,0.5,-10.347525596618652,-10.304920196533203,-10.76260757446289,9.49,9.5,0.0,-11,-3
1686004596.68017578,50736364,0.4208737909793854,0.0,0.3868573009967804,0.5,-10.346099853515625,-10.307696342468262,-10.708486557006836,9.49,9.5,0.0,-10,-7
1686004596.78013587,50836324,0.49479490518569946,0.0,0.43782466650009155,0.5,-10.344888687133789,-10.322941780090332,-10.670677185058594,9.49,9.5,0.0,-5,-9
1686004596.88009596,50936284,0.5877123475074768,0.0,0.5113851428031921,0.5,-10.343853950500488,-10.341361999511719,-10.66553020477295,9.49,9.51,0.0,0,-9
1686004596.98005581,51036244,0.65011066198349,0.0,0.5983412861824036,0.5,-10.34303092956543,-10.359044075012207,-10.786469459533691,9.49,9.51,0.0,5,-6
1686004597.08001590,51136204,0.6358963251113892,0.0,0.6234790086746216,0.5,-10.34244155883789,-10.376383781433105,-10.630934715270996,9.49,9.540000000000001,0.0,10,-1
1686004597.17997599,51236164,0.6071840524673462,0.0,0.617170512676239,0.5,-10.342196464538574,-10.385966300964355,-10.574512481689453,9.49,9.540000000000001,0.0,13,4
1686004597.27993584,51336124,0.5520918965339661,0.0,0.5840490460395813,0.5,-10.342406272888184,-10.382914543151855,-10.50054931640625,9.49,9.55,0.0,11,8
1686004597.37989593,51436084,0.4551585018634796,0.0,0.5194942951202393,0.5,-10.343073844909668,-10.366714477539062,-10.824254989624023,9.49,9.56,0.0,6,10
1686004597.47985578,51536044,0.36450254917144775,0.0,0.416756272315979,0.5,-10.344246864318848,-10.35755729675293,-10.761714935302734,9.49,9.58,0.0,2,10
1686004597.57981586,51636004,0.42868930101394653,0.0,0.3984333872795105,0.5,-10.345995903015137,-10.358197212219238,-10.826223373413086,9.49,9.56,0.0,1,5
1686004597.68060899,51736797,0.49480074644088745,0.0,0.4402754604816437,0.5,-10.348305702209473,-10.369892120361328,-10.533695220947266,9.49,9.55,0.0,3,2
1686004597.78056884,51836757,0.5336319804191589,0.0,0.4974196255207062,0.5,-10.350943565368652,-10.375825881958008,-10.514320373535156,9.49,9.540000000000001,0.0,4,1
1686004597.88052893,51936717,0.507326602935791,0.0,0.5180771350860596,0.5,-10.353772163391113,-10.372432708740234,-10.691953659057617,9.49,9.51,0.0,2,2
1686004597.98048878,52036677,0.44130605459213257,0.0,0.48569968342781067,0.5,-10.356520652770996,-10.367730140686035,-10.526938438415527,9.49,9.5,0.0,0,3
1686004598.08044887,52136637,0.3902527093887329,0.0,0.43643903732299805,0.5,-10.358989715576172,-10.359782218933105,-10.784924507141113,9.49,9.5,0.0,-2,3
1686004598.18040895,52236597,0.4061511754989624,0.0,0.4060567617416382,0.5,-10.361156463623047,-10.357619285583496,-10.624977111816406,9.49,5.5,0.0,-3,1
1686004598.28036880,52336557,0.6565926671028137,0.0,0.5076805353164673,0.5,-10.361885070800781,-10.36051082611084,-10.530976295471191,9.49,5.51,0.0,1,0
1686004598.38032889,52436517,0.7925277948379517,0.0,0.7141445279121399,0.5,-10.35467529296875,-10.356297492980957,-10.750200271606445,9.49,5.5200000000000005,0.0,14,7
1686004598.48028898,52536477,0.7827030420303345,0.0,0.7611919641494751,0.5,-10.33169174194336,-10.34088134765625,-10.547041893005371,9.49,5.5200000000000005,0.0,35,28
1686004598.58024883,52636437,0.8393421769142151,0.0,0.803425133228302,0.5,-10.288897514343262,-10.30209732055664,-10.515692710876465,9.49,5.51,0.0,56,49
1686004598.68020892,52736397,0.899156928062439,0.0,0.8550156950950623,0.5,-10.22612190246582,-10.238372802734375,-10.54653263092041,9.49,5.5,0.0,76,69
1686004598.78016901,52836357,0.9479587078094482,0.0,0.9141210317611694,0.5,-10.143381118774414,-10.1557035446167,-10.560332298278809,9.49,5.51,0.0,96,87
1686004598.88012886,52936317,1.0165960788726807,0.0,0.9784964919090271,0.5,-10.041095733642578,-10.060009002685547,-10.168050765991211,9.49,5.51,0.0,117,105
1686004598.98008895,53036277,1.1577643156051636,0.0,1.0,0.5,-9.920879364013672,-9.93993091583252,-10.394750595092773,9.49,5.5200000000000005,0.0,133,119
1686004599.08004880,53136237,1.3494919538497925,0.0,1.0,0.5,-9.786480903625488,-9.816360473632812,-9.919825553894043,9.49,5.5200000000000005,0.0,148,122
1686004599.18000889,53236197,1.5192710161209106,0.0,1.0,0.5,-9.642382621765137,-9.682727813720703,-9.898609161376953,9.49,5.5200000000000005,0.0,159,124
1686004599.27996898,53336157,1.6417601108551025,0.0,1.0,0.5,-9.491886138916016,-9.543756484985352,-9.64582633972168,9.49,5.5200000000000005,0.0,168,125
1686004599.37992883,53436117,1.7285957336425781,0.0,1.0,0.5,-9.337126731872559,-9.397576332092285,-9.656085014343262,9.49,5.54,0.0,174,126
1686004599.47988892,53536077,1.789900779724121,0.0,1.0,0.5,-9.179444313049316,-9.249530792236328,-9.408679008483887,9.49,5.57,0.0,179,128
1686004599.57984900,53636037,1.8620860576629639,0.0,1.0,0.5,-9.019533157348633,-9.099146842956543,-9.488327026367188,9.49,5.64,0.0,184,130
1686004599.67980886,53735997,1.9410123825073242,0.0,1.0,0.5,-8.857775688171387,-8.952079772949219,-9.428241729736328,9.49,5.7,0.0,190,131
1686004599.78060198,53836790,2.1164515018463135,0.0,1.0,0.5,-8.693161964416504,-8.81710147857666,-9.375003814697266,9.49,5.76,0.0,201,131
1686004599.88056183,53936750,2.3921868801116943,0.0,1.0,0.5,-8.528830528259277,-8.695938110351562,-9.039680480957031,9.49,5.91,0.0,214,130
1686004599.98052192,54036710,2.6919915676116943,0.0,1.0,0.5,-8.364045143127441,-8.573159217834473,-9.008228302001953,9.49,6.04,0.0,227,129
1686004600.08048201,54136670,2.971405506134033,0.0,1.0,0.5,-8.199328422546387,-8.451692581176758,-8.891603469848633,9.49,6.16,0.0,239,129
1686004600.18044186,54236630,3.2317123413085938,0.0,1.0,0.5,-8.035035133361816,-8.332590103149414,-8.828484535217285,9.49,6.26,0.0,250,128
1686004600.28040195,54336590,3.4633889198303223,0.0,1.0,0.5,-7.871435642242432,-8.217203140258789,-8.603950500488281,9.49,6.38,0.0,260,127
1686004600.38036180,54436550,3.6697773933410645,0.0,1.0,0.5,-7.70880126953125,-8.102251052856445,-8.638592720031738,9.49,6.57,0.0,268,126
1686004600.48032188,54536510,3.8530430793762207,0.0,1.0,0.5,-7.547492027282715,-7.991218566894531,-8.26770305633545,9.49,6.75,0.0,275,125
1686004600.58028197,54636470,4.006744384765625,0.0,1.0,0.5,-7.387885570526123,-7.8766093254089355,-8.05296802520752,9.49,6.87,0.0,281,125
1686004600.68024182,54736430,4.085640907287598,0.0,1.0,0.5,-7.230267524719238,-7.750695705413818,-8.080399513244629,9.49,6.99,0.0,284,125
1686004600.78020191,54836390,4.107625961303711,0.0,1.0,0.5,-7.074887752532959,-7.620063781738281,-8.097054481506348,9.49,7.1000000000000005,0.0,286,126
1686004600.88016200,54936350,4.1328582763671875,0.0,1.0,0.5,-6.921961784362793,-7.4964423179626465,-7.747664928436279,9.49,7.25,0.0,287,125
1686004600.98012185,55036310,4.151912689208984,0.0,1.0,0.5,-6.771780967712402,-7.370427131652832,-7.553570747375488,9.49,7.4,0.0,288,126
1686004601.08008194,55136270,4.126028060913086,0.0,1.0,0.5,-6.6246337890625,-7.236590385437012,-7.678627967834473,9.49,7.5,0.0,287,126
1686004601.18004179,55236230,4.080090045928955,0.0,1.0,0.5,-6.480656623840332,-7.105364799499512,-7.535249710083008,9.49,7.6000000000000005,0.0,285,127
1686004601.28000188,55336190,4.05360746383667,0.0,1.0,0.5,-6.339895248413086,-6.980723857879639,-7.324929237365723,9.49,7.7,0.0,284,126
1686004601.37996197,55436150,4.02863073348999,0.0,1.0,0.5,-6.202408313751221,-6.8575921058654785,-7.278720378875732,9.49,7.84,0.0,283,126
1686004601.47992182,55536110,3.991349220275879,0.0,1.0,0.5,-6.068375110626221,-6.736522197723389,-6.978634357452393,9.49,7.99,0.0,281,126
1686004601.57988191,55636070,3.934835910797119,0.0,1.0,0.5,-5.9380574226379395,-6.610153675079346,-7.114208221435547,9.49,8.08,0.0,278,126
1686004601.67984200,55736030,3.8596324920654297,0.0,1.0,0.5,-5.811535835266113,-6.488428592681885,-6.9796342849731445,9.49,8.2,0.0,275,125
1686004601.77980185,55835990,3.8086869716644287,0.0,1.0,0.5,-5.688920974731445,-6.374378681182861,-6.548868656158447,9.49,8.3,0.0,272,125
1686004601.88059497,55936783,3.73494291305542,0.0,1.0,0.5,-5.569327354431152,-6.252835750579834,-6.484614849090576,9.49,8.46,0.0,267,124
1686004601.98055482,56036743,3.591163158416748,0.0,1.0,0.5,-5.454975605010986,-6.122833251953125,-6.489541530609131,9.49,8.620000000000001,0.0,261,125
1686004602.08051491,56136703,3.4149632453918457,0.0,1.0,0.5,-5.345254898071289,-5.99359655380249,-6.508953094482422,9.49,8.72,0.0,253,125
1686004602.18047500,56236663,3.2490086555480957,0.0,1.0,0.5,-5.2404465675354,-5.872900485992432,-6.089646816253662,9.49,8.83,0.0,246,125
1686004602.28043485,56336623,3.0701146125793457,0.0,1.0,0.5,-5.140741348266602,-5.74734354019165,-6.140451908111572,9.49,8.950000000000001,0.0,237,125
1686004602.38039494,56436583,2.8459606170654297,0.0,1.0,0.5,-5.046388149261475,-5.6220903396606445,-5.736791133880615,9.49,9.09,0.0,227,125
1686004602.48035479,56536543,2.5699565410614014,0.0,1.0,0.5,-4.95775032043457,-5.487215995788574,-5.9260101318359375,9.49,9.25,0.0,215,126
1686004602.58031487,56636503,2.2257542610168457,0.0,1.0,0.5,-4.875324249267578,-5.355846881866455,-5.777778148651123,9.49,9.34,0.0,200,126
1686004602.68027496,56736463,1.8791006803512573,0.0,1.0,0.5,-4.799771785736084,-5.2299675941467285,-5.6405205726623535,9.49,9.450000000000001,0.0,184,126
1686004602.78023481,56836423,1.493586540222168,0.0,1.0,0.5,-4.7316083908081055,-5.1079535484313965,-5.342215538024902,9.49,9.540000000000001,0.0,167,126
1686004602.88019490,56936383,1.0395424365997314,0.0,1.0,0.5,-4.671511650085449,-4.981930255889893,-5.206118583679199,9.49,9.700000000000001,0.0,145,126
1686004602.98015499,57036343,0.8300210237503052,0.0,0.9172696471214294,0.5,-4.620041370391846,-4.851992130279541,-5.111169338226318,9.49,9.870000000000001,0.0,116,118
1686004603.08011484,57136303,0.6742780208587646,0.0,0.7847912311553955,0.5,-4.5779829025268555,-4.733989238739014,-5.093873500823975,9.49,10.02,0.0,83,98
1686004603.18007493,57236263,0.5150734782218933,0.0,0.6330404877662659,0.5,-4.546140193939209,-4.640626430511475,-4.9201507568359375,9.49,10.17,0.0,54,74
1686004603.28003478,57336223,0.23185881972312927,0.0,0.43730029463768005,0.5,-4.525253772735596,-4.571547985076904,-5.1274847984313965,9.49,10.290000000000001,0.0,29,54
1686004603.37999487,57436183,0.2867847681045532,0.0,0.2696947455406189,0.5,-4.5158467292785645,-4.532190799713135,-4.963435173034668,9.49,10.39,0.0,8,32
1686004603.47995496,57536143,0.3141704797744751,0.0,0.2753157615661621,0.5,-4.518044948577881,-4.524792671203613,-4.94497537612915,9.49,10.5,0.0,-5,9
1686004603.57991481,57636103,0.34087705612182617,0.0,0.3074849247932434,0.5,-4.531737804412842,-4.54048490524292,-4.772454738616943,9.49,10.66,0.0,-16,-7
1686004603.67987490,57736063,0.30847692489624023,0.0,0.3092817962169647,0.5,-4.5566487312316895,-4.566030025482178,-4.936354637145996,9.49,10.81,0.0,-27,-19
1686004603.77983499,57836023,0.28800082206726074,0.0,0.2876938581466675,0.5,-4.592648506164551,-4.601668357849121,-4.986019611358643,9.49,10.91,0.0,-38,-30
1686004603.87979484,57935983,0.2785833477973938,0.0,0.27152687311172485,0.5,-4.639190673828125,-4.652419090270996,-4.792027473449707,9.49,11.02,0.0,-47,-40
1686004603.98058796,58036776,0.2312682867050171,0.0,0.24709366261959076,0.5,-4.695942401885986,-4.703919410705566,-5.0974321365356445,9.49,11.120000000000001,0.0,-58,-48
1686004604.08054781,58136736,0.21853792667388916,0.0,0.21913358569145203,0.5,-4.7608184814453125,-4.7658467292785645,-5.130193710327148,9.49,11.24,0.0,-67,-57
1686004604.18050790,58236696,0.2193167805671692,0.0,0.20460724830627441,0.5,-4.833155632019043,-4.840704917907715,-4.919884204864502,9.49,11.33,0.0,-73,-66
1686004604.28046799,58336656,0.17829522490501404,0.0,0.18503527343273163,0.5,-4.911862373352051,-4.91298246383667,-5.320019721984863,9.49,11.33,0.0,-81,-71
1686004604.38042784,58436616,0.17487603425979614,0.0,0.16419322788715363,0.5,-4.996016025543213,-4.995640754699707,-5.448117733001709,9.49,11.34,0.0,-86,-78
1686004604.48038793,58536576,0.18454065918922424,0.0,0.16072018444538116,0.5,-5.084680557250977,-5.093544006347656,-5.235560417175293,9.49,11.34,0.0,-88,-83
1686004604.58034778,58636536,0.17047524452209473,0.0,0.16033998131752014,0.5,-5.176998138427734,-5.1886796951293945,-5.261625289916992,9.49,11.3,0.0,-90,-85
1686004604.68030787,58736496,0.14385700225830078,0.0,0.14588159322738647,0.5,-5.272154331207275,-5.2744879722595215,-5.456566333770752,9.49,11.27,0.0,-95,-86
1686004604.78026795,58836456,0.12240079045295715,0.0,0.12315303087234497,0.5,-5.369446277618408,-5.359793186187744,-5.4292497634887695,9.49,11.22,0.0,-101,-90
1686004604.88022780,58936416,0.09482908248901367,0.0,0.10071317851543427,0.5,-5.468512058258057,-5.444081783294678,-5.572934627532959,9.49,11.17,0.0,-107,-95
1686004604.98018789,59036376,0.0720633864402771,0.0,0.07677939534187317,0.5,-5.568989276885986,-5.531083106994629,-5.866724491119385,9.49,11.13,0.0,-112,-100
1686004605.08014798,59136336,0.07401621341705322,0.0,0.06498104333877563,0.5,-5.6704888343811035,-5.630458354949951,-5.7340312004089355,9.49,11.040000000000001,0.0,-113,-105
1686004605.18010783,59236296,0.063029944896698,0.0,0.06498010456562042,0.5,-5.772478103637695,-5.733254432678223,-5.799161911010742,9.49,10.950000000000001,0.0,-113,-106
1686004605.28006792,59336256,0.04390862584114075,0.0,0.06062640994787216,0.5,-5.874411582946777,-5.831232070922852,-6.0345940589904785,9.49,10.870000000000001,0.0,-114,-107
1686004605.38002801,59436216,0.039880573749542236,0.0,0.055231690406799316,0.5,-5.975886344909668,-5.930424213409424,-6.340271949768066,9.49,10.790000000000001,0.0,-114,-107
1686004605.47998786,59536176,0.06323006749153137,0.0,0.06288133561611176,0.5,-6.076584339141846,-6.040963172912598,-6.283202171325684,9.49,10.71,0.0,-110,-108
1686004605.57994795,59636136,0.08544781804084778,0.0,0.08406677097082138,0.5,-6.176204681396484,-6.156039714813232,-6.436700344085693,9.49,10.6,0.0,-105,-106
1686004605.67990780,59736096,0.10994225740432739,0.0,0.10778280347585678,0.5,-6.274423122406006,-6.268108367919922,-6.423361778259277,9.49,10.5,0.0,-99,-101
1686004605.77986789,59836056,0.1224910318851471,0.0,0.12805995345115662,0.5,-6.370883941650391,-6.371846675872803,-6.4307661056518555,9.49,10.42,0.0,-95,-97
1686004605.87982798,59936016,0.11717408895492554,0.0,0.13647791743278503,0.5,-6.4652419090271,-6.462926864624023,-6.728798866271973,9.49,10.35,0.0,-93,-92
1686004605.97978783,60035976,0.12660923600196838,0.0,0.13920220732688904,0.5,-6.557148456573486,-6.551257610321045,-6.970036029815674,9.49,10.27,0.0,-92,-91
1686004606.08058095,60136769,0.16282209753990173,0.0,0.15645280480384827,0.5,-6.647044658660889,-6.649555683135986,-7.101167678833008,9.49,10.14,0.0,-86,-89
1686004606.18054080,60236729,0.2159462571144104,0.0,0.19455669820308685,0.5,-6.733119964599609,-6.75475549697876,-6.85797119140625,9.49,10.02,0.0,-77,-85
1686004606.28050089,60336689,0.23917096853256226,0.0,0.23476079106330872,0.5,-6.815633773803711,-6.846479892730713,-7.200829982757568,9.49,9.93,0.0,-71,-78
1686004606.38046098,60436649,0.2706192135810852,0.0,0.2639438211917877,0.5,-6.893980503082275,-6.932041645050049,-6.981354236602783,9.49,9.84,0.0,-64,-71
1686004606.48042083,60536609,0.27370214462280273,0.0,0.2880639433860779,0.5,-6.9676833152771,-7.001718521118164,-7.2986931800842285,9.49,9.75,0.0,-61,-65
1686004606.58038092,60636569,0.29987233877182007,0.0,0.3017621636390686,0.5,-7.0363450050354,-7.0660247802734375,-7.461360931396484,9.49,9.620000000000001,0.0,-57,-60
1686004606.68034101,60736529,0.36362338066101074,0.0,0.33613646030426025,0.5,-7.099463939666748,-7.133438587188721,-7.18601655960083,9.49,9.49,0.0,-49,-56
1686004606.78030086,60836489,0.39052340388298035,0.0,0.38194021582603455,0.5,-7.156275749206543,-7.1865434646606445,-7.4312028884887695,9.49,9.41,0.0,-44,-49
1686004606.88026094,60936449,0.41719669103622437,0.0,0.4104577600955963,0.5,-7.205878257751465,-7.2311224937438965,-7.555579662322998,9.49,9.33,0.0,-38,-43
1686004606.98022079,61036409,0.48558077216148376,0.0,0.4526779055595398,0.5,-7.247800827026367,-7.273963451385498,-7.49506139755249,9.49,9.25,0.0,-30,-37
1686004607.08018088,61136369,0.604526937007904,0.0,0.532880425453186,0.5,-7.281883716583252,-7.310575485229492,-7.603443145751953,9.49,9.120000000000001,0.0,-21,-32
1686004607.18014097,61236329,0.6646844148635864,0.0,0.6294061541557312,0.5,-7.30809211730957,-7.342830657958984,-7.434391975402832,9.49,9.01,0.0,-11,-25
1686004607.28010082,61336289,0.6336183547973633,0.0,0.6579222679138184,0.5,-7.326311111450195,-7.359058856964111,-7.498439788818359,9.49,8.96,0.0,-4,-14
1686004607.38006091,61436249,0.5912839770317078,0.0,0.6358352899551392,0.5,-7.336416244506836,-7.359075546264648,-7.544154167175293,9.49,8.89,0.0,0,-4
1686004607.48002100,61536209,0.5795482397079468,0.0,0.6127665042877197,0.5,-7.338535308837891,-7.349546432495117,-7.686092853546143,9.49,8.83,0.0,5,2
1686004607.57998085,61636169,0.6074373722076416,0.0,0.6116238236427307,0.5,-7.333011627197266,-7.338995933532715,-7.608596324920654,9.49,8.75,0.0,11,7
1686004607.67994094,61736129,0.6444467306137085,0.0,0.6394007205963135,0.5,-7.320234775543213,-7.327077388763428,-7.665718078613281,9.49,8.68,0.0,18,12
1686004607.77990079,61836089,0.6736428141593933,0.0,0.667245090007782,0.5,-7.300482273101807,-7.3124589920043945,-7.573153018951416,9.49,8.63,0.0,26,18
1686004607.87986088,61936049,0.6866141557693481,0.0,0.6925230026245117,0.5,-7.27395486831665,-7.2909393310546875,-7.391258716583252,9.49,8.58,0.0,34,26
1686004607.97982097,62036009,0.677293598651886,0.0,0.7036199569702148,0.5,-7.2409820556640625,-7.252991199493408,-7.3275933265686035,9.49,8.56,0.0,39,34
1686004608.08061385,62136802,0.6582335233688354,0.0,0.6928688287734985,0.5,-7.201686859130859,-7.199145793914795,-7.536126613616943,9.49,8.540000000000001,0.0,41,40
1686004608.18057394,62236762,0.6751691699028015,0.0,0.6859740018844604,0.5,-7.157428741455078,-7.1455302238464355,-7.234575271606445,9.49,8.52,0.0,43,41
1686004608.28053379,62336722,0.6692113876342773,0.0,0.6933492422103882,0.5,-7.108611583709717,-7.088047981262207,-7.256228446960449,9.49,8.540000000000001,0.0,44,44
1686004608.38049388,62436682,0.6609561443328857,0.0,0.686957597732544,0.5,-7.055913925170898,-7.025744438171387,-7.3572187423706055,9.49,8.56,0.0,45,45
1686004608.48045397,62536642,0.6767174005508423,0.0,0.6859356760978699,0.5,-7.000123500823975,-6.968392372131348,-7.22459602355957,9.49,8.6,0.0,47,46
1686004608.58041382,62636602,0.692487359046936,0.0,0.6974157094955444,0.5,-6.942012310028076,-6.913119316101074,-7.302483081817627,9.49,8.64,0.0,50,47
1686004608.68037391,62736562,0.7193551063537598,0.0,0.7120053172111511,0.5,-6.882112979888916,-6.8626580238342285,-6.937695503234863,9.49,8.68,0.0,54,49
1686004608.78033400,62836522,0.7038565278053284,0.0,0.7199933528900146,0.5,-6.820914268493652,-6.801950454711914,-7.054540157318115,9.49,8.75,0.0,56,52
1686004608.88029385,62936482,0.7040647268295288,0.0,0.7074317932128906,0.5,-6.759118556976318,-6.737167835235596,-6.879997730255127,9.49,8.83,0.0,55,53
1686004608.98025393,63036442,0.6866493821144104,0.0,0.6912441253662109,0.5,-6.697405815124512,-6.668407440185547,-6.8340744972229,9.49,8.89,0.0,52,53
1686004609.08021379,63136402,0.6570846438407898,0.0,0.6658910512924194,0.5,-6.636306285858154,-6.597898960113525,-6.647531032562256,9.49,8.96,0.0,49,52
1686004609.18017387,63236362,0.6074554920196533,0.0,0.6273192763328552,0.5,-6.576257228851318,-6.520421504974365,-6.672760486602783,9.49,8.96,0.0,42,49
1686004609.28013396,63336322,0.5577910542488098,0.0,0.583074688911438,0.5,-6.517608642578125,-6.448720455169678,-6.62782621383667,9.49,9.13,0.0,37,45
1686004609.38009381,63436282,0.4931313395500183,0.0,0.526544451713562,0.5,-6.460916519165039,-6.382565021514893,-6.7330427169799805,9.49,9.24,0.0,31,41
1686004609.48005390,63536242,0.41566330194473267,0.0,0.4557061195373535,0.5,-6.407177925109863,-6.329411506652832,-6.76157283782959,9.49,9.24,0.0,28,37
1686004609.58001399,63636202,0.4548098146915436,0.0,0.42838844656944275,0.5,-6.357212066650391,-6.291880130767822,-6.666454792022705,9.49,9.3,0.0,28,32
1686004609.67997384,63736162,0.5044204592704773,0.0,0.45826810598373413,0.5,-6.311285495758057,-6.264858722686768,-6.841520309448242,9.49,9.38,0.0,29,28
1686004609.77993393,63836122,0.6053148508071899,0.0,0.5121461153030396,0.5,-6.269718647003174,-6.2526373863220215,-6.570056438446045,9.49,9.450000000000001,0.0,34,26
1686004609.87989378,63936082,0.6559593677520752,0.0,0.605353832244873,0.5,-6.23277473449707,-6.241548538208008,-6.517880439758301,9.49,9.56,0.0,37,25
1686004609.97985387,64036042,0.597166895866394,0.0,0.6071471571922302,0.5,-6.200799942016602,-6.223702907562256,-6.7978644371032715,9.49,9.67,0.0,36,28
1686004610.07981396,64136002,0.5755794048309326,0.0,0.5750294327735901,0.5,-6.174243927001953,-6.210740089416504,-6.572378158569336,9.49,9.75,0.0,34,28
1686004610.18060684,64236795,0.5649410486221313,0.0,0.5632535219192505,0.5,-6.153476715087891,-6.202831745147705,-6.616016387939453,9.49,9.84,0.0,32,26
1686004610.28056693,64336755,0.5299996733665466,0.0,0.5397483110427856,0.5,-6.13916015625,-6.194372653961182,-6.543264389038086,9.49,9.93,0.0,27,24
1686004610.38052678,64436715,0.4530510902404785,0.0,0.49421972036361694,0.5,-6.131270885467529,-6.1861252784729,-6.372051239013672,9.49,10.02,0.0,21,21
1686004610.48048687,64536675,0.33040496706962585,0.0,0.3998631536960602,0.5,-6.129929065704346,-6.172566890716553,-6.56970739364624,9.49,10.1,0.0,10,18
1686004610.58044696,64636635,0.3323203921318054,0.0,0.3308786153793335,0.5,-6.13517951965332,-6.1639084815979,-6.599112510681152,9.49,10.16,0.0,0,10
