,TimeUS,timestamp,ThI,ABst,ThO,ThH,DAlt,Alt,BAlt,DSAlt,SAlt,TAlt,DCRt,CRt,terrain_z,sub_z,rf
0,7034685,1686415635.980408,0.0,0.0,0.5,0.5,0.0,-0.0948808714747428,-0.1533242911100387,0.0,0.0,0.0,0,14,,,
1,7134645,1686415636.080368,0.0,0.0,0.5,0.5,0.0,-0.0882576331496238,-0.1286041140556335,0.0,0.0,0.0,0,13,,,
2,7234605,1686415636.180328,0.0,0.0,0.5,0.5,0.0,-0.0821165814995765,-0.14458067715168,0.0,0.0,0.0,0,12,,,
3,7334565,1686415636.280288,0.0,0.0,0.5,0.5,0.0,-0.0772298574447631,-0.1081122457981109,0.0,0.0,0.0,0,12,,,
4,7434525,1686415636.380248,0.0,0.0,0.5,0.5,0.0,-0.0722197517752647,-0.0999378189444542,0.0,0.0,0.0,0,11,,,
5,7534485,1686415636.480208,0.0,0.0,0.5,0.5,0.0,-0.0659616515040397,-0.1046747416257858,0.0,0.0,0.0,0,11,,,
6,7634445,1686415636.580168,0.0,0.0,0.5,0.5,0.0,-0.0597066432237625,-0.0883593782782554,0.0,0.0,0.0,0,11,,,
7,7734405,1686415636.680128,0.0,0.0,0.5,0.5,0.0,-0.0532659702003002,-0.1096683666110038,0.0,0.0,0.0,0,10,,,
8,7834365,1686415636.780088,0.0,0.0,0.5,0.5,0.0,-0.0482151433825492,-0.072003349661827,0.0,0.0,0.0,0,10,,,
9,7934325,1686415636.880048,0.0,0.0,0.4900000095367431,0.5,0.0,-0.0433485060930252,-0.0887563750147819,0.0,0.0,0.0,0,9,,,
10,8034285,1686415636.980008,0.0,0.0,0.3137499988079071,0.5,0.0,-0.0453551225364208,-0.0799154937267303,0.0,0.0,0.0,0,-4,,,
11,8134245,1686415637.079968,0.0,0.0,0.25,0.5,0.0,-0.0662824064493179,-0.0840688794851303,0.0,0.0,0.0,0,-25,,,
12,8234205,1686415637.179928,0.0,0.0,0.25,0.5,0.0,-0.1058986559510231,-0.12202088534832,0.0,0.0,0.0,0,-41,,,
13,8334165,1686415637.279888,0.0,0.0,0.25,0.5,0.0,-0.1577815413475036,-0.1829320788383484,0.0,0.0,0.0,0,-49,,,
14,8434125,1686415637.379848,0.0,0.0,0.25,0.5,0.0,-0.2174261957406997,-0.2356106489896774,0.0,0.0,0.0,0,-54,,,
15,8534085,1686415637.479808,0.0,0.0,0.25,0.5,0.0,-0.2812813520431518,-0.2914979159832001,0.0,0.0,0.0,0,-56,,,
16,8634045,1686415637.579768,0.0,0.0,0.25,0.5,0.0,-0.3471689820289612,-0.3568159937858581,0.0,0.0,0.0,0,-58,,,
17,8734005,1686415637.679728,0.0,0.0,0.25,0.5,0.0,-0.414264053106308,-0.4084462821483612,0.0,0.0,0.0,0,-59,,,
18,8833965,1686415637.779688,0.0,0.0,0.25,0.5,0.0,-0.4814090132713318,-0.5034415125846863,0.0,0.0,0.0,0,-60,,,
19,8933925,1686415637.879648,0.0,0.0,0.25,0.5,0.0,-0.5500354766845703,-0.5669873952865601,0.0,0.0,0.0,0,-60,,,
20,9033885,1686415637.979608,0.0,0.0,0.25,0.5,0.0,-0.6201275587081909,-0.5887492299079895,0.0,0.0,0.0,0,-61,,,
21,9134678,1686415638.0804007,0.0,0.0,0.25,0.5,0.0,-0.6892766356468201,-0.6797425150871277,0.0,0.0,0.0,0,-62,,,
22,9234638,1686415638.180361,0.0,0.0,0.25,0.5,0.0,-0.7575381994247437,-0.7151865363121033,0.0,0.0,0.0,0,-62,,,
23,9334598,1686415638.2803211,0.0,0.0,0.25,0.5,0.0,-0.8243621587753296,-0.7776889204978943,0.0,0.0,0.0,0,-62,,,
24,9434558,1686415638.3802807,0.0,0.0,0.25,0.5,0.0,-0.8895836472511292,-0.8571332693099976,0.0,0.0,0.0,0,-63,,,
25,9534518,1686415638.480241,0.0,0.0,0.25,0.5,0.0,-0.9544768929481506,-0.9330851435661316,0.0,0.0,0.0,0,-63,,,
26,9634478,1686415638.5802011,0.0,0.0,0.25,0.5,0.0,-1.020041584968567,-0.976591169834137,0.0,0.0,0.0,0,-63,,,
27,9734438,1686415638.680161,0.0,0.0,0.25,0.5,0.0,-1.0846892595291138,-1.019541621208191,0.0,0.0,0.0,0,-63,,,
28,9834398,1686415638.780121,0.0,0.0,0.25,0.5,0.0,-1.1482282876968384,-1.1107381582260132,0.0,0.0,0.0,0,-63,,,
29,9934358,1686415638.8800807,0.0,0.0,0.25,0.5,0.0,-1.2117263078689575,-1.150790810585022,0.0,0.0,0.0,0,-63,,,
30,10034318,1686415638.980041,0.0,0.0,0.25,0.5,0.0,-1.27447772026062,-1.2200597524642944,0.0,0.0,0.0,0,-63,,,
31,10134278,1686415639.080001,0.0,0.0,0.25,0.5,0.0,-1.3372178077697754,-1.3109861612319946,0.0,0.0,0.0,0,-63,,,
32,10234238,1686415639.1799607,0.0,0.0,0.25,0.5,0.0,-1.4005439281463623,-1.3640234470367432,0.0,0.0,0.0,0,-63,,,
33,10334198,1686415639.279921,0.0,0.0,0.25,0.5,0.0,-1.464582443237305,-1.4303045272827148,0.0,0.0,0.0,0,-63,,,
34,10434158,1686415639.3798811,0.0,0.0,0.25,0.5,0.0,-1.5290987491607666,-1.4700294733047483,0.0,0.0,0.0,0,-63,,,
35,10534118,1686415639.4798408,0.0,0.0,0.25,0.5,0.0,-1.592798113822937,-1.529686689376831,0.0,0.0,0.0,0,-63,,,
36,10634078,1686415639.579801,0.0,0.0,0.25,0.5,0.0,-1.6553733348846436,-1.6025398969650269,0.0,0.0,0.0,0,-63,,,
37,10734038,1686415639.6797612,0.0,0.0,0.25,0.5,0.0,-1.7175921201705933,-1.6831672191619873,0.0,0.0,0.0,0,-63,,,
38,10833998,1686415639.779721,0.0,0.0,0.25,0.5,0.0,-1.780587911605835,-1.7409980297088623,0.0,0.0,0.0,0,-63,,,
39,10933958,1686415639.879681,0.0,0.0,0.25,0.5,0.0,-1.844143271446228,-1.7887866497039795,0.0,0.0,0.0,0,-63,,,
40,11033918,1686415639.9796407,0.0,0.0,0.25,0.5,0.0,-1.9072715044021609,-1.8549354076385496,0.0,0.0,0.0,0,-63,,,
41,11133878,1686415640.079601,0.0,0.0,0.25,0.5,0.0,-1.970009446144104,-1.9093422889709477,0.0,0.0,0.0,0,-63,,,
42,11234671,1686415640.180394,0.0,0.0,0.25,0.5,0.0,-2.032642126083374,-1.9744364023208616,0.0,0.0,0.0,0,-63,,,
43,11334631,1686415640.280354,0.0,0.0,0.25,0.5,0.0,-2.0940873622894287,-2.02356505393982,0.0,0.0,0.0,0,-63,,,
44,11434591,1686415640.380314,0.0,0.0,0.25,0.5,0.0,-2.154370784759521,-2.1029367446899414,0.0,0.0,0.0,0,-63,,,
45,11534551,1686415640.480274,0.0,0.0,0.25,0.5,0.0,-2.214287281036377,-2.174387693405152,0.0,0.0,0.0,0,-63,,,
46,11634511,1686415640.580234,0.0,0.0,0.25,0.5,0.0,-2.27475905418396,-2.2077176570892334,0.0,0.0,0.0,0,-63,,,
47,11734471,1686415640.680194,0.0,0.0,0.25,0.5,0.0,-2.3342080116271973,-2.260770797729492,0.0,0.0,0.0,0,-62,,,
48,11834431,1686415640.780154,0.0,0.0,0.25,0.5,0.0,-2.392908811569214,-2.350286960601806,0.0,0.0,0.0,0,-62,,,
49,11934391,1686415640.880114,0.0,0.0,0.25,0.5,0.0,-2.4517204761505127,-2.4123637676239014,0.0,0.0,0.0,0,-62,,,
50,12034351,1686415640.980074,0.0,0.0,0.25,0.5,0.0,-2.5113229751586914,-2.469368696212769,0.0,0.0,0.0,0,-62,,,
51,12134311,1686415641.080034,0.0,0.0,0.25,0.5,0.0,-2.5713789463043213,-2.511324167251587,0.0,0.0,0.0,0,-62,,,
52,12234271,1686415641.179994,0.0,0.0,0.25,0.5,0.0,-2.631439685821533,-2.5799362659454346,0.0,0.0,0.0,0,-61,,,
53,12334231,1686415641.279954,0.0,0.0,0.25,0.5,0.0,-2.6905038356781006,-2.655090093612671,0.0,0.0,0.0,0,-61,,,
54,12434191,1686415641.379914,0.0,0.0,0.25,0.5,0.0,-2.7499775886535645,-2.695610761642456,0.0,0.0,0.0,0,-61,,,
55,12534151,1686415641.479874,0.0,0.0,0.25,0.5,0.0,-2.809281826019287,-2.790663957595825,0.0,0.0,0.0,0,-61,,,
56,12634111,1686415641.579834,0.0,0.0,0.25,0.5,0.0,-2.8693971633911133,-2.8425064086914062,0.0,0.0,0.0,0,-61,,,
57,12734071,1686415641.679794,0.0,0.0,0.25,0.5,0.0,-2.9304728507995605,-2.8826794624328613,0.0,0.0,0.0,0,-61,,,
58,12834031,1686415641.779754,0.0,0.0,0.25,0.5,0.0,-2.991205930709839,-2.9446229934692383,0.0,0.0,0.0,0,-61,,,
59,12933991,1686415641.879714,0.0,0.0,0.25,0.5,0.0,-3.051274538040161,-3.004143714904785,0.0,0.0,0.0,0,-61,,,
60,13033951,1686415641.979674,0.0,0.0,0.25,0.5,0.0,-3.110851764678955,-3.077166795730591,0.0,0.0,0.0,0,-61,,,
61,13133911,1686415642.079634,0.0,0.0,0.25,0.5,0.0,-3.1705543994903564,-3.1548805236816406,0.0,0.0,0.0,0,-60,,,
62,13234704,1686415642.180427,0.0,0.0,0.25,0.5,0.0,-3.231804132461548,-3.212120532989502,0.0,0.0,0.0,0,-60,,,
63,13334664,1686415642.2803872,0.0,0.0,0.25,0.5,0.0,-3.2935023307800293,-3.2623820304870605,0.0,0.0,0.0,0,-61,,,
64,13434624,1686415642.380347,0.0,0.0,0.25,0.5,0.0,-3.3553929328918457,-3.330197811126709,0.0,0.0,0.0,0,-61,,,
65,13534584,1686415642.480307,0.0,0.0,0.25,0.5,0.0,-3.4174318313598637,-3.4014859199523926,0.0,0.0,0.0,0,-61,,,
66,13634544,1686415642.5802667,0.0,0.0,0.25,0.5,0.0,-3.480074644088745,-3.4386510848999023,0.0,0.0,0.0,0,-61,,,
67,13734504,1686415642.680227,0.0,0.0,0.25,0.5,0.0,-3.5423779487609863,-3.538412094116211,0.0,0.0,0.0,0,-61,,,
68,13834464,1686415642.7801871,0.0,0.0,0.25,0.5,0.0,-3.6048693656921382,-3.564467430114746,0.0,0.0,0.0,0,-61,,,
69,13934424,1686415642.8801467,0.0,0.0,0.25,0.5,0.0,-3.6677541732788086,-3.6525301933288574,0.0,0.0,0.0,0,-61,,,
70,14034384,1686415642.980107,0.0,0.0,0.25,0.5,0.0,-3.730789184570313,-3.688683032989502,0.0,0.0,0.0,0,-61,,,
71,14134344,1686415643.0800672,0.0,0.0,0.25,0.5,0.0,-3.793448686599731,-3.761281967163086,0.0,0.0,0.0,0,-61,,,
72,14234304,1686415643.180027,0.0,0.0,0.25,0.5,0.0,-3.856213569641113,-3.811755418777466,0.0,0.0,0.0,0,-61,,,
73,14334264,1686415643.279987,0.0,0.0,0.25,0.5,0.0,-3.917948484420776,-3.8822991847991934,0.0,0.0,0.0,0,-61,,,
74,14434224,1686415643.3799467,0.0,0.0,0.25,0.5,0.0,-3.979423999786377,-3.953486919403076,0.0,0.0,0.0,0,-61,,,
75,14534184,1686415643.479907,0.0,0.0,0.25,0.5,0.0,-4.041293144226074,-4.011997699737549,0.0,0.0,0.0,0,-61,,,
76,14634144,1686415643.5798671,0.0,0.0,0.25,0.5,0.0,-4.103522777557373,-4.067731380462647,0.0,0.0,0.0,0,-61,,,
77,14734104,1686415643.6798267,0.0,0.0,0.25,0.5,0.0,-4.165698051452637,-4.125164031982422,0.0,0.0,0.0,0,-61,,,
78,14834064,1686415643.779787,0.0,0.0,0.25,0.5,0.0,-4.227521896362305,-4.212723255157471,0.0,0.0,0.0,0,-61,,,
79,14934024,1686415643.8797472,0.0,0.0,0.25,0.5,0.0,-4.29000997543335,-4.255993366241455,0.0,0.0,0.0,0,-61,,,
80,15033984,1686415643.979707,0.0,0.0,0.25,0.5,0.0,-4.352782726287842,-4.31153678894043,0.0,0.0,0.0,0,-61,,,
81,15133944,1686415644.079667,0.0,0.0,0.25,0.5,0.0,-4.415081977844238,-4.38051176071167,0.0,0.0,0.0,0,-61,,,
82,15233904,1686415644.1796267,0.0,0.0,0.25,0.5,0.0,-4.477185726165772,-4.441866874694824,0.0,0.0,0.0,0,-61,,,
83,15334697,1686415644.28042,0.0,0.0,0.25,0.5,0.0,-4.539804935455322,-4.507492065429688,0.0,0.0,0.0,0,-61,,,
84,15434657,1686415644.38038,0.0,0.0,0.25,0.5,0.0,-4.602038860321045,-4.580843448638916,0.0,0.0,0.0,0,-61,,,
85,15534617,1686415644.48034,0.0,0.0,0.25,0.5,0.0,-4.66490364074707,-4.616530418395996,0.0,0.0,0.0,0,-62,,,
86,15634577,1686415644.5803,0.0,0.0,0.25,0.5,0.0,-4.727420330047607,-4.704196453094482,0.0,0.0,0.0,0,-62,,,
87,15734537,1686415644.68026,0.0,0.0,0.25,0.5,0.0,-4.790105819702148,-4.730306148529053,0.0,0.0,0.0,0,-62,,,
88,15834497,1686415644.78022,0.0,0.0,0.25,0.5,0.0,-4.852034568786621,-4.8179144859313965,0.0,0.0,0.0,0,-62,,,
89,15934457,1686415644.88018,0.0,0.0,0.25,0.5,0.0,-4.913145542144775,-4.883692741394043,0.0,0.0,0.0,0,-62,,,
90,16034417,1686415644.98014,0.0,0.0,0.25,0.5,0.0,-4.97526741027832,-4.934663772583008,0.0,0.0,0.0,0,-62,,,
91,16134377,1686415645.0801,0.0,0.0,0.25,0.5,0.0,-5.037412166595459,-5.008683204650879,0.0,0.0,0.0,0,-62,,,
92,16234337,1686415645.18006,0.0,0.0,0.25,0.5,0.0,-5.09981107711792,-5.082032680511475,0.0,0.0,0.0,0,-62,,,
93,16334297,1686415645.28002,0.0,0.0,0.25,0.5,0.0,-5.163764476776123,-5.140462398529053,0.0,0.0,0.0,0,-62,,,
94,16434257,1686415645.37998,0.0,0.0,0.25,0.5,0.0,-5.227746486663818,-5.194005012512207,0.0,0.0,0.0,0,-62,,,
95,16534217,1686415645.47994,0.0,0.0,0.25,0.5,0.0,-5.291694164276123,-5.264510631561279,0.0,0.0,0.0,0,-62,,,
96,16634177,1686415645.5799,0.0,0.0,0.25,0.5,0.0,-5.355832576751709,-5.327066421508789,0.0,0.0,0.0,0,-62,,,
97,16734137,1686415645.67986,0.0,0.0,0.25,0.5,0.0,-5.420161247253418,-5.360734939575195,0.0,0.0,0.0,0,-62,,,
98,16834097,1686415645.77982,0.0,0.0,0.25,0.5,0.0,-5.483242511749268,-5.444574356079102,0.0,0.0,0.0,0,-62,,,
99,16934057,1686415645.87978,0.0,0.0,0.25,0.5,0.0,-5.545985698699951,-5.484745025634766,0.0,0.0,0.0,0,-62,,,
100,17034017,1686415645.97974,0.0,0.0,0.25,0.5,0.0,-5.607747554779053,-5.545320510864258,0.0,0.0,0.0,0,-62,,,
101,17133977,1686415646.0797,0.0,0.0,0.25,0.5,0.0,-5.668442726135254,-5.626356601715088,0.0,0.0,0.0,0,-62,,,
102,17233937,1686415646.17966,0.0,0.0,0.25,0.5,0.0,-5.729278564453125,-5.682629108428955,0.0,0.0,0.0,0,-62,,,
103,17333897,1686415646.27962,0.0,0.0,0.25,0.5,0.0,-5.790279865264893,-5.729137420654297,0.0,0.0,0.0,0,-62,,,
104,17434690,1686415646.380413,0.0,0.0,0.25,0.5,0.0,-5.851161479949951,-5.810789108276367,0.0,0.0,0.0,0,-62,,,
105,17534650,1686415646.4803731,0.0,0.0,0.25,0.5,0.0,-5.911807060241699,-5.881688594818115,0.0,0.0,0.0,0,-62,,,
106,17634610,1686415646.5803328,0.0,0.0,0.25,0.5,0.0,-5.97340726852417,-5.940859317779541,0.0,0.0,0.0,0,-62,,,
107,17734570,1686415646.680293,0.0,0.0,0.25,0.5,0.0,-6.035703659057617,-6.006730079650879,0.0,0.0,0.0,0,-62,,,
108,17834530,1686415646.7802532,0.0,0.0,0.25,0.5,0.0,-6.098616123199463,-6.0366950035095215,0.0,0.0,0.0,0,-62,,,
109,17934490,1686415646.880213,0.0,0.0,0.25,0.5,0.0,-6.160499572753906,-6.115165710449219,0.0,0.0,0.0,0,-62,,,
110,18034450,1686415646.980173,0.0,0.0,0.25,0.5,0.0,-6.221438407897949,-6.159870624542236,0.0,0.0,0.0,0,-62,,,
111,18134410,1686415647.0801327,0.0,0.0,0.25,0.5,0.0,-6.282034873962402,-6.226106643676758,0.0,0.0,0.0,0,-62,,,
112,18234370,1686415647.180093,0.0,0.0,0.25,0.5,0.0,-6.342041969299316,-6.315577030181885,0.0,0.0,0.0,0,-61,,,
113,18334330,1686415647.2800531,0.0,0.0,0.25,0.5,0.0,-6.34303617477417,-6.360270977020264,0.0,0.0,0.0,0,-61,,,
114,18434290,1686415647.3800128,0.0,0.0,0.25,0.5,0.0,-6.40488338470459,-6.402275085449219,0.0,0.0,0.0,0,-61,,,
115,18534250,1686415647.479973,0.0,0.0,0.25,0.5,0.0,-6.465317726135254,-6.463070869445801,0.0,0.0,0.0,0,-61,,,
116,18634210,1686415647.5799332,0.0,0.0,0.25,0.5,0.0,-6.524804592132568,-6.553831100463867,0.0,0.0,0.0,0,-61,,,
117,18734170,1686415647.679893,0.0,0.0,0.25,0.5,0.0,-6.5850114822387695,-6.621460437774658,0.0,0.0,0.0,0,-61,,,
118,18834130,1686415647.779853,0.0,0.0,0.25,0.5,0.0,-6.646471977233887,-6.6602325439453125,0.0,0.0,0.0,0,-61,,,
119,18934090,1686415647.8798127,0.0,0.0,0.25,0.5,0.0,-6.707860946655273,-6.732330799102783,0.0,0.0,0.0,0,-61,,,
120,19034050,1686415647.979773,0.0,0.0,0.25,0.5,0.0,-6.769366264343262,-6.790132522583008,0.0,0.0,0.0,0,-61,,,
121,19134010,1686415648.0797331,0.0,0.0,0.25,0.5,0.0,-6.830924987792969,-6.871493816375732,0.0,0.0,0.0,0,-61,,,
122,19233970,1686415648.1796927,0.0,0.0,0.25,0.5,0.0,-6.893378734588623,-6.935825824737549,0.0,0.0,0.0,0,-61,,,
123,19333930,1686415648.279653,0.0,0.0,0.25,0.5,0.0,-6.956844329833984,-6.995645523071289,0.0,0.0,0.0,0,-61,,,
124,19433890,1686415648.3796132,0.0,0.0,0.25,0.5,0.0,-7.02091646194458,-7.030580520629883,0.0,0.0,0.0,0,-61,,,
125,19534683,1686415648.480406,0.0,0.0,0.25,0.5,0.0,-7.084588050842285,-7.101307392120361,0.0,0.0,0.0,0,-61,,,
126,19634643,1686415648.580366,0.0,0.0,0.25,0.5,0.0,-7.147062301635742,-7.159756183624268,0.0,0.0,0.0,0,-61,,,
127,19734603,1686415648.680326,0.0,0.0,0.25,0.5,0.0,-7.208974361419678,-7.23244571685791,0.0,0.0,0.0,0,-61,,,
128,19834563,1686415648.780286,0.0,0.0,0.25,0.5,0.0,-7.270933628082275,-7.301506519317627,0.0,0.0,0.0,0,-61,,,
129,19934523,1686415648.880246,0.0,0.0,0.25,0.5,0.0,-7.333415985107422,-7.367893695831299,0.0,0.0,0.0,0,-61,,,
130,20034483,1686415648.980206,0.0,0.0,0.25,0.5,0.0,-7.39656925201416,-7.425690174102783,0.0,0.0,0.0,0,-62,,,
131,20134443,1686415649.080166,0.0,0.0,0.25,0.5,0.0,-7.459507942199707,-7.474414825439453,0.0,0.0,0.0,0,-62,,,
132,20234403,1686415649.180126,0.0,0.0,0.25,0.5,0.0,-7.522477626800537,-7.545851230621338,0.0,0.0,0.0,0,-62,,,
133,20334363,1686415649.280086,0.0,0.0,0.25,0.5,0.0,-7.585321426391602,-7.6143670082092285,0.0,0.0,0.0,0,-62,,,
134,20434323,1686415649.380046,0.0,0.0,0.25,0.5,0.0,-7.648473262786865,-7.666508197784424,0.0,0.0,0.0,0,-62,,,
135,20534283,1686415649.480006,0.0,0.0,0.25,0.5,0.0,-7.71195650100708,-7.700767040252685,0.0,0.0,0.0,0,-62,,,
136,20634243,1686415649.579966,0.0,0.0,0.25,0.5,0.0,-7.773330688476562,-7.770470142364502,0.0,0.0,0.0,0,-62,,,
137,20734203,1686415649.679926,0.0,0.0,0.25,0.5,0.0,-7.833409786224365,-7.835870742797852,0.0,0.0,0.0,0,-62,,,
138,20834163,1686415649.779886,0.0,0.0,0.25,0.5,0.0,-7.892595767974853,-7.9051995277404785,0.0,0.0,0.0,0,-61,,,
139,20934123,1686415649.879846,0.0,0.0,0.25,0.5,0.0,-7.951617240905762,-7.982546329498291,0.0,0.0,0.0,0,-61,,,
140,21034083,1686415649.979806,0.0,0.0,0.25,0.5,0.0,-8.011406898498535,-8.046141624450684,0.0,0.0,0.0,0,-61,,,
141,21134043,1686415650.079766,0.0,0.0,0.25,0.5,0.0,-8.072227478027344,-8.103686332702637,0.0,0.0,0.0,0,-61,,,
142,21234003,1686415650.179726,0.0,0.0,0.25,0.5,0.0,-8.133689880371094,-8.13095474243164,0.0,0.0,0.0,0,-61,,,
143,21333963,1686415650.279686,0.0,0.0,0.25,0.5,0.0,-8.194173812866211,-8.21909236907959,0.0,0.0,0.0,0,-61,,,
144,21433923,1686415650.379646,0.0,0.0,0.25,0.5,0.0,-8.25429630279541,-8.270278930664062,0.0,0.0,0.0,0,-61,,,
145,21533883,1686415650.479606,0.0,0.0,0.25,0.5,0.0,-8.31436824798584,-8.342748641967773,0.0,0.0,0.0,0,-61,,,
146,21634676,1686415650.580399,0.0,0.0,0.25,0.5,0.0,-8.375177383422852,-8.404095649719238,0.0,0.0,0.0,0,-61,,,
147,21734636,1686415650.6803591,0.0,0.0,0.25,0.5,0.0,-8.43595027923584,-8.46390438079834,0.0,0.0,0.0,0,-61,,,
148,21834596,1686415650.7803187,0.0,0.0,0.25,0.5,0.0,-8.497042655944824,-8.5281343460083,0.0,0.0,0.0,0,-61,,,
149,21934556,1686415650.880279,0.0,0.0,0.25,0.5,0.0,-8.558449745178223,-8.598116874694824,0.0,0.0,0.0,0,-61,,,
150,22034516,1686415650.9802392,0.0,0.0,0.25,0.5,0.0,-8.620473861694336,-8.657811164855957,0.0,0.0,0.0,0,-61,,,
151,22134476,1686415651.080199,0.0,0.0,0.25,0.5,0.0,-8.683029174804688,-8.694479942321777,0.0,0.0,0.0,0,-61,,,
152,22234436,1686415651.180159,0.0,0.0,0.25,0.5,0.0,-8.744403839111328,-8.764777183532715,0.0,0.0,0.0,0,-61,,,
153,22334396,1686415651.2801187,0.0,0.0,0.25,0.5,0.0,-8.805607795715332,-8.835384368896484,0.0,0.0,0.0,0,-61,,,
154,22434356,1686415651.380079,0.0,0.0,0.25,0.5,0.0,-8.8668794631958,-8.891621589660645,0.0,0.0,0.0,0,-61,,,
155,22534316,1686415651.4800391,0.0,0.0,0.25,0.5,0.0,-8.92819881439209,-8.973196983337402,0.0,0.0,0.0,0,-61,,,
156,22634276,1686415651.5799987,0.0,0.0,0.25,0.5,0.0,-8.990756034851074,-9.024028778076172,0.0,0.0,0.0,0,-61,,,
157,22734236,1686415651.679959,0.0,0.0,0.25,0.5,0.0,-9.053318977355955,-9.072423934936523,0.0,0.0,0.0,0,-61,,,
158,22834196,1686415651.7799191,0.0,0.0,0.25,0.5,0.0,-9.115474700927734,-9.12611484527588,0.0,0.0,0.0,0,-61,,,
159,22934156,1686415651.879879,0.0,0.0,0.25,0.5,0.0,-9.17672348022461,-9.22363567352295,0.0,0.0,0.0,0,-61,,,
160,23034116,1686415651.979839,0.0,0.0,0.25,0.5,0.0,-9.238574028015137,-9.274660110473633,0.0,0.0,0.0,0,-61,,,
161,23134076,1686415652.0797992,0.0,0.0,0.25,0.5,0.0,-9.301207542419434,-9.318565368652344,0.0,0.0,0.0,0,-61,,,
162,23234036,1686415652.179759,0.0,0.0,0.25,0.5,0.0,-9.363449096679688,-9.37567138671875,0.0,0.0,0.0,0,-61,,,
163,23333996,1686415652.279719,0.0,0.0,0.25,0.5,0.0,-9.424830436706545,-9.432065963745115,0.0,0.0,0.0,0,-61,,,
164,23433956,1686415652.3796787,0.0,0.0,0.25,0.5,0.0,-9.48530387878418,-9.527832984924316,0.0,0.0,0.0,0,-61,,,
165,23533916,1686415652.479639,0.0,0.0,0.25,0.5,0.0,-9.54640293121338,-9.590892791748049,0.0,0.0,0.0,0,-61,,,
166,23633876,1686415652.5795991,0.0,0.0,0.25,0.5,0.0,-9.608777046203612,-9.64648723602295,0.0,0.0,0.0,0,-61,,,
167,23734669,1686415652.680392,0.0,0.0,0.25,0.5,0.0,-9.672364234924316,-9.694099426269531,0.0,0.0,0.0,0,-61,,,
168,23834629,1686415652.780352,0.0,0.0,0.25,0.5,0.0,-9.73522663116455,-9.763439178466797,0.0,0.0,0.0,0,-61,,,
169,23934589,1686415652.880312,0.0,0.0,0.25,0.5,0.0,-9.797897338867188,-9.823917388916016,0.0,0.0,0.0,0,-61,,,
170,24034549,1686415652.980272,0.0,0.0,0.25,0.5,0.0,-9.86050796508789,-9.884748458862305,0.0,0.0,0.0,0,-61,,,
171,24134509,1686415653.080232,0.0,0.0,0.25,0.5,0.0,-9.922982215881348,-9.931763648986816,0.0,0.0,0.0,0,-61,,,
172,24234469,1686415653.180192,0.0,0.0,0.25,0.5,0.0,-9.984220504760742,-9.999040603637695,0.0,0.0,0.0,0,-61,,,
173,24334429,1686415653.280152,0.0,0.0,0.25,0.5,0.0,-10.045360565185549,-10.086785316467283,0.0,0.0,0.0,0,-61,,,
174,24434389,1686415653.380112,0.0,0.0,0.25,0.5,0.0,-10.107243537902832,-10.11705493927002,0.0,0.0,0.0,0,-61,,,
175,24534349,1686415653.480072,0.0,0.0,0.25,0.5,0.0,-10.16899299621582,-10.191024780273438,0.0,0.0,0.0,0,-61,,,
176,24634309,1686415653.580032,0.0,0.0,0.25,0.5,0.0,-10.23045539855957,-10.238537788391112,0.0,0.0,0.0,0,-61,,,
177,24734269,1686415653.679992,0.0,0.0,0.25,0.5,0.0,-10.291936874389648,-10.32163906097412,0.0,0.0,0.0,0,-61,,,
178,24834229,1686415653.779952,0.0,0.0,0.25,0.5,0.0,-10.353092193603516,-10.370495796203612,0.0,0.0,0.0,0,-61,,,
179,24934189,1686415653.879912,0.0,0.0,0.25,0.5,0.0,-10.414349555969238,-10.43547534942627,0.0,0.0,0.0,0,-61,,,
180,25034149,1686415653.979872,0.0,0.0,0.25,0.5,0.0,-10.475545883178713,-10.526782989501951,0.0,0.0,0.0,0,-61,,,
181,25134109,1686415654.079832,0.0,0.0,0.25,0.5,0.0,-10.537952423095703,-10.581921577453612,0.0,0.0,0.0,0,-61,,,
182,25234069,1686415654.179792,0.0,0.0,0.25,0.5,0.0,-10.601577758789062,-10.62209701538086,0.0,0.0,0.0,0,-61,,,
183,25334029,1686415654.279752,0.0,0.0,0.5,0.5,0.0,-10.661879539489746,-10.692514419555664,0.0,0.0,0.0,0,-51,,,
184,25433989,1686415654.379712,0.0,0.0,0.5,0.5,0.0,-10.707682609558104,-10.736491203308104,0.0,0.0,0.0,0,-38,,,
185,25533949,1686415654.479672,0.0,0.0,0.5,0.5,0.0,-10.742999076843262,-10.774507522583008,0.0,0.0,0.0,0,-31,,,
186,25633909,1686415654.579632,0.0,0.0,0.5,0.5,0.0,-10.771265983581545,-10.809295654296877,0.0,0.0,0.0,0,-25,,,
187,25734702,1686415654.6804252,0.0,0.0,0.5,0.5,0.0,-10.794787406921388,-10.79893684387207,0.0,0.0,0.0,0,-21,,,
188,25834662,1686415654.780385,0.0,0.0,0.5,0.5,0.0,-10.81292724609375,-10.822277069091797,0.0,0.0,0.0,0,-18,,,
189,25934622,1686415654.880345,0.0,0.0,0.5,0.5,0.0,-10.826775550842283,-10.864420890808104,0.0,0.0,0.0,0,-16,,,
190,26034582,1686415654.9803047,0.0,0.0,0.5,0.5,0.0,-10.838536262512209,-10.873059272766112,0.0,0.0,0.0,0,-14,,,
191,26134542,1686415655.080265,0.0,0.0,0.5,0.5,0.0,-10.84865665435791,-10.877131462097168,0.0,0.0,0.0,0,-12,,,
192,26234502,1686415655.1802251,0.0,0.0,0.5,0.5,0.0,-10.85690975189209,-10.8796968460083,0.0,0.0,0.0,0,-10,,,
193,26334462,1686415655.2801847,0.0,0.0,0.5,0.5,0.0,-10.863049507141112,-10.88008975982666,0.0,0.0,0.0,0,-9,,,
194,26434422,1686415655.380145,0.0,0.0,0.5,0.5,0.0,-10.867115020751951,-10.912590980529783,0.0,0.0,0.0,0,-7,,,
195,26534382,1686415655.4801052,0.0,0.0,0.5,0.5,0.0,-10.870511054992676,-10.90224838256836,0.0,0.0,0.0,0,-6,,,
196,26634342,1686415655.580065,0.0,0.0,0.5,0.5,0.0,-10.872852325439451,-10.932190895080566,0.0,0.0,0.0,0,-5,,,
197,26734302,1686415655.680025,0.0,0.0,0.5,0.5,0.0,-10.875224113464355,-10.927786827087402,0.0,0.0,0.0,0,-4,,,
198,26834262,1686415655.7799847,0.0,0.0,0.5,0.5,0.0,-10.877321243286133,-10.930328369140623,0.0,0.0,0.0,0,-3,,,
199,26934222,1686415655.879945,0.0,0.0,0.5,0.5,0.0,-10.878902435302734,-10.925074577331545,0.0,0.0,0.0,0,-2,,,
200,27034182,1686415655.9799051,0.0,0.0,0.5,0.5,0.0,-10.879539489746094,-10.926701545715332,0.0,0.0,0.0,0,-1,,,
201,27134142,1686415656.0798647,0.0,0.0,0.5,0.5,0.0,-10.87919807434082,-10.935237884521484,0.0,0.0,0.0,0,0,,,
202,27234102,1686415656.179825,0.0,0.0,0.5,0.5,0.0,-10.878331184387209,-10.955615043640137,0.0,0.0,0.0,0,0,,,
203,27334062,1686415656.2797852,0.0,0.0,0.5,0.5,0.0,-10.87794303894043,-10.965460777282717,0.0,0.0,0.0,0,0,,,
204,27434022,1686415656.379745,0.0,0.0,0.5,0.5,0.0,-10.878443717956545,-10.942477226257324,0.0,0.0,0.0,0,1,,,
205,27533982,1686415656.479705,0.0,0.0,0.5,0.5,0.0,-10.878432273864746,-10.93356227874756,0.0,0.0,0.0,0,1,,,
206,27633942,1686415656.5796647,0.0,0.0,0.5,0.5,0.0,-10.877129554748535,-10.95653247833252,0.0,0.0,0.0,0,2,,,
207,27733902,1686415656.679625,0.0,0.0,0.5,0.5,0.0,-10.875703811645508,-10.949332237243652,0.0,0.0,0.0,0,2,,,
208,27834695,1686415656.780418,0.0,0.0,0.5,0.5,0.0,-10.87404727935791,-10.941911697387695,0.0,0.0,0.0,0,3,,,
209,27934655,1686415656.880378,0.0,0.0,0.5,0.5,0.0,-10.871758460998535,-10.934504508972168,0.0,0.0,0.0,0,3,,,
210,28034615,1686415656.980338,0.0,0.0,0.5,0.5,0.0,-10.8685302734375,-10.926339149475098,0.0,0.0,0.0,0,4,,,
211,28134575,1686415657.080298,0.0,0.0,0.5,0.5,0.0,-10.864180564880373,-10.920945167541504,0.0,0.0,0.0,0,4,,,
212,28234535,1686415657.180258,0.0,0.0,0.5,0.5,0.0,-10.85876178741455,-10.921910285949709,0.0,0.0,0.0,0,5,,,
213,28334495,1686415657.280218,0.0,0.0,0.5,0.5,0.0,-10.852706909179688,-10.909050941467283,0.0,0.0,0.0,0,6,,,
214,28434455,1686415657.380178,0.0,0.0,0.5,0.5,0.0,-10.84587860107422,-10.91271686553955,0.0,0.0,0.0,0,6,,,
215,28534415,1686415657.480138,0.0,0.0,0.5,0.5,0.0,-10.838659286499023,-10.90770435333252,0.0,0.0,0.0,0,7,,,
216,28634375,1686415657.580098,0.0,0.0,0.5,0.5,0.0,-10.831307411193848,-10.907759666442873,0.0,0.0,0.0,0,7,,,
217,28734335,1686415657.680058,0.0,0.0,0.5,0.5,0.0,-10.824113845825195,-10.925005912780762,0.0,0.0,0.0,0,7,,,
218,28834295,1686415657.780018,0.0,0.0,0.5,0.5,0.0,-10.81809425354004,-10.89776611328125,0.0,0.0,0.0,0,8,,,
219,28934255,1686415657.879978,0.0,0.0,0.5,0.5,0.0,-10.812310218811035,-10.899274826049805,0.0,0.0,0.0,0,8,,,
220,29034215,1686415657.979938,0.0,0.0,0.5,0.5,0.0,-10.806568145751951,-10.898357391357422,0.0,0.0,0.0,0,8,,,
221,29134175,1686415658.079898,0.0,0.0,0.5,0.5,0.0,-10.80124855041504,-10.86123275756836,0.0,0.0,0.0,0,8,,,
222,29234135,1686415658.179858,0.0,0.0,0.5,0.5,0.0,-10.79506492614746,-10.89427661895752,0.0,0.0,0.0,0,8,,,
223,29334095,1686415658.279818,0.0,0.0,0.5,0.5,0.0,-10.789124488830566,-10.85434627532959,0.0,0.0,0.0,0,8,,,
224,29434055,1686415658.379778,0.0,0.0,0.5,0.5,0.0,-10.782867431640623,-10.865272521972656,0.0,0.0,0.0,0,8,,,
225,29534015,1686415658.479738,0.0,0.0,0.5,0.5,0.0,-10.77634334564209,-10.828557014465332,0.0,0.0,0.0,0,8,,,
226,29633975,1686415658.579698,0.0,0.0,0.5,0.5,0.0,-10.768831253051758,-10.862180709838867,0.0,0.0,0.0,0,8,,,
227,29733935,1686415658.679658,0.0,0.0,0.5,0.5,0.0,-10.761591911315918,-10.838441848754885,0.0,0.0,0.0,0,8,,,
228,29833895,1686415658.779618,0.0,0.0,0.5,0.5,0.0,-10.754783630371094,-10.839083671569824,0.0,0.0,0.0,0,8,,,
229,29934688,1686415658.8804111,0.0,0.0,0.5,0.5,0.0,-10.748162269592283,-10.806559562683104,0.0,0.0,0.0,0,8,,,
230,30034648,1686415658.980371,0.0,0.0,0.5,0.5,0.0,-10.740968704223633,-10.809950828552246,0.0,0.0,0.0,0,8,,,
231,30134608,1686415659.080331,0.0,0.0,0.5,0.5,0.0,-10.733195304870604,-10.792987823486328,0.0,0.0,0.0,0,8,,,
232,30234568,1686415659.1802912,0.0,0.0,0.5,0.5,0.0,-10.724897384643556,-10.78151798248291,0.0,0.0,0.0,0,8,,,
233,30334528,1686415659.280251,0.0,0.0,0.5,0.5,0.0,-10.715909957885742,-10.766605377197266,0.0,0.0,0.0,0,8,,,
234,30434488,1686415659.380211,0.0,0.0,0.5,0.5,0.0,-10.706138610839844,-10.78420639038086,0.0,0.0,0.0,0,9,,,
235,30534448,1686415659.4801707,0.0,0.0,0.5,0.5,0.0,-10.696809768676758,-10.754255294799805,0.0,0.0,0.0,0,9,,,
236,30634408,1686415659.580131,0.0,0.0,0.5,0.5,0.0,-10.68743133544922,-10.760990142822266,0.0,0.0,0.0,0,9,,,
237,30734368,1686415659.6800911,0.0,0.0,0.5,0.5,0.0,-10.678250312805176,-10.72495174407959,0.0,0.0,0.0,0,9,,,
238,30834328,1686415659.7800508,0.0,0.0,0.5,0.5,0.0,-10.668492317199709,-10.749323844909668,0.0,0.0,0.0,0,9,,,
239,30934288,1686415659.880011,0.0,0.0,0.5,0.5,0.0,-10.658997535705566,-10.73179531097412,0.0,0.0,0.0,0,9,,,
240,31034248,1686415659.9799712,0.0,0.0,0.5,0.5,0.0,-10.650213241577148,-10.724727630615234,0.0,0.0,0.0,0,9,,,
241,31134208,1686415660.079931,0.0,0.0,0.5,0.5,0.0,-10.641775131225586,-10.689400672912598,0.0,0.0,0.0,0,9,,,
242,31234168,1686415660.179891,0.0,0.0,0.5,0.5,0.0,-10.632569313049316,-10.707487106323242,0.0,0.0,0.0,0,9,,,
243,31334128,1686415660.2798507,0.0,0.0,0.5,0.5,0.0,-10.623319625854492,-10.671554565429688,0.0,0.0,0.0,0,9,,,
244,31434088,1686415660.379811,0.0,0.0,0.5,0.5,0.0,-10.613571166992188,-10.68768310546875,0.0,0.0,0.0,0,9,,,
245,31534048,1686415660.4797711,0.0,0.0,0.5,0.5,0.0,-10.603910446166992,-10.663962364196776,0.0,0.0,0.0,0,9,,,
246,31634008,1686415660.5797307,0.0,0.0,0.5,0.5,0.0,-10.594303131103516,-10.662418365478516,0.0,0.0,0.0,0,9,,,
247,31733968,1686415660.679691,0.0,0.0,0.5,0.5,0.0,-10.58474349975586,-10.664097785949709,0.0,0.0,0.0,0,9,,,
248,31833928,1686415660.7796512,0.0,0.0,0.5,0.5,0.0,-10.575824737548828,-10.657249450683594,0.0,0.0,0.0,0,9,,,
249,31933888,1686415660.879611,0.0,0.0,0.5,0.5,0.0,-10.567678451538086,-10.639078140258787,0.0,0.0,0.0,0,9,,,
250,32034681,1686415660.980404,0.0,0.0,0.5,0.5,0.0,-10.559666633605955,-10.627493858337402,0.0,0.0,0.0,0,9,,,
251,32134641,1686415661.080364,0.0,0.0,0.5,0.5,0.0,-10.551558494567873,-10.616869926452637,0.0,0.0,0.0,0,9,,,
252,32234601,1686415661.180324,0.0,0.0,0.5,0.5,0.0,-10.543179512023926,-10.582404136657717,0.0,0.0,0.0,0,9,,,
253,32334561,1686415661.280284,0.0,0.0,0.5,0.5,0.0,-10.533552169799805,-10.596298217773438,0.0,0.0,0.0,0,9,,,
254,32434521,1686415661.380244,0.0,0.0,0.5,0.5,0.0,-10.523408889770508,-10.58537483215332,0.0,0.0,0.0,0,9,,,
255,32534481,1686415661.480204,0.0,0.0,0.5,0.5,0.0,-10.51336669921875,-10.584074020385742,0.0,0.0,0.0,0,9,,,
256,32634441,1686415661.580164,0.0,0.0,0.5,0.5,0.0,-10.503789901733398,-10.551077842712402,0.0,0.0,0.0,0,9,,,
257,32734401,1686415661.680124,0.0,0.0,0.5,0.5,0.0,-10.49367332458496,-10.535269737243652,0.0,0.0,0.0,0,9,,,
258,32834361,1686415661.780084,0.0,0.0,0.5,0.5,0.0,-10.48249340057373,-10.524849891662598,0.0,0.0,0.0,0,9,,,
259,32934321,1686415661.880044,0.0,0.0,0.5,0.5,0.0,-10.470447540283203,-10.526556015014648,0.0,0.0,0.0,0,9,,,
260,33034281,1686415661.980004,0.0,0.0,0.5,0.5,0.0,-10.458211898803713,-10.52957248687744,0.0,0.0,0.0,0,9,,,
261,33134241,1686415662.079964,0.0,0.0,0.5,0.5,0.0,-10.44680404663086,-10.504387855529783,0.0,0.0,0.0,0,10,,,
262,33234201,1686415662.179924,0.0,0.0,0.5,0.5,0.0,-10.435657501220703,-10.516676902770996,0.0,0.0,0.0,0,10,,,
263,33334161,1686415662.279884,0.0,0.0,0.5,0.5,0.0,-10.425275802612305,-10.503450393676758,0.0,0.0,0.0,0,10,,,
264,33434121,1686415662.379844,0.0,0.0,0.5,0.5,0.0,-10.415794372558594,-10.49240779876709,0.0,0.0,0.0,0,10,,,
265,33534081,1686415662.479804,0.0,0.0,0.5,0.5,0.0,-10.406820297241213,-10.447322845458984,0.0,0.0,0.0,0,9,,,
266,33634041,1686415662.579764,0.0,0.0,0.5,0.5,0.0,-10.39676284790039,-10.470593452453612,0.0,0.0,0.0,0,9,,,
267,33734001,1686415662.679724,0.0,0.0,0.5,0.5,0.0,-10.38647174835205,-10.460811614990234,0.0,0.0,0.0,0,10,,,
268,33833961,1686415662.779684,0.0,0.0,0.5,0.5,0.0,-10.376736640930176,-10.441415786743164,0.0,0.0,0.0,0,10,,,
269,33933921,1686415662.879644,0.0,0.0,0.5,0.5,0.0,-10.36702823638916,-10.418723106384276,0.0,0.0,0.0,0,10,,,
270,34033881,1686415662.979604,0.0,0.0,0.5,0.5,0.0,-10.356624603271484,-10.436285018920898,0.0,0.0,0.0,0,10,,,
271,34134674,1686415663.0803971,0.0,0.0,0.5,0.5,0.0,-10.346497535705566,-10.41291332244873,0.0,0.0,0.0,0,10,,,
272,34234634,1686415663.1803567,0.0,0.0,0.5,0.5,0.0,-10.336691856384276,-10.395092010498049,0.0,0.0,0.0,0,10,,,
273,34334594,1686415663.280317,0.0,0.0,0.5,0.5,0.0,-10.32644271850586,-10.39482593536377,0.0,0.0,0.0,0,10,,,
274,34434554,1686415663.3802772,0.0,0.0,0.5,0.5,0.0,-10.3162202835083,-10.36606788635254,0.0,0.0,0.0,0,10,,,
275,34534514,1686415663.480237,0.0,0.0,0.5,0.5,0.0,-10.305298805236816,-10.376587867736816,0.0,0.0,0.0,0,10,,,
276,34634474,1686415663.580197,0.0,0.0,0.5,0.5,0.0,-10.294672966003418,-10.345219612121582,0.0,0.0,0.0,0,10,,,
277,34734434,1686415663.6801567,0.0,0.0,0.5,0.5,0.0,-10.283447265625,-10.351341247558594,0.0,0.0,0.0,0,10,,,
278,34834394,1686415663.780117,0.0,0.0,0.5,0.5,0.0,-10.272344589233398,-10.333869934082031,0.0,0.0,0.0,0,10,,,
279,34934354,1686415663.8800771,0.0,0.0,0.5,0.5,0.0,-10.26125144958496,-10.319021224975586,0.0,0.0,0.0,0,10,,,
280,35034314,1686415663.9800367,0.0,0.0,0.5,0.5,0.0,-10.249882698059082,-10.33736801147461,0.0,0.0,0.0,0,10,,,
281,35134274,1686415664.079997,0.0,0.0,0.5,0.5,0.0,-10.239523887634276,-10.318461418151855,0.0,0.0,0.0,0,10,,,
282,35234234,1686415664.1799572,0.0,0.0,0.5,0.5,0.0,-10.230039596557615,-10.310744285583496,0.0,0.0,0.0,0,10,,,
283,35334194,1686415664.279917,0.0,0.0,0.5,0.5,0.0,-10.221089363098145,-10.30736255645752,0.0,0.0,0.0,0,10,,,
284,35434154,1686415664.379877,0.0,0.0,0.5,0.5,0.0,-10.21281623840332,-10.283217430114746,0.0,0.0,0.0,0,10,,,
285,35534114,1686415664.4798367,0.0,0.0,0.5,0.5,0.0,-10.204404830932615,-10.25192928314209,0.0,0.0,0.0,0,10,,,
286,35634074,1686415664.579797,0.0,0.0,0.5,0.5,0.0,-10.194657325744627,-10.25251579284668,0.0,0.0,0.0,0,10,,,
287,35734034,1686415664.679757,0.0,0.0,0.5,0.5,0.0,-10.184125900268556,-10.275001525878906,0.0,0.0,0.0,0,10,,,
288,35833994,1686415664.7797167,0.0,0.0,0.5,0.5,0.0,-10.174707412719728,-10.237788200378418,0.0,0.0,0.0,0,10,,,
289,35933954,1686415664.879677,0.0,0.0,0.5,0.5,0.0,-10.165273666381836,-10.225568771362305,0.0,0.0,0.0,0,10,,,
290,36033914,1686415664.9796371,0.0,0.0,0.5,0.5,0.0,-10.155329704284668,-10.242327690124512,0.0,0.0,0.0,0,10,,,
291,36133874,1686415665.079597,0.0,0.0,0.5,0.5,0.0,-10.14621925354004,-10.22482967376709,0.0,0.0,0.0,0,9,,,
292,36234667,1686415665.18039,0.0,0.0,0.5,0.5,0.0,-10.137617111206056,-10.2186861038208,0.0,0.0,0.0,0,9,,,
293,36334627,1686415665.28035,0.0,0.0,0.5,0.5,0.0,-10.129541397094728,-10.206058502197266,0.0,0.0,0.0,0,9,,,
294,36434587,1686415665.38031,0.0,0.0,0.5,0.5,0.0,-10.121636390686035,-10.174325942993164,0.0,0.0,0.0,0,9,,,
295,36534547,1686415665.48027,0.0,0.0,0.5,0.5,0.0,-10.112728118896484,-10.188858032226562,0.0,0.0,0.0,0,9,,,
296,36634507,1686415665.58023,0.0,0.0,0.5,0.5,0.0,-10.103882789611816,-10.165752410888672,0.0,0.0,0.0,0,9,,,
297,36734467,1686415665.68019,0.0,0.0,0.5,0.5,0.0,-10.094849586486816,-10.175180435180664,0.0,0.0,0.0,0,9,,,
298,36834427,1686415665.78015,0.0,0.0,0.5,0.5,0.0,-10.086225509643556,-10.155455589294434,0.0,0.0,0.0,0,9,,,
299,36934387,1686415665.88011,0.0,0.0,0.5,0.5,0.0,-10.077715873718262,-10.126286506652832,0.0,0.0,0.0,0,9,,,
300,37034347,1686415665.98007,0.0,0.0,0.5,0.5,0.0,-10.068198204040527,-10.13209056854248,0.0,0.0,0.0,0,9,,,
301,37134307,1686415666.08003,0.0,0.0,0.5,0.5,0.0,-10.058310508728027,-10.101441383361816,0.0,0.0,0.0,0,9,,,
302,37234267,1686415666.17999,0.0,0.0,0.5,0.5,0.0,-10.047539710998535,-10.09507942199707,0.0,0.0,0.0,0,9,,,
303,37334227,1686415666.27995,0.0,0.0,0.5,0.5,0.0,-10.03598976135254,-10.095271110534668,0.0,0.0,0.0,0,9,,,
304,37434187,1686415666.37991,0.0,0.0,0.5,0.5,0.0,-10.024460792541504,-10.103309631347656,0.0,0.0,0.0,0,9,,,
305,37534147,1686415666.47987,0.0,0.0,0.5,0.5,0.0,-10.013980865478516,-10.0676851272583,0.0,0.0,0.0,0,9,,,
306,37634107,1686415666.57983,0.0,0.0,0.5,0.5,0.0,-10.00333023071289,-10.083675384521484,0.0,0.0,0.0,0,9,,,
307,37734067,1686415666.67979,0.0,0.0,0.5,0.5,0.0,-9.993414878845217,-10.053654670715332,0.0,0.0,0.0,0,9,,,
308,37834027,1686415666.77975,0.0,0.0,0.5,0.5,0.0,-9.98345184326172,-10.066237449645996,0.0,0.0,0.0,0,9,,,
309,37933987,1686415666.87971,0.0,0.0,0.5,0.5,0.0,-9.974203109741213,-10.056594848632812,0.0,0.0,0.0,0,9,,,
310,38033947,1686415666.97967,0.0,0.0,0.5,0.5,0.0,-9.965764999389648,-10.019732475280762,0.0,0.0,0.0,0,9,,,
311,38133907,1686415667.07963,0.0,0.0,0.5,0.5,0.0,-9.956602096557615,-10.027244567871094,0.0,0.0,0.0,0,9,,,
312,38234700,1686415667.180423,0.0,0.0,0.5,0.5,0.0,-9.947230339050291,-10.011302947998049,0.0,0.0,0.0,0,9,,,
313,38334660,1686415667.280383,0.0,0.0,0.5,0.5,0.0,-9.937786102294922,-10.001566886901855,0.0,0.0,0.0,0,9,,,
314,38434620,1686415667.3803427,0.0,0.0,0.5,0.5,0.0,-9.928194046020508,-10.005607604980469,0.0,0.0,0.0,0,9,,,
315,38534580,1686415667.480303,0.0,0.0,0.5,0.5,0.0,-9.919034957885742,-9.992033004760742,0.0,0.0,0.0,0,9,,,
316,38634540,1686415667.5802631,0.0,0.0,0.5,0.5,0.0,-9.91031265258789,-9.990687370300291,0.0,0.0,0.0,0,9,,,
317,38734500,1686415667.6802227,0.0,0.0,0.5,0.5,0.0,-9.902108192443848,-9.970416069030762,0.0,0.0,0.0,0,9,,,
318,38834460,1686415667.780183,0.0,0.0,0.5,0.5,0.0,-9.894054412841797,-9.93402862548828,0.0,0.0,0.0,0,9,,,
319,38934420,1686415667.8801432,0.0,0.0,0.5,0.5,0.0,-9.884641647338867,-9.943201065063477,0.0,0.0,0.0,0,9,,,
320,39034380,1686415667.980103,0.0,0.0,0.5,0.5,0.0,-9.874457359313965,-9.947884559631348,0.0,0.0,0.0,0,9,,,
321,39134340,1686415668.080063,0.0,0.0,0.5,0.5,0.0,-9.864701271057127,-9.928271293640137,0.0,0.0,0.0,0,9,,,
322,39234300,1686415668.1800227,0.0,0.0,0.5,0.5,0.0,-9.855100631713867,-9.926624298095703,0.0,0.0,0.0,0,9,,,
323,39334260,1686415668.279983,0.0,0.0,0.5,0.5,0.0,-9.845845222473145,-9.92038631439209,0.0,0.0,0.0,0,9,,,
324,39434220,1686415668.3799431,0.0,0.0,0.5,0.5,0.0,-9.837064743041992,-9.894580841064451,0.0,0.0,0.0,0,9,,,
325,39534180,1686415668.4799027,0.0,0.0,0.5,0.5,0.0,-9.82802677154541,-9.875497817993164,0.0,0.0,0.0,0,9,,,
326,39634140,1686415668.579863,0.0,0.0,0.5,0.5,0.0,-9.818058967590332,-9.872185707092283,0.0,0.0,0.0,0,9,,,
327,39734100,1686415668.6798232,0.0,0.0,0.5,0.5,0.0,-9.807477951049805,-9.866606712341309,0.0,0.0,0.0,0,9,,,
328,39834060,1686415668.779783,0.0,0.0,0.5,0.5,0.0,-9.796788215637209,-9.836400032043455,0.0,0.0,0.0,0,9,,,
329,39934020,1686415668.879743,0.0,0.0,0.5,0.5,0.0,-9.785340309143066,-9.868919372558594,0.0,0.0,0.0,0,9,,,
330,40033980,1686415668.9797027,0.0,0.0,0.5,0.5,0.0,-9.774628639221191,-9.84235668182373,0.0,0.0,0.0,0,9,,,
331,40133940,1686415669.079663,0.0,0.0,0.5,0.5,0.0,-9.76472282409668,-9.827056884765623,0.0,0.0,0.0,0,9,,,
332,40233900,1686415669.1796231,0.0,0.0,0.5,0.5,0.0,-9.754823684692385,-9.829258918762209,0.0,0.0,0.0,0,9,,,
333,40334693,1686415669.280416,0.0,0.0,0.5,0.5,0.0,-9.745196342468262,-9.790771484375,0.0,0.0,0.0,0,9,,,
334,40434653,1686415669.380376,0.0,0.0,0.5,0.5,0.0,-9.735020637512209,-9.79322910308838,0.0,0.0,0.0,0,9,,,
335,40534613,1686415669.480336,0.0,0.0,0.5,0.5,0.0,-9.72425937652588,-9.779939651489258,0.0,0.0,0.0,0,9,,,
336,40634573,1686415669.580296,0.0,0.0,0.5,0.5,0.0,-9.71323013305664,-9.781131744384766,0.0,0.0,0.0,0,9,,,
337,40734533,1686415669.680256,0.0,0.0,0.5,0.5,0.0,-9.70240879058838,-9.752638816833496,0.0,0.0,0.0,0,10,,,
338,40834493,1686415669.780216,0.0,0.0,0.5,0.5,0.0,-9.691279411315918,-9.772512435913086,0.0,0.0,0.0,0,10,,,
339,40934453,1686415669.880176,0.0,0.0,0.5,0.5,0.0,-9.68082332611084,-9.753578186035156,0.0,0.0,0.0,0,10,,,
340,41034413,1686415669.980136,0.0,0.0,0.5,0.5,0.0,-9.671014785766602,-9.732874870300291,0.0,0.0,0.0,0,10,,,
341,41134373,1686415670.080096,0.0,0.0,0.5,0.5,0.0,-9.66110897064209,-9.741850852966309,0.0,0.0,0.0,0,10,,,
342,41234333,1686415670.180056,0.0,0.0,0.5,0.5,0.0,-9.651637077331545,-9.720928192138672,0.0,0.0,0.0,0,10,,,
343,41334293,1686415670.280016,0.0,0.0,0.5,0.5,0.0,-9.642352104187012,-9.727611541748049,0.0,0.0,0.0,0,9,,,
344,41434253,1686415670.379976,0.0,0.0,0.5,0.5,0.0,-9.633724212646484,-9.689790725708008,0.0,0.0,0.0,0,9,,,
345,41534213,1686415670.479936,0.0,0.0,0.5,0.5,0.0,-9.624714851379396,-9.677736282348633,0.0,0.0,0.0,0,9,,,
346,41634173,1686415670.579896,0.0,0.0,0.5,0.5,0.0,-9.614712715148926,-9.690481185913086,0.0,0.0,0.0,0,9,,,
347,41734133,1686415670.679856,0.0,0.0,0.5,0.5,0.0,-9.60483455657959,-9.661921501159668,0.0,0.0,0.0,0,9,,,
348,41834093,1686415670.779816,0.0,0.0,0.5,0.5,0.0,-9.594806671142578,-9.663126945495604,0.0,0.0,0.0,0,9,,,
349,41934053,1686415670.879776,0.0,0.0,0.5,0.5,0.0,-9.584718704223633,-9.654263496398926,0.0,0.0,0.0,0,9,,,
350,42034013,1686415670.979736,0.0,0.0,0.5,0.5,0.0,-9.57486629486084,-9.63326358795166,0.0,0.0,0.0,0,9,,,
351,42107000,1686415670.979736,0.0,0.0,0.5,0.5,0.0,-9.57486629486084,-9.63326358795166,0.0,0.0,0.0,0,9,-20.0,-9.645041724793726,10.259958275206271
352,42133973,1686415671.079696,0.0,0.0,0.5,0.5,0.0,-9.564776420593262,-9.630463600158691,0.0,10.24,0.0,0,9,-20.0,-9.645041724793726,10.259958275206271
353,42207000,1686415671.079696,0.0,0.0,0.5,0.5,0.0,-9.564776420593262,-9.630463600158691,0.0,10.24,0.0,0,9,-20.0,-9.635732365252949,10.269267634747052
354,42233933,1686415671.179656,0.0,0.0,0.5,0.5,0.0,-9.554560661315918,-9.633180618286133,0.0,10.25,0.0,0,9,-20.0,-9.635732365252949,10.269267634747052
355,42308000,1686415671.179656,0.0,0.0,0.5,0.5,0.0,-9.554560661315918,-9.633180618286133,0.0,10.25,0.0,0,9,-20.0,-9.626630584437116,10.278369415562883
356,42333893,1686415671.279616,0.0,0.0,0.5,0.5,0.0,-9.544907569885254,-9.63499355316162,0.0,10.25,0.0,0,9,-20.0,-9.626630584437116,10.278369415562883
357,42409000,1686415671.279616,0.0,0.0,0.5,0.5,0.0,-9.544907569885254,-9.63499355316162,0.0,10.25,0.0,0,9,-20.0,-9.617337085151032,10.287662914848967
358,42434686,1686415671.380409,0.0,0.0,0.5,0.5,0.0,-9.536494255065918,-9.609108924865724,0.0,10.26,0.0,0,9,-20.0,-9.617337085151032,10.287662914848967
359,42510000,1686415671.380409,0.0,0.0,0.5,0.5,0.0,-9.536494255065918,-9.609108924865724,0.0,10.26,0.0,0,9,-20.0,-9.60708263007014,10.29791736992986
360,42534646,1686415671.480369,0.0,0.0,0.5,0.5,0.0,-9.528302192687988,-9.581202507019045,0.0,10.27,0.0,0,9,-20.0,-9.60708263007014,10.29791736992986
361,42612000,1686415671.480369,0.0,0.0,0.5,0.5,0.0,-9.528302192687988,-9.581202507019045,0.0,10.27,0.0,0,9,-20.0,-9.596647176012723,10.308352823987274
362,42634606,1686415671.5803287,0.0,0.0,0.5,0.5,0.0,-9.51914119720459,-9.58315658569336,0.0,10.29,0.0,0,9,-20.0,-9.596647176012723,10.308352823987274
363,42712000,1686415671.5803287,0.0,0.0,0.5,0.5,0.0,-9.51914119720459,-9.58315658569336,0.0,10.29,0.0,0,9,-20.0,-9.58664517411679,10.31835482588321
364,42734566,1686415671.680289,0.0,0.0,0.5,0.5,0.0,-9.509541511535645,-9.578914642333984,0.0,10.29,0.0,0,9,-20.0,-9.58664517411679,10.31835482588321
365,42813000,1686415671.680289,0.0,0.0,0.5,0.5,0.0,-9.509541511535645,-9.578914642333984,0.0,10.29,0.0,0,9,-20.0,-9.576803956940152,10.328196043059847
366,42834526,1686415671.780249,0.0,0.0,0.5,0.5,0.0,-9.50003147125244,-9.56148910522461,0.0,10.3,0.0,0,9,-20.0,-9.576803956940152,10.328196043059847
367,42914000,1686415671.780249,0.0,0.0,0.5,0.5,0.0,-9.50003147125244,-9.56148910522461,0.0,10.3,0.0,0,9,-20.0,-9.566943705684372,10.338056294315626
368,42934486,1686415671.8802087,0.0,0.0,0.5,0.5,0.0,-9.490313529968262,-9.547779083251951,0.0,10.31,0.0,0,9,-20.0,-9.566943705684372,10.338056294315626
369,43015000,1686415671.8802087,0.0,0.0,0.5,0.5,0.0,-9.490313529968262,-9.547779083251951,0.0,10.31,0.0,0,9,-20.0,-9.558757147658373,10.346242852341629
370,43034446,1686415671.980169,0.0,0.0,0.5,0.5,0.0,-9.480236053466797,-9.564330101013184,0.0,10.33,0.0,0,9,-20.0,-9.558757147658373,10.346242852341629
371,43117000,1686415671.980169,0.0,0.0,0.5,0.5,0.0,-9.480236053466797,-9.564330101013184,0.0,10.33,0.0,0,9,-20.0,-9.550421283130266,10.354578716869732
372,43134406,1686415672.0801291,0.0,0.0,0.5,0.5,0.0,-9.470922470092772,-9.518270492553713,0.0,10.33,0.0,0,9,-20.0,-9.550421283130266,10.354578716869732
373,43217000,1686415672.0801291,0.0,0.0,0.5,0.5,0.0,-9.470922470092772,-9.518270492553713,0.0,10.33,0.0,0,9,-20.0,-9.542055674583386,10.362944325416612
374,43234366,1686415672.180089,0.0,0.0,0.5,0.5,0.0,-9.460908889770508,-9.50446605682373,0.0,10.34,0.0,0,9,-20.0,-9.542055674583386,10.362944325416612
375,43317000,1686415672.180089,0.0,0.0,0.5,0.5,0.0,-9.460908889770508,-9.50446605682373,0.0,10.34,0.0,0,9,-20.0,-9.53166863921094,10.37333136078906
376,43334326,1686415672.280049,0.0,0.0,0.5,0.5,0.0,-9.44972324371338,-9.497496604919434,0.0,10.35,0.0,0,9,-20.0,-9.53166863921094,10.37333136078906
377,43419000,1686415672.280049,0.0,0.0,0.5,0.5,0.0,-9.44972324371338,-9.497496604919434,0.0,10.35,0.0,0,9,-20.0,-9.521325823632823,10.383674176367174
378,43434286,1686415672.3800092,0.0,0.0,0.5,0.5,0.0,-9.437731742858888,-9.506104469299316,0.0,10.37,0.0,0,9,-20.0,-9.521325823632823,10.383674176367174
379,43520000,1686415672.3800092,0.0,0.0,0.5,0.5,0.0,-9.437731742858888,-9.506104469299316,0.0,10.37,0.0,0,9,-20.0,-9.513426103686294,10.391573896313703
380,43534246,1686415672.479969,0.0,0.0,0.5,0.5,0.0,-9.42626667022705,-9.493841171264648,0.0,10.37,0.0,0,10,-20.0,-9.513426103686294,10.391573896313703
381,43622000,1686415672.479969,0.0,0.0,0.5,0.5,0.0,-9.42626667022705,-9.493841171264648,0.0,10.37,0.0,0,10,-20.0,-9.505384338918253,10.399615661081748
382,43634206,1686415672.579929,0.0,0.0,0.5,0.5,0.0,-9.415324211120604,-9.46820831298828,0.0,10.37,0.0,0,10,-20.0,-9.505384338918253,10.399615661081748
383,43722000,1686415672.579929,0.0,0.0,0.5,0.5,0.0,-9.415324211120604,-9.46820831298828,0.0,10.37,0.0,0,10,-20.0,-9.497142836359515,10.407857163640484
384,43734166,1686415672.6798887,0.0,0.0,0.5,0.5,0.0,-9.404052734375,-9.46938133239746,0.0,10.38,0.0,0,10,-20.0,-9.497142836359515,10.407857163640484
385,43822000,1686415672.6798887,0.0,0.0,0.5,0.5,0.0,-9.404052734375,-9.46938133239746,0.0,10.38,0.0,0,10,-20.0,-9.484971265916853,10.420028734083148
386,43834126,1686415672.779849,0.0,0.0,0.5,0.5,0.0,-9.392878532409668,-9.472834587097168,0.0,10.41,0.0,0,10,-20.0,-9.484971265916853,10.420028734083148
387,43924000,1686415672.779849,0.0,0.0,0.5,0.5,0.0,-9.392878532409668,-9.472834587097168,0.0,10.41,0.0,0,10,-20.0,-9.47289730055579,10.43210269944421
388,43934086,1686415672.8798091,0.0,0.0,0.5,0.5,0.0,-9.382586479187012,-9.450716018676758,0.0,10.41,0.0,0,10,-20.0,-9.47289730055579,10.43210269944421
389,44025000,1686415672.8798091,0.0,0.0,0.5,0.5,0.0,-9.382586479187012,-9.450716018676758,0.0,10.41,0.0,0,10,-20.0,-9.464263227929052,10.440736772070949
390,44034046,1686415672.9797688,0.0,0.0,0.5,0.5,0.0,-9.372568130493164,-9.459142684936523,0.0,10.42,0.0,0,10,-20.0,-9.464263227929052,10.440736772070949
391,44127000,1686415672.9797688,0.0,0.0,0.5,0.5,0.0,-9.372568130493164,-9.459142684936523,0.0,10.42,0.0,0,10,-20.0,-9.455500281813729,10.44949971818627
392,44134006,1686415673.079729,0.0,0.0,0.5,0.5,0.0,-9.36342716217041,-9.424223899841309,0.0,10.42,0.0,0,10,-20.0,-9.455500281813729,10.44949971818627
393,44227000,1686415673.079729,0.0,0.0,0.5,0.5,0.0,-9.36342716217041,-9.424223899841309,0.0,10.42,0.0,0,10,-20.0,-9.4464169818316,10.4585830181684
394,44233966,1686415673.1796892,0.0,0.0,0.5,0.5,0.0,-9.35399055480957,-9.415263175964355,0.0,10.42,0.0,0,10,-20.0,-9.4464169818316,10.4585830181684
395,44327000,1686415673.1796892,0.0,0.0,0.5,0.5,0.0,-9.35399055480957,-9.415263175964355,0.0,10.42,0.0,0,10,-20.0,-9.432044202585203,10.472955797414796
396,44333926,1686415673.279649,0.3123069107532501,0.0,0.440859317779541,0.5,-9.344120025634766,-9.344035148620604,-9.42429542541504,10.37,10.43,0.0,9,9,-20.0,-9.432044202585203,10.472955797414796
397,44431000,1686415673.279649,0.3123069107532501,0.0,0.440859317779541,0.5,-9.344120025634766,-9.344035148620604,-9.42429542541504,10.37,10.43,0.0,9,9,-20.0,-9.417690829982698,10.4873091700173
398,44433886,1686415673.379609,0.4137689471244812,0.0,0.3822138011455536,0.5,-9.336713790893556,-9.33654499053955,-9.398197174072266,10.37,10.45,0.0,5,5,-20.0,-9.417690829982698,10.4873091700173
399,44532000,1686415673.379609,0.4137689471244812,0.0,0.3822138011455536,0.5,-9.336713790893556,-9.33654499053955,-9.398197174072266,10.37,10.45,0.0,5,5,-20.0,-9.408421919146855,10.496578080853144
400,44534679,1686415673.480402,0.4385418593883514,0.0,0.4073706269264221,0.5,-9.332405090332031,-9.333487510681152,-9.38562297821045,10.37,10.46,0.0,3,1,-20.0,-9.408421919146855,10.496578080853144
401,44634639,1686415673.580362,0.4516580402851105,0.0,0.4273034334182739,0.5,-9.330361366271973,-9.33267307281494,-9.404080390930176,10.37,10.47,0.0,1,0,-20.0,-9.408421919146855,10.496578080853144
402,44637000,1686415673.580362,0.4516580402851105,0.0,0.4273034334182739,0.5,-9.330361366271973,-9.33267307281494,-9.404080390930176,10.37,10.47,0.0,1,0,-20.0,-9.398713987961276,10.506286012038723
403,44734599,1686415673.680322,0.4585796594619751,0.0,0.4385692775249481,0.5,-9.329936981201172,-9.33376693725586,-9.397908210754396,10.37,10.49,0.0,0,-1,-20.0,-9.398713987961276,10.506286012038723
404,44738000,1686415673.680322,0.4585796594619751,0.0,0.4385692775249481,0.5,-9.329936981201172,-9.33376693725586,-9.397908210754396,10.37,10.49,0.0,0,-1,-20.0,-9.389020602461692,10.515979397538306
405,44834559,1686415673.780282,0.4647359251976013,0.0,0.4465293884277344,0.5,-9.33077335357666,-9.335999488830566,-9.41391944885254,10.37,10.5,0.0,0,-2,-20.0,-9.389020602461692,10.515979397538306
406,44838000,1686415673.780282,0.4647359251976013,0.0,0.4465293884277344,0.5,-9.33077335357666,-9.335999488830566,-9.41391944885254,10.37,10.5,0.0,0,-2,-20.0,-9.376757271999438,10.528242728000562
407,44934519,1686415673.880242,0.4707478582859039,0.0,0.4531503915786743,0.5,-9.332594871520996,-9.339484214782717,-9.400744438171388,10.37,10.5,0.0,0,-2,-20.0,-9.376757271999438,10.528242728000562
408,44942000,1686415673.880242,0.4707478582859039,0.0,0.4531503915786743,0.5,-9.332594871520996,-9.339484214782717,-9.400744438171388,10.37,10.5,0.0,0,-2,-20.0,-9.36471302052021,10.54028697947979
409,45034479,1686415673.980202,0.4724517166614532,0.0,0.4581759572029114,0.5,-9.335166931152344,-9.34319305419922,-9.414648056030272,10.37,10.52,0.0,0,-2,-20.0,-9.36471302052021,10.54028697947979
410,45043000,1686415673.980202,0.4724517166614532,0.0,0.4581759572029114,0.5,-9.335166931152344,-9.34319305419922,-9.414648056030272,10.37,10.52,0.0,0,-2,-20.0,-9.35673733924757,10.54826266075243
411,45134439,1686415674.080162,0.4725911617279053,0.0,0.4598840475082397,0.5,-9.338406562805176,-9.347190856933594,-9.404824256896973,10.37,10.52,0.0,0,-2,-20.0,-9.35673733924757,10.54826266075243
412,45147000,1686415674.080162,0.4725911617279053,0.0,0.4598840475082397,0.5,-9.338406562805176,-9.347190856933594,-9.404824256896973,10.37,10.52,0.0,0,-2,-20.0,-9.348479262813008,10.556520737186991
413,45234399,1686415674.180122,0.4679548740386963,0.0,0.4587129354476928,0.5,-9.342192649841309,-9.350922584533691,-9.433294296264648,10.37,10.54,0.0,-1,-2,-20.0,-9.348479262813008,10.556520737186991
414,45248000,1686415674.180122,0.4679548740386963,0.0,0.4587129354476928,0.5,-9.342192649841309,-9.350922584533691,-9.433294296264648,10.37,10.54,0.0,-1,-2,-20.0,-9.341138125068465,10.563861874931536
415,45334359,1686415674.280082,0.4661182463169098,0.0,0.4553506672382355,0.5,-9.34650707244873,-9.35544204711914,-9.40622615814209,10.37,10.54,0.0,-1,-2,-20.0,-9.341138125068465,10.563861874931536
416,45349000,1686415674.280082,0.4661182463169098,0.0,0.4553506672382355,0.5,-9.34650707244873,-9.35544204711914,-9.40622615814209,10.37,10.54,0.0,-1,-2,-20.0,-9.336667653409071,10.568332346590928
417,45434319,1686415674.380042,0.4641120433807373,0.0,0.4548574388027191,0.5,-9.35126495361328,-9.359556198120115,-9.433565139770508,10.37,10.54,0.0,-2,-3,-20.0,-9.336667653409071,10.568332346590928
418,45452000,1686415674.380042,0.4641120433807373,0.0,0.4548574388027191,0.5,-9.35126495361328,-9.359556198120115,-9.433565139770508,10.37,10.54,0.0,-2,-3,-20.0,-9.332986810742035,10.572013189257964
419,45534279,1686415674.480002,0.4601470828056335,0.0,0.4516111314296722,0.5,-9.35638427734375,-9.36413288116455,-9.436229705810549,10.37,10.55,0.0,-2,-3,-20.0,-9.332986810742035,10.572013189257964
420,45552000,1686415674.480002,0.4601470828056335,0.0,0.4516111314296722,0.5,-9.35638427734375,-9.36413288116455,-9.436229705810549,10.37,10.55,0.0,-2,-3,-20.0,-9.334197663952274,10.570802336047723
421,45634239,1686415674.579962,0.4618876576423645,0.0,0.4507993459701538,0.5,-9.36185073852539,-9.36939525604248,-9.45124340057373,10.37,10.55,0.0,-3,-3,-20.0,-9.334197663952274,10.570802336047723
422,45657000,1686415674.579962,0.4618876576423645,0.0,0.4507993459701538,0.5,-9.36185073852539,-9.36939525604248,-9.45124340057373,10.37,10.55,0.0,-3,-3,-20.0,-9.335453286374172,10.569546713625828
423,45734199,1686415674.679922,0.4679647386074066,0.0,0.4545669853687286,0.5,-9.367596626281738,-9.375720024108888,-9.45040512084961,10.37,10.54,0.0,-3,-4,-20.0,-9.335453286374172,10.569546713625828
424,45757000,1686415674.679922,0.4679647386074066,0.0,0.4545669853687286,0.5,-9.367596626281738,-9.375720024108888,-9.45040512084961,10.37,10.54,0.0,-3,-4,-20.0,-9.33718655204046,10.56781344795954
425,45834159,1686415674.779882,0.4742580056190491,0.0,0.461431622505188,0.5,-9.373505592346191,-9.382614135742188,-9.42300510406494,10.37,10.54,0.0,-3,-4,-20.0,-9.33718655204046,10.56781344795954
426,45862000,1686415674.779882,0.4742580056190491,0.0,0.461431622505188,0.5,-9.373505592346191,-9.382614135742188,-9.42300510406494,10.37,10.54,0.0,-3,-4,-20.0,-9.341965300586782,10.563034699413215
427,45934119,1686415674.879842,0.472290962934494,0.0,0.4661876857280731,0.5,-9.379534721374512,-9.3881254196167,-9.446033477783203,10.37,10.54,0.0,-3,-4,-20.0,-9.341965300586782,10.563034699413215
428,45964000,1686415674.879842,0.472290962934494,0.0,0.4661876857280731,0.5,-9.379534721374512,-9.3881254196167,-9.446033477783203,10.37,10.54,0.0,-3,-4,-20.0,-9.346458517113009,10.558541482886993
429,46034079,1686415674.979802,0.4619236588478088,0.0,0.4621230065822601,0.5,-9.38565444946289,-9.3928861618042,-9.432820320129396,10.37,10.54,0.0,-3,-4,-20.0,-9.346458517113009,10.558541482886993
430,46065000,1686415674.979802,0.4619236588478088,0.0,0.4621230065822601,0.5,-9.38565444946289,-9.3928861618042,-9.432820320129396,10.37,10.54,0.0,-3,-4,-20.0,-9.3498985442062,10.555101455793798
431,46134039,1686415675.079762,0.4497342705726623,0.0,0.4536164402961731,0.5,-9.391846656799316,-9.396598815917969,-9.447528839111328,10.37,10.54,0.0,-4,-4,-20.0,-9.3498985442062,10.555101455793798
432,46168000,1686415675.079762,0.4497342705726623,0.0,0.4536164402961731,0.5,-9.391846656799316,-9.396598815917969,-9.447528839111328,10.37,10.54,0.0,-4,-4,-20.0,-9.353435139347756,10.551564860652242
433,46233999,1686415675.179722,0.4402894079685211,0.0,0.4433357119560241,0.5,-9.39809226989746,-9.400079727172852,-9.437419891357422,10.37,10.54,0.0,-5,-4,-20.0,-9.353435139347756,10.551564860652242
434,46269000,1686415675.179722,0.4402894079685211,0.0,0.4433357119560241,0.5,-9.39809226989746,-9.400079727172852,-9.437419891357422,10.37,10.54,0.0,-5,-4,-20.0,-9.357245503874916,10.547754496125084
435,46333959,1686415675.279682,0.4365714192390442,0.0,0.4397388398647308,0.5,-9.404335021972656,-9.403346061706545,-9.479352951049805,10.37,10.52,0.0,-6,-4,-20.0,-9.357245503874916,10.547754496125084
436,46371000,1686415675.279682,0.4365714192390442,0.0,0.4397388398647308,0.5,-9.404335021972656,-9.403346061706545,-9.479352951049805,10.37,10.52,0.0,-6,-4,-20.0,-9.362923289966655,10.542076710033342
437,46433919,1686415675.379642,0.4400835335254669,0.0,0.4386825561523437,0.5,-9.410388946533203,-9.408353805541992,-9.467409133911133,10.37,10.52,0.0,-6,-5,-20.0,-9.362923289966655,10.542076710033342
438,46471000,1686415675.379642,0.4400835335254669,0.0,0.4386825561523437,0.5,-9.410388946533203,-9.408353805541992,-9.467409133911133,10.37,10.52,0.0,-6,-5,-20.0,-9.368458286980989,10.53654171301901
439,46533879,1686415675.479602,0.4507584571838379,0.0,0.4464918375015259,0.5,-9.416274070739746,-9.414531707763672,-9.474054336547852,10.37,10.51,0.0,-6,-6,-20.0,-9.368458286980989,10.53654171301901
440,46571000,1686415675.479602,0.4507584571838379,0.0,0.4464918375015259,0.5,-9.416274070739746,-9.414531707763672,-9.474054336547852,10.37,10.51,0.0,-6,-6,-20.0,-9.373729530823695,10.531270469176304
441,46634672,1686415675.5803947,0.45939701795578,0.0,0.4558000862598419,0.5,-9.421998023986816,-9.421262741088867,-9.492267608642578,10.37,10.51,0.0,-5,-6,-20.0,-9.373729530823695,10.531270469176304
442,46673000,1686415675.5803947,0.45939701795578,0.0,0.4558000862598419,0.5,-9.421998023986816,-9.421262741088867,-9.492267608642578,10.37,10.51,0.0,-5,-6,-20.0,-9.37909408199184,10.525905918008158
443,46734632,1686415675.680355,0.4685100615024566,0.0,0.4653355479240417,0.5,-9.427504539489746,-9.428446769714355,-9.46893310546875,10.37,10.5,0.0,-5,-6,-20.0,-9.37909408199184,10.525905918008158
444,46774000,1686415675.680355,0.4685100615024566,0.0,0.4653355479240417,0.5,-9.427504539489746,-9.428446769714355,-9.46893310546875,10.37,10.5,0.0,-5,-6,-20.0,-9.38442217874846,10.52057782125154
445,46834592,1686415675.7803152,0.4640851318836212,0.0,0.4696315228939056,0.5,-9.43280792236328,-9.434678077697754,-9.482544898986816,10.37,10.5,0.0,-4,-5,-20.0,-9.38442217874846,10.52057782125154
446,46876000,1686415675.7803152,0.4640851318836212,0.0,0.4696315228939056,0.5,-9.43280792236328,-9.434678077697754,-9.482544898986816,10.37,10.5,0.0,-4,-5,-20.0,-9.390355328675556,10.514644671324442
447,46934552,1686415675.880275,0.4607953727245331,0.0,0.465850293636322,0.5,-9.437957763671877,-9.43946647644043,-9.496769905090332,10.37,10.5,0.0,-4,-5,-20.0,-9.390355328675556,10.514644671324442
448,46977000,1686415675.880275,0.4607953727245331,0.0,0.465850293636322,0.5,-9.437957763671877,-9.43946647644043,-9.496769905090332,10.37,10.5,0.0,-4,-5,-20.0,-9.396004901650644,10.508995098349356
449,47034512,1686415675.980235,0.4543569386005401,0.0,0.4620715975761413,0.5,-9.443000793457031,-9.443882942199709,-9.502761840820312,10.37,10.49,0.0,-4,-4,-20.0,-9.396004901650644,10.508995098349356
450,47077000,1686415675.980235,0.4543569386005401,0.0,0.4620715975761413,0.5,-9.443000793457031,-9.443882942199709,-9.502761840820312,10.37,10.49,0.0,-4,-4,-20.0,-9.400190569322564,10.504809430677437
451,47134472,1686415676.0801947,0.4529320895671844,0.0,0.4601039290428161,0.5,-9.447909355163574,-9.448326110839844,-9.50657844543457,10.37,10.49,0.0,-4,-4,-20.0,-9.400190569322564,10.504809430677437
452,47179000,1686415676.0801947,0.4529320895671844,0.0,0.4601039290428161,0.5,-9.447909355163574,-9.448326110839844,-9.50657844543457,10.37,10.49,0.0,-4,-4,-20.0,-9.404520816265146,10.500479183734852
453,47234432,1686415676.180155,0.4530733525753021,0.0,0.4584044814109802,0.5,-9.45266819000244,-9.452885627746582,-9.517850875854492,10.37,10.49,0.0,-4,-4,-20.0,-9.404520816265146,10.500479183734852
454,47279000,1686415676.180155,0.4530733525753021,0.0,0.4584044814109802,0.5,-9.45266819000244,-9.452885627746582,-9.517850875854492,10.37,10.49,0.0,-4,-4,-20.0,-9.409554167539866,10.495445832460131
455,47334392,1686415676.2801151,0.4553301930427551,0.0,0.4585369527339935,0.5,-9.457321166992188,-9.457756042480469,-9.504121780395508,10.37,10.47,0.0,-4,-4,-20.0,-9.409554167539866,10.495445832460131
456,47382000,1686415676.2801151,0.4553301930427551,0.0,0.4585369527339935,0.5,-9.457321166992188,-9.457756042480469,-9.504121780395508,10.37,10.47,0.0,-4,-4,-20.0,-9.414677201798469,10.49032279820153
457,47434352,1686415676.3800747,0.4593298435211181,0.0,0.4643613398075104,0.5,-9.461795806884766,-9.462244033813477,-9.533409118652344,10.37,10.47,0.0,-4,-4,-20.0,-9.414677201798469,10.49032279820153
458,47482000,1686415676.3800747,0.4593298435211181,0.0,0.4643613398075104,0.5,-9.461795806884766,-9.462244033813477,-9.533409118652344,10.37,10.47,0.0,-4,-4,-20.0,-9.419990760753109,10.485009239246892
459,47534312,1686415676.480035,0.4604312479496002,0.0,0.4656497538089752,0.5,-9.466034889221191,-9.466882705688477,-9.524941444396973,10.37,10.46,0.0,-3,-4,-20.0,-9.419990760753109,10.485009239246892
460,47582000,1686415676.480035,0.4604312479496002,0.0,0.4656497538089752,0.5,-9.466034889221191,-9.466882705688477,-9.524941444396973,10.37,10.46,0.0,-3,-4,-20.0,-9.42813301957555,10.476866980424449
461,47634272,1686415676.5799952,0.4575471878051758,0.0,0.4672847390174866,0.5,-9.470056533813477,-9.471513748168944,-9.531656265258787,10.37,10.45,0.0,-3,-3,-20.0,-9.42813301957555,10.476866980424449
462,47685000,1686415676.5799952,0.4575471878051758,0.0,0.4672847390174866,0.5,-9.470056533813477,-9.471513748168944,-9.531656265258787,10.37,10.45,0.0,-3,-3,-20.0,-9.436084559347108,10.468915440652893
463,47734232,1686415676.679955,0.456267386674881,0.0,0.4672775268554687,0.5,-9.473825454711914,-9.47560977935791,-9.514896392822266,10.37,10.45,0.0,-3,-3,-20.0,-9.436084559347108,10.468915440652893
464,47786000,1686415676.679955,0.456267386674881,0.0,0.4672775268554687,0.5,-9.473825454711914,-9.47560977935791,-9.514896392822266,10.37,10.45,0.0,-3,-3,-20.0,-9.439815808525818,10.46518419147418
465,47834192,1686415676.779915,0.4582530260086059,0.0,0.466247946023941,0.5,-9.477354049682615,-9.47849464416504,-9.525033950805664,10.37,10.45,0.0,-3,-3,-20.0,-9.439815808525818,10.46518419147418
466,47887000,1686415676.779915,0.4582530260086059,0.0,0.466247946023941,0.5,-9.477354049682615,-9.47849464416504,-9.525033950805664,10.37,10.45,0.0,-3,-3,-20.0,-9.443604437119246,10.461395562880751
467,47934152,1686415676.8798747,0.4492271244525909,0.0,0.4618389010429382,0.5,-9.480703353881836,-9.480436325073242,-9.531814575195312,10.37,10.45,0.0,-3,-2,-20.0,-9.443604437119246,10.461395562880751
468,47988000,1686415676.8798747,0.4492271244525909,0.0,0.4618389010429382,0.5,-9.480703353881836,-9.480436325073242,-9.531814575195312,10.37,10.45,0.0,-3,-2,-20.0,-9.44752757644576,10.45747242355424
