,TimeUS,timestamp,ThI,ABst,ThO,ThH,DAlt,Alt,BAlt,DSAlt,SAlt,TAlt,DCRt,CRt,terrain_z,sub_z,rf
0,17836196,1686004563.7800078,0.0,0.0,0.5,0.5,0.0,-0.3013821840286255,-0.1251371204853058,0.0,0.0,0.0,0,0,,,
1,17936156,1686004563.879968,0.0,0.0,0.5,0.5,0.0,-0.305174171924591,-0.2950223088264465,0.0,0.0,0.0,0,0,,,
2,18036116,1686004563.9799275,0.0,0.0,0.5,0.5,0.0,-0.3035351037979126,-0.1272664219141006,0.0,0.0,0.0,0,0,,,
3,18136076,1686004564.0798879,0.0,0.0,0.5,0.5,0.0,-0.2950576543807983,-0.1747807711362838,0.0,0.0,0.0,0,0,,,
4,18236036,1686004564.179848,0.0,0.0,0.5,0.5,0.0,-0.2802713811397552,-0.4546835124492645,0.0,0.0,0.0,0,1,,,
5,18335996,1686004564.2798078,0.0,0.0,0.5,0.5,0.0,-0.0036173867993056,-0.28681281208992,0.0,0.0,0.0,0,2,,,
6,18436789,1686004564.3806007,0.0,0.0,0.5,0.5,0.0,-0.0024536657147109,-0.0920296534895896,0.0,0.0,0.0,0,2,,,
7,18536749,1686004564.4805608,0.0,0.0,0.3549999892711639,0.5,0.0,0.0059690070338547,-0.0851745828986167,0.0,0.0,0.0,0,2,,,
8,18636709,1686004564.5805209,0.0,0.0,0.25,0.5,0.0,0.0170169360935688,-0.3779528141021728,0.0,0.0,0.0,0,-12,,,
9,18736669,1686004564.6804807,0.0,0.0,0.25,0.5,0.0,0.0019198547815904,-0.4701730012893677,0.0,0.0,0.0,0,-31,,,
10,18836629,1686004564.7804408,0.0,0.0,0.25,0.5,0.0,-0.042866300791502,-0.2840712666511535,0.0,0.0,0.0,0,-44,,,
11,18936589,1686004564.880401,0.0,0.0,0.25,0.5,0.0,-0.0997052565217018,-0.3389923572540283,0.0,0.0,0.0,0,-52,,,
12,19036549,1686004564.9803607,0.0,0.0,0.25,0.5,0.0,-0.1585771590471267,-0.363677442073822,0.0,0.0,0.0,0,-55,,,
13,19136509,1686004565.0803208,0.0,0.0,0.25,0.5,0.0,-0.216723620891571,-0.6137165427207947,0.0,0.0,0.0,0,-57,,,
14,19236469,1686004565.1802807,0.0,0.0,0.25,0.5,0.0,-0.280254989862442,-0.7036886215209961,0.0,0.0,0.0,0,-58,,,
15,19336429,1686004565.280241,0.0,0.0,0.25,0.5,0.0,-0.3534013628959656,-0.7485578656196594,0.0,0.0,0.0,0,-59,,,
16,19436389,1686004565.3802009,0.0,0.0,0.25,0.5,0.0,-0.4326094090938568,-0.5445623397827148,0.0,0.0,0.0,0,-61,,,
17,19536349,1686004565.4801607,0.0,0.0,0.25,0.5,0.0,-0.5047539472579956,-0.6984980702400208,0.0,0.0,0.0,0,-62,,,
18,19636309,1686004565.5801208,0.0,0.0,0.25,0.5,0.0,-0.5693531632423401,-0.7296516299247742,0.0,0.0,0.0,0,-62,,,
19,19736269,1686004565.680081,0.0,0.0,0.25,0.5,0.0,-0.6297484040260315,-0.9032142758369446,0.0,0.0,0.0,0,-61,,,
20,19836229,1686004565.7800407,0.0,0.0,0.25,0.5,0.0,-0.6900902986526489,-1.040491819381714,0.0,0.0,0.0,0,-61,,,
21,19936189,1686004565.8800008,0.0,0.0,0.25,0.5,0.0,-0.7562352418899536,-1.15101957321167,0.0,0.0,0.0,0,-62,,,
22,20036149,1686004565.979961,0.0,0.0,0.25,0.5,0.0,-0.829960286617279,-1.185904026031494,0.0,0.0,0.0,0,-62,,,
23,20136109,1686004566.079921,0.0,0.0,0.25,0.5,0.0,-0.908660888671875,-1.1198134422302246,0.0,0.0,0.0,0,-64,,,
24,20236069,1686004566.1798809,0.0,0.0,0.25,0.5,0.0,-0.98466956615448,-1.2808489799499512,0.0,0.0,0.0,0,-65,,,
25,20336029,1686004566.2798407,0.0,0.0,0.25,0.5,0.0,-1.0593215227127075,-1.4126594066619873,0.0,0.0,0.0,0,-65,,,
26,20435989,1686004566.3798008,0.0,0.0,0.25,0.5,0.0,-1.1373493671417236,-1.3807309865951538,0.0,0.0,0.0,0,-66,,,
27,20536782,1686004566.480594,0.0,0.0,0.25,0.5,0.0,-1.2165982723236084,-1.1699999570846558,0.0,0.0,0.0,0,-67,,,
28,20636742,1686004566.580554,0.0,0.0,0.25,0.5,0.0,-1.278364658355713,-1.3136966228485107,0.0,0.0,0.0,0,-67,,,
29,20736702,1686004566.6805139,0.0,0.0,0.25,0.5,0.0,-1.329066276550293,-1.4143606424331665,0.0,0.0,0.0,0,-65,,,
30,20836662,1686004566.780474,0.0,0.0,0.25,0.5,0.0,-1.375157594680786,-1.554315209388733,0.0,0.0,0.0,0,-64,,,
31,20936622,1686004566.8804338,0.0,0.0,0.25,0.5,0.0,-1.422687292098999,-1.77445387840271,0.0,0.0,0.0,0,-63,,,
32,21036582,1686004566.980394,0.0,0.0,0.25,0.5,0.0,-1.4801758527755735,-1.8570647239685056,0.0,0.0,0.0,0,-62,,,
33,21136542,1686004567.080354,0.0,0.0,0.25,0.5,0.0,-1.548121452331543,-1.8791661262512207,0.0,0.0,0.0,0,-63,,,
34,21236502,1686004567.1803138,0.0,0.0,0.25,0.5,0.0,-1.6217341423034668,-1.5985339879989624,0.0,0.0,0.0,0,-64,,,
35,21336462,1686004567.280274,0.0,0.0,0.25,0.5,0.0,-1.6819895505905151,-1.926568865776062,0.0,0.0,0.0,0,-64,,,
36,21436422,1686004567.380234,0.0,0.0,0.25,0.5,0.0,-1.741004467010498,-1.8850940465927124,0.0,0.0,0.0,0,-63,,,
37,21536382,1686004567.4801939,0.0,0.0,0.25,0.5,0.0,-1.7977396249771118,-2.0564565658569336,0.0,0.0,0.0,0,-63,,,
38,21636342,1686004567.580154,0.0,0.0,0.25,0.5,0.0,-1.856629729270935,-2.1165919303894043,0.0,0.0,0.0,0,-62,,,
39,21736302,1686004567.6801136,0.0,0.0,0.25,0.5,0.0,-1.9191312789916992,-2.1613552570343018,0.0,0.0,0.0,0,-62,,,
40,21836262,1686004567.780074,0.0,0.0,0.25,0.5,0.0,-1.982484221458435,-2.250318765640259,0.0,0.0,0.0,0,-63,,,
41,21936222,1686004567.880034,0.0,0.0,0.25,0.5,0.0,-2.047739267349243,-2.2943344116210938,0.0,0.0,0.0,0,-63,,,
42,22036182,1686004567.9799938,0.0,0.0,0.25,0.5,0.0,-2.113739013671875,-2.33793044090271,0.0,0.0,0.0,0,-63,,,
43,22136142,1686004568.079954,0.0,0.0,0.25,0.5,0.0,-2.1789793968200684,-2.151305913925171,0.0,0.0,0.0,0,-63,,,
44,22236102,1686004568.179914,0.0,0.0,0.25,0.5,0.0,-2.2317819595336914,-2.3009207248687744,0.0,0.0,0.0,0,-62,,,
45,22336062,1686004568.2798738,0.0,0.0,0.25,0.5,0.0,-2.27655291557312,-2.453660011291504,0.0,0.0,0.0,0,-61,,,
46,22436022,1686004568.379834,0.0,0.0,0.25,0.5,0.0,-2.321626901626587,-2.462710380554199,0.0,0.0,0.0,0,-60,,,
47,22535982,1686004568.4797935,0.0,0.0,0.25,0.5,0.0,-2.3664259910583496,-2.7251291275024414,0.0,0.0,0.0,0,-58,,,
48,22636775,1686004568.580587,0.0,0.0,0.25,0.5,0.0,-2.420710563659668,-2.68009090423584,0.0,0.0,0.0,0,-58,,,
49,22736735,1686004568.680547,0.0,0.0,0.25,0.5,0.0,-2.47913122177124,-2.610714197158813,0.0,0.0,0.0,0,-58,,,
50,22836695,1686004568.7805068,0.0,0.0,0.25,0.5,0.0,-2.533426523208618,-2.594273805618286,0.0,0.0,0.0,0,-58,,,
51,22936655,1686004568.8804667,0.0,0.0,0.25,0.5,0.0,-2.5795695781707764,-3.026399850845337,0.0,0.0,0.0,0,-57,,,
52,23036615,1686004568.9804268,0.0,0.0,0.25,0.5,0.0,-2.636483192443848,-2.983323574066162,0.0,0.0,0.0,0,-57,,,
53,23136575,1686004569.0803869,0.0,0.0,0.25,0.5,0.0,-2.7016890048980717,-2.8690426349639893,0.0,0.0,0.0,0,-58,,,
54,23236535,1686004569.1803467,0.0,0.0,0.25,0.5,0.0,-2.7631659507751465,-2.8867642879486084,0.0,0.0,0.0,0,-58,,,
55,23336495,1686004569.2803068,0.0,0.0,0.25,0.5,0.0,-2.8174846172332764,-2.897378921508789,0.0,0.0,0.0,0,-57,,,
56,23436455,1686004569.380267,0.0,0.0,0.25,0.5,0.0,-2.863531827926636,-3.3016955852508545,0.0,0.0,0.0,0,-56,,,
57,23536415,1686004569.4802268,0.0,0.0,0.25,0.5,0.0,-2.920207500457764,-3.378964424133301,0.0,0.0,0.0,0,-56,,,
58,23636375,1686004569.5801868,0.0,0.0,0.25,0.5,0.0,-2.989948034286499,-3.3815712928771973,0.0,0.0,0.0,0,-57,,,
59,23736335,1686004569.6801467,0.0,0.0,0.25,0.5,0.0,-3.0663390159606934,-3.304356575012207,0.0,0.0,0.0,0,-59,,,
60,23836295,1686004569.7801068,0.0,0.0,0.25,0.5,0.0,-3.140238046646118,-3.444433212280273,0.0,0.0,0.0,0,-60,,,
61,23936255,1686004569.8800669,0.0,0.0,0.25,0.5,0.0,-3.212721109390259,-3.4958760738372803,0.0,0.0,0.0,0,-61,,,
62,24036215,1686004569.9800267,0.0,0.0,0.25,0.5,0.0,-3.2847816944122314,-3.5508475303649902,0.0,0.0,0.0,0,-61,,,
63,24136175,1686004570.0799868,0.0,0.0,0.25,0.5,0.0,-3.355743646621704,-3.4676601886749268,0.0,0.0,0.0,0,-62,,,
64,24236135,1686004570.179947,0.0,0.0,0.25,0.5,0.0,-3.4188358783721924,-3.5870957374572754,0.0,0.0,0.0,0,-62,,,
65,24336095,1686004570.2799067,0.0,0.0,0.25,0.5,0.0,-3.4769177436828613,-3.911220550537109,0.0,0.0,0.0,0,-61,,,
66,24436055,1686004570.3798668,0.0,0.0,0.25,0.5,0.0,-3.544513463973999,-3.660578012466431,0.0,0.0,0.0,0,-62,,,
67,24536015,1686004570.4798267,0.0,0.0,0.25,0.5,0.0,-3.6080241203308105,-3.8469412326812735,0.0,0.0,0.0,0,-62,,,
68,24635975,1686004570.5797868,0.0,0.0,0.25,0.5,0.0,-3.669955253601074,-3.768739700317383,0.0,0.0,0.0,0,-62,,,
69,24736768,1686004570.68058,0.0,0.0,0.25,0.5,0.0,-3.726534605026245,-4.046419620513916,0.0,0.0,0.0,0,-61,,,
70,24836728,1686004570.78054,0.0,0.0,0.25,0.5,0.0,-3.786675930023194,-3.9816415309906006,0.0,0.0,0.0,0,-61,,,
71,24936688,1686004570.8804998,0.0,0.0,0.25,0.5,0.0,-3.847019672393799,-3.9756338596344,0.0,0.0,0.0,0,-61,,,
72,25036648,1686004570.98046,0.0,0.0,0.25,0.5,0.0,-3.902687072753906,-4.3353800773620605,0.0,0.0,0.0,0,-61,,,
73,25136608,1686004571.0804195,0.0,0.0,0.25,0.5,0.0,-3.9680252075195312,-4.333430290222168,0.0,0.0,0.0,0,-61,,,
74,25236568,1686004571.1803799,0.0,0.0,0.25,0.5,0.0,-4.04140043258667,-4.181834220886231,0.0,0.0,0.0,0,-62,,,
75,25336528,1686004571.28034,0.0,0.0,0.25,0.5,0.0,-4.109358310699463,-4.435150623321533,0.0,0.0,0.0,0,-63,,,
76,25436488,1686004571.3802998,0.0,0.0,0.25,0.5,0.0,-4.179011344909668,-4.424048900604248,0.0,0.0,0.0,0,-63,,,
77,25536448,1686004571.48026,0.0,0.0,0.25,0.5,0.0,-4.24832820892334,-4.558302879333496,0.0,0.0,0.0,0,-64,,,
78,25636408,1686004571.58022,0.0,0.0,0.25,0.5,0.0,-4.320359706878662,-4.660240173339844,0.0,0.0,0.0,0,-64,,,
79,25736368,1686004571.6801798,0.0,0.0,0.25,0.5,0.0,-4.396427631378174,-4.4131927490234375,0.0,0.0,0.0,0,-65,,,
80,25836328,1686004571.78014,0.0,0.0,0.25,0.5,0.0,-4.461130142211914,-4.503133773803711,0.0,0.0,0.0,0,-65,,,
81,25936288,1686004571.8801,0.0,0.0,0.25,0.5,0.0,-4.515044689178467,-4.893838405609131,0.0,0.0,0.0,0,-64,,,
82,26036248,1686004571.9800599,0.0,0.0,0.25,0.5,0.0,-4.576175212860107,-4.83677864074707,0.0,0.0,0.0,0,-64,,,
83,26136208,1686004572.08002,0.0,0.0,0.25,0.5,0.0,-4.642004489898682,-4.836504459381104,0.0,0.0,0.0,0,-64,,,
84,26236168,1686004572.1799798,0.0,0.0,0.25,0.5,0.0,-4.706506729125977,-4.821178913116455,0.0,0.0,0.0,0,-64,,,
85,26336128,1686004572.27994,0.0,0.0,0.25,0.5,0.0,-4.765453815460205,-4.784103393554688,0.0,0.0,0.0,0,-64,,,
86,26436088,1686004572.3799,0.0,0.0,0.25,0.5,0.0,-4.814811706542969,-5.068137168884277,0.0,0.0,0.0,0,-62,,,
87,26536048,1686004572.4798598,0.0,0.0,0.25,0.5,0.0,-4.866629600524902,-4.923728466033936,0.0,0.0,0.0,0,-62,,,
88,26636008,1686004572.57982,0.0,0.0,0.25,0.5,0.0,-4.914154052734375,-5.284623146057129,0.0,0.0,0.0,0,-61,,,
89,26736801,1686004572.6806128,0.0,0.0,0.25,0.5,0.0,-4.970593452453613,-5.199586391448975,0.0,0.0,0.0,0,-60,,,
90,26836761,1686004572.780573,0.0,0.0,0.25,0.5,0.0,-5.030158996582031,-5.286502838134766,0.0,0.0,0.0,0,-60,,,
91,26936721,1686004572.8805327,0.0,0.0,0.25,0.5,0.0,-5.091055870056152,-5.192980766296387,0.0,0.0,0.0,0,-60,,,
92,27036681,1686004572.9804928,0.0,0.0,0.25,0.5,0.0,-5.147158622741699,-5.270727634429932,0.0,0.0,0.0,0,-60,,,
93,27136641,1686004573.080453,0.0,0.0,0.25,0.5,0.0,-5.197307586669922,-5.3151044845581055,0.0,0.0,0.0,0,-59,,,
94,27236601,1686004573.180413,0.0,0.0,0.25,0.5,0.0,-5.243307590484619,-5.58035135269165,0.0,0.0,0.0,0,-58,,,
95,27336561,1686004573.2803729,0.0,0.0,0.25,0.5,0.0,-5.2945990562438965,-5.740291118621826,0.0,0.0,0.0,0,-58,,,
96,27436521,1686004573.3803327,0.0,0.0,0.25,0.5,0.0,-5.358342170715332,-5.571957111358643,0.0,0.0,0.0,0,-58,,,
97,27536481,1686004573.4802928,0.0,0.0,0.25,0.5,0.0,-5.424044609069824,-5.544252872467041,0.0,0.0,0.0,0,-59,,,
98,27636441,1686004573.580253,0.0,0.0,0.25,0.5,0.0,-5.482072830200195,-5.835433006286621,0.0,0.0,0.0,0,-59,,,
99,27736401,1686004573.6802127,0.0,0.0,0.25,0.5,0.0,-5.54262638092041,-5.824925899505615,0.0,0.0,0.0,0,-59,,,
100,27836361,1686004573.7801728,0.0,0.0,0.25,0.5,0.0,-5.606795310974121,-5.812192916870117,0.0,0.0,0.0,0,-59,,,
101,27936321,1686004573.880133,0.0,0.0,0.25,0.5,0.0,-5.669079303741455,-5.79961633682251,0.0,0.0,0.0,0,-59,,,
102,28036281,1686004573.980093,0.0,0.0,0.25,0.5,0.0,-5.726029396057129,-5.8819074630737305,0.0,0.0,0.0,0,-59,,,
103,28136241,1686004574.0800529,0.0,0.0,0.25,0.5,0.0,-5.777731418609619,-5.889449119567871,0.0,0.0,0.0,0,-58,,,
104,28236201,1686004574.1800127,0.0,0.0,0.25,0.5,0.0,-5.824785232543945,-5.96057653427124,0.0,0.0,0.0,0,-57,,,
105,28336161,1686004574.2799728,0.0,0.0,0.25,0.5,0.0,-5.868355751037598,-5.995957374572754,0.0,0.0,0.0,0,-56,,,
106,28436121,1686004574.3799329,0.0,0.0,0.25,0.5,0.0,-5.909374713897705,-6.094095230102539,0.0,0.0,0.0,0,-55,,,
107,28536081,1686004574.4798927,0.0,0.0,0.25,0.5,0.0,-5.950310707092285,-6.207909107208252,0.0,0.0,0.0,0,-54,,,
108,28636041,1686004574.5798528,0.0,0.0,0.25,0.5,0.0,-5.994879245758057,-6.269962310791016,0.0,0.0,0.0,0,-53,,,
109,28736001,1686004574.679813,0.0,0.0,0.25,0.5,0.0,-6.043928623199463,-6.60636568069458,0.0,0.0,0.0,0,-53,,,
110,28836794,1686004574.7806056,0.0,0.0,0.25,0.5,0.0,-6.107940673828125,-6.395447254180908,0.0,0.0,0.0,0,-53,,,
111,28936754,1686004574.880566,0.0,0.0,0.25,0.5,0.0,-6.186349391937256,-6.5847344398498535,0.0,0.0,0.0,0,-55,,,
112,29036714,1686004574.980526,0.0,0.0,0.25,0.5,0.0,-6.257827758789063,-6.739503383636475,0.0,0.0,0.0,0,-56,,,
113,29136674,1686004575.0804858,0.0,0.0,0.25,0.5,0.0,-6.340272903442383,-6.532201290130615,0.0,0.0,0.0,0,-58,,,
114,29236634,1686004575.180446,0.0,0.0,0.25,0.5,0.0,-6.415291786193848,-6.924135208129883,0.0,0.0,0.0,0,-59,,,
115,29336594,1686004575.280406,0.0,0.0,0.25,0.5,0.0,-6.495393753051758,-6.68880033493042,0.0,0.0,0.0,0,-61,,,
116,29436554,1686004575.3803658,0.0,0.0,0.25,0.5,0.0,-6.573557376861572,-6.961984157562256,0.0,0.0,0.0,0,-62,,,
117,29536514,1686004575.480326,0.0,0.0,0.25,0.5,0.0,-6.651674270629883,-6.7587971687316895,0.0,0.0,0.0,0,-63,,,
118,29636474,1686004575.5802855,0.0,0.0,0.25,0.5,0.0,-6.723426818847656,-7.15649938583374,0.0,0.0,0.0,0,-64,,,
119,29736434,1686004575.6802459,0.0,0.0,0.25,0.5,0.0,-6.7976274490356445,-7.083073139190674,0.0,0.0,0.0,0,-64,,,
120,29836394,1686004575.780206,0.0,0.0,0.25,0.5,0.0,-6.876367568969727,-7.253439903259277,0.0,0.0,0.0,0,-65,,,
121,29936354,1686004575.8801658,0.0,0.0,0.25,0.5,0.0,-6.957264423370361,-7.09213399887085,0.0,0.0,0.0,0,-66,,,
122,30036314,1686004575.980126,0.0,0.0,0.25,0.5,0.0,-7.032369613647461,-7.29001522064209,0.0,0.0,0.0,0,-67,,,
123,30136274,1686004576.080086,0.0,0.0,0.25,0.5,0.0,-7.104065895080566,-7.284363269805908,0.0,0.0,0.0,0,-67,,,
124,30236234,1686004576.1800458,0.0,0.0,0.25,0.5,0.0,-7.173150539398193,-7.33359956741333,0.0,0.0,0.0,0,-67,,,
125,30336194,1686004576.280006,0.0,0.0,0.25,0.5,0.0,-7.238138675689697,-7.245941638946533,0.0,0.0,0.0,0,-67,,,
126,30436154,1686004576.3799655,0.0,0.0,0.25,0.5,0.0,-7.293962955474853,-7.585888862609863,0.0,0.0,0.0,0,-66,,,
127,30536114,1686004576.4799259,0.0,0.0,0.25,0.5,0.0,-7.350244045257568,-7.450340270996094,0.0,0.0,0.0,0,-66,,,
128,30636074,1686004576.579886,0.0,0.0,0.25,0.5,0.0,-7.406128883361816,-7.681639671325684,0.0,0.0,0.0,0,-65,,,
129,30736034,1686004576.6798458,0.0,0.0,0.25,0.5,0.0,-7.46566104888916,-7.485233783721924,0.0,0.0,0.0,0,-65,,,
130,30835994,1686004576.779806,0.0,0.0,0.25,0.5,0.0,-7.518544673919678,-7.892902374267578,0.0,0.0,0.0,0,-64,,,
131,30936787,1686004576.8805988,0.0,0.0,0.25,0.5,0.0,-7.579508304595947,-7.881561756134033,0.0,0.0,0.0,0,-64,,,
132,31036747,1686004576.9805589,0.0,0.0,0.25,0.5,0.0,-7.646817684173584,-7.974831581115723,0.0,0.0,0.0,0,-64,,,
133,31136707,1686004577.0805187,0.0,0.0,0.25,0.5,0.0,-7.718472003936768,-7.78551435470581,0.0,0.0,0.0,0,-65,,,
134,31236667,1686004577.1804788,0.0,0.0,0.25,0.5,0.0,-7.784162998199463,-8.130319595336914,0.0,0.0,0.0,0,-65,,,
135,31336627,1686004577.280439,0.0,0.0,0.25,0.5,0.0,-7.850918292999268,-7.934945106506348,0.0,0.0,0.0,0,-65,,,
136,31436587,1686004577.3803988,0.0,0.0,0.25,0.5,0.0,-7.914185523986816,-8.260189056396484,0.0,0.0,0.0,0,-65,,,
137,31536547,1686004577.4803588,0.0,0.0,0.25,0.5,0.0,-7.979616641998291,-8.186920166015625,0.0,0.0,0.0,0,-65,,,
138,31636507,1686004577.5803187,0.0,0.0,0.25,0.5,0.0,-8.046812057495117,-8.232958793640137,0.0,0.0,0.0,0,-65,,,
139,31736467,1686004577.6802788,0.0,0.0,0.25,0.5,0.0,-8.111255645751953,-8.413717269897461,0.0,0.0,0.0,0,-65,,,
140,31836427,1686004577.7802389,0.0,0.0,0.25,0.5,0.0,-8.17829704284668,-8.519415855407715,0.0,0.0,0.0,0,-65,,,
141,31936387,1686004577.8801987,0.0,0.0,0.25,0.5,0.0,-8.250824928283691,-8.501678466796875,0.0,0.0,0.0,0,-66,,,
142,32036347,1686004577.9801588,0.0,0.0,0.25,0.5,0.0,-8.324686050415039,-8.54977798461914,0.0,0.0,0.0,0,-67,,,
143,32136307,1686004578.080119,0.0,0.0,0.25,0.5,0.0,-8.396726608276367,-8.607505798339844,0.0,0.0,0.0,0,-67,,,
144,32236267,1686004578.1800787,0.0,0.0,0.25,0.5,0.0,-8.466649055480957,-8.426795959472656,0.0,0.0,0.0,0,-67,,,
145,32336227,1686004578.2800388,0.0,0.0,0.25,0.5,0.0,-8.523082733154297,-8.729658126831055,0.0,0.0,0.0,0,-66,,,
146,32436187,1686004578.3799987,0.0,0.0,0.25,0.5,0.0,-8.577747344970703,-8.78438663482666,0.0,0.0,0.0,0,-65,,,
147,32536147,1686004578.479959,0.0,0.0,0.25,0.5,0.0,-8.634395599365234,-8.935335159301758,0.0,0.0,0.0,0,-65,,,
148,32636107,1686004578.5799189,0.0,0.0,0.25,0.5,0.0,-8.695947647094727,-8.76932430267334,0.0,0.0,0.0,0,-65,,,
149,32736067,1686004578.6798787,0.0,0.0,0.25,0.5,0.0,-8.75406551361084,-8.775174140930176,0.0,0.0,0.0,0,-64,,,
150,32836027,1686004578.7798388,0.0,0.0,0.25,0.5,0.0,-8.802750587463379,-8.834939002990723,0.0,0.0,0.0,0,-63,,,
151,32935987,1686004578.879799,0.0,0.0,0.25,0.5,0.0,-8.841142654418945,-9.015962600708008,0.0,0.0,0.0,0,-61,,,
152,33036780,1686004578.980592,0.0,0.0,0.25,0.5,0.0,-8.88339900970459,-9.210065841674805,0.0,0.0,0.0,0,-60,,,
153,33136740,1686004579.0805519,0.0,0.0,0.25,0.5,0.0,-8.933799743652344,-9.122167587280272,0.0,0.0,0.0,0,-59,,,
154,33236700,1686004579.180512,0.0,0.0,0.25,0.5,0.0,-8.987128257751465,-9.409029960632324,0.0,0.0,0.0,0,-59,,,
155,33336660,1686004579.2804718,0.0,0.0,0.25,0.5,0.0,-9.05020809173584,-9.440726280212402,0.0,0.0,0.0,0,-59,,,
156,33436620,1686004579.380432,0.0,0.0,0.25,0.5,0.0,-9.121983528137209,-9.494210243225098,0.0,0.0,0.0,0,-60,,,
157,33536580,1686004579.480392,0.0,0.0,0.25,0.5,0.0,-9.198062896728516,-9.20733642578125,0.0,0.0,0.0,0,-61,,,
158,33636540,1686004579.5803518,0.0,0.0,0.25,0.5,0.0,-9.263995170593262,-9.501510620117188,0.0,0.0,0.0,0,-62,,,
159,33736500,1686004579.680312,0.0,0.0,0.25,0.5,0.0,-9.32392406463623,-9.567648887634276,0.0,0.0,0.0,0,-61,,,
160,33836460,1686004579.780272,0.0,0.0,0.25,0.5,0.0,-9.38463306427002,-9.537656784057615,0.0,0.0,0.0,0,-61,,,
161,33936420,1686004579.8802319,0.0,0.0,0.25,0.5,0.0,-9.442544937133787,-9.474684715270996,0.0,0.0,0.0,0,-61,,,
162,34036380,1686004579.980192,0.0,0.0,0.25,0.5,0.0,-9.490137100219728,-9.81422233581543,0.0,0.0,0.0,0,-60,,,
163,34136340,1686004580.0801518,0.0,0.0,0.25,0.5,0.0,-9.543218612670898,-9.74445915222168,0.0,0.0,0.0,0,-59,,,
164,34236300,1686004580.180112,0.0,0.0,0.25,0.5,0.0,-9.598069190979004,-9.730228424072266,0.0,0.0,0.0,0,-59,,,
165,34336260,1686004580.280072,0.0,0.0,0.25,0.5,0.0,-9.649463653564451,-9.891526222229004,0.0,0.0,0.0,0,-58,,,
166,34436220,1686004580.3800318,0.0,0.0,0.25,0.5,0.0,-9.700998306274414,-9.767885208129885,0.0,0.0,0.0,0,-57,,,
167,34536180,1686004580.479992,0.0,0.0,0.25,0.5,0.0,-9.747960090637209,-10.037027359008787,0.0,0.0,0.0,0,-57,,,
168,34636140,1686004580.579952,0.0,0.0,0.25,0.5,0.0,-9.795723915100098,-9.887303352355955,0.0,0.0,0.0,0,-56,,,
169,34736100,1686004580.6799119,0.0,0.0,0.25,0.5,0.0,-9.841235160827637,-10.112444877624512,0.0,0.0,0.0,0,-55,,,
170,34836060,1686004580.779872,0.0,0.0,0.25,0.5,0.0,-9.88870620727539,-10.111937522888184,0.0,0.0,0.0,0,-54,,,
171,34936020,1686004580.8798316,0.0,0.0,0.25,0.5,0.0,-9.93832015991211,-10.127395629882812,0.0,0.0,0.0,0,-54,,,
172,35035980,1686004580.9797919,0.0,0.0,0.25,0.5,0.0,-9.986919403076172,-10.47482681274414,0.0,0.0,0.0,0,-53,,,
173,35136773,1686004581.080585,0.0,0.0,0.25,0.5,0.0,-10.047101020812988,-10.449732780456545,0.0,0.0,0.0,0,-54,,,
174,35236733,1686004581.1805449,0.0,0.0,0.25,0.5,0.0,-10.116287231445312,-10.53649616241455,0.0,0.0,0.0,0,-55,,,
175,35336693,1686004581.2805047,0.0,0.0,0.25,0.5,0.0,-10.19168472290039,-10.666619300842283,0.0,0.0,0.0,0,-56,,,
176,35436653,1686004581.3804648,0.0,0.0,0.25,0.5,0.0,-10.274636268615724,-10.58913230895996,0.0,0.0,0.0,0,-58,,,
177,35536613,1686004581.480425,0.0,0.0,0.25,0.5,0.0,-10.356939315795898,-10.44020175933838,0.0,0.0,0.0,0,-60,,,
178,35636573,1686004581.5803847,0.0,0.0,0.5,0.5,0.0,-10.423840522766112,-10.610002517700195,0.0,0.0,0.0,0,-50,,,
179,35736533,1686004581.6803448,0.0,0.0,0.5,0.5,0.0,-10.46876335144043,-10.875860214233398,0.0,0.0,0.0,0,-37,,,
180,35836493,1686004581.780305,0.0,0.0,0.5,0.5,0.0,-10.509523391723633,-10.636933326721191,0.0,0.0,0.0,0,-30,,,
181,35936453,1686004581.880265,0.0,0.0,0.5,0.5,0.0,-10.539186477661133,-10.647966384887695,0.0,0.0,0.0,0,-25,,,
182,36036413,1686004581.9802248,0.0,0.0,0.5,0.5,0.0,-10.55531120300293,-10.938517570495604,0.0,0.0,0.0,0,-20,,,
183,36136373,1686004582.0801847,0.0,0.0,0.5,0.5,0.0,-10.571696281433104,-10.886487007141112,0.0,0.0,0.0,0,-17,,,
184,36236333,1686004582.1801448,0.0,0.0,0.5,0.5,0.0,-10.591052055358888,-10.948006629943848,0.0,0.0,0.0,0,-15,,,
185,36336293,1686004582.2801049,0.0,0.0,0.5,0.5,0.0,-10.612401962280272,-10.93445873260498,0.0,0.0,0.0,0,-14,,,
186,36436253,1686004582.3800647,0.0,0.0,0.5,0.5,0.0,-10.63547420501709,-10.729841232299805,0.0,0.0,0.0,0,-13,,,
187,36536213,1686004582.4800248,0.0,0.0,0.5,0.5,0.0,-10.64687728881836,-10.998151779174805,0.0,0.0,0.0,0,-11,,,
188,36636173,1686004582.579985,0.0,0.0,0.5,0.5,0.0,-10.658265113830566,-10.869526863098145,0.0,0.0,0.0,0,-10,,,
189,36736133,1686004582.6799448,0.0,0.0,0.5,0.5,0.0,-10.66823959350586,-11.076547622680664,0.0,0.0,0.0,0,-9,,,
190,36836093,1686004582.7799048,0.0,0.0,0.5,0.5,0.0,-10.681676864624023,-10.99201774597168,0.0,0.0,0.0,0,-8,,,
191,36936053,1686004582.8798647,0.0,0.0,0.5,0.5,0.0,-10.697794914245604,-10.813051223754885,0.0,0.0,0.0,0,-8,,,
192,37036013,1686004582.9798248,0.0,0.0,0.5,0.5,0.0,-10.706087112426758,-10.973533630371094,0.0,0.0,0.0,0,-7,,,
193,37135973,1686004583.0797849,0.0,0.0,0.5,0.5,0.0,-10.710123062133787,-10.77978229522705,0.0,0.0,0.0,0,-6,,,
194,37236766,1686004583.180578,0.0,0.0,0.5,0.5,0.0,-10.70466136932373,-10.818623542785645,0.0,0.0,0.0,0,-4,,,
195,37336726,1686004583.2805378,0.0,0.0,0.5,0.5,0.0,-10.693493843078612,-10.93325138092041,0.0,0.0,0.0,0,-2,,,
196,37436686,1686004583.380498,0.0,0.0,0.5,0.5,0.0,-10.68273639678955,-11.116111755371094,0.0,0.0,0.0,0,-1,,,
197,37536646,1686004583.4804575,0.0,0.0,0.5,0.5,0.0,-10.682461738586426,-10.862335205078123,0.0,0.0,0.0,0,0,,,
198,37636606,1686004583.5804179,0.0,0.0,0.5,0.5,0.0,-10.680259704589844,-11.124701499938965,0.0,0.0,0.0,0,0,,,
199,37736566,1686004583.680378,0.0,0.0,0.5,0.5,0.0,-10.68495750427246,-10.926971435546877,0.0,0.0,0.0,0,0,,,
200,37836526,1686004583.7803378,0.0,0.0,0.5,0.5,0.0,-10.688953399658203,-11.052806854248049,0.0,0.0,0.0,0,0,,,
201,37936486,1686004583.880298,0.0,0.0,0.5,0.5,0.0,-10.695037841796877,-11.058830261230469,0.0,0.0,0.0,0,0,,,
202,38036446,1686004583.980258,0.0,0.0,0.5,0.5,0.0,-10.704179763793944,-10.792694091796877,0.0,0.0,0.0,0,0,,,
203,38136406,1686004584.0802178,0.0,0.0,0.5,0.5,0.0,-10.702991485595703,-10.970291137695312,0.0,0.0,0.0,0,0,,,
204,38236366,1686004584.180178,0.0,0.0,0.5,0.5,0.0,-10.698625564575195,-10.913325309753418,0.0,0.0,0.0,0,1,,,
205,38336326,1686004584.2801375,0.0,0.0,0.5,0.5,0.0,-10.692193031311035,-10.918427467346191,0.0,0.0,0.0,0,2,,,
206,38436286,1686004584.3800979,0.0,0.0,0.5,0.5,0.0,-10.683443069458008,-11.05107879638672,0.0,0.0,0.0,0,3,,,
207,38536246,1686004584.480058,0.0,0.0,0.5,0.5,0.0,-10.678507804870604,-11.017802238464355,0.0,0.0,0.0,0,4,,,
208,38636206,1686004584.5800178,0.0,0.0,0.5,0.5,0.0,-10.67799186706543,-11.106803894042969,0.0,0.0,0.0,0,4,,,
209,38736166,1686004584.679978,0.0,0.0,0.5,0.5,0.0,-10.683390617370604,-10.996329307556152,0.0,0.0,0.0,0,4,,,
210,38836126,1686004584.779938,0.0,0.0,0.5,0.5,0.0,-10.691547393798828,-10.734914779663086,0.0,0.0,0.0,0,3,,,
211,38936086,1686004584.8798978,0.0,0.0,0.5,0.5,0.0,-10.684934616088867,-10.918869018554688,0.0,0.0,0.0,0,4,,,
212,39036046,1686004584.979858,0.0,0.0,0.5,0.5,0.0,-10.673847198486328,-11.057913780212402,0.0,0.0,0.0,0,5,,,
213,39136006,1686004585.079818,0.0,0.0,0.5,0.5,0.0,-10.667668342590332,-10.964256286621094,0.0,0.0,0.0,0,5,,,
214,39236799,1686004585.180611,0.0,0.0,0.5,0.5,0.0,-10.66462230682373,-11.04001235961914,0.0,0.0,0.0,0,5,,,
215,39336759,1686004585.2805707,0.0,0.0,0.5,0.5,0.0,-10.665939331054688,-11.080086708068848,0.0,0.0,0.0,0,5,,,
216,39436719,1686004585.3805308,0.0,0.0,0.5,0.5,0.0,-10.672568321228027,-10.914265632629396,0.0,0.0,0.0,0,4,,,
217,39536679,1686004585.4804907,0.0,0.0,0.5,0.5,0.0,-10.676154136657717,-10.815655708312988,0.0,0.0,0.0,0,4,,,
218,39636639,1686004585.580451,0.0,0.0,0.5,0.5,0.0,-10.670681953430176,-10.874749183654783,0.0,0.0,0.0,0,4,,,
219,39736599,1686004585.6804109,0.0,0.0,0.5,0.5,0.0,-10.66023063659668,-10.921446800231934,0.0,0.0,0.0,0,5,,,
220,39836559,1686004585.7803707,0.0,0.0,0.5,0.5,0.0,-10.649638175964355,-10.71159553527832,0.0,0.0,0.0,0,5,,,
221,39936519,1686004585.8803308,0.0,0.0,0.5,0.5,0.0,-10.628866195678713,-11.026544570922852,0.0,0.0,0.0,0,7,,,
222,40036479,1686004585.980291,0.0,0.0,0.5,0.5,0.0,-10.61646556854248,-10.8531494140625,0.0,0.0,0.0,0,7,,,
223,40136439,1686004586.0802507,0.0,0.0,0.5,0.5,0.0,-10.605531692504885,-10.79235553741455,0.0,0.0,0.0,0,8,,,
224,40236399,1686004586.1802108,0.0,0.0,0.5,0.5,0.0,-10.591005325317385,-10.90660285949707,0.0,0.0,0.0,0,8,,,
225,40336359,1686004586.280171,0.0,0.0,0.5,0.5,0.0,-10.578892707824709,-10.624205589294434,0.0,0.0,0.0,0,8,,,
226,40436319,1686004586.380131,0.0,0.0,0.5,0.5,0.0,-10.557808876037598,-10.740995407104492,0.0,0.0,0.0,0,10,,,
227,40536279,1686004586.4800909,0.0,0.0,0.5,0.5,0.0,-10.532636642456056,-10.700319290161133,0.0,0.0,0.0,0,11,,,
228,40636239,1686004586.5800507,0.0,0.0,0.5,0.5,0.0,-10.505459785461426,-10.804466247558594,0.0,0.0,0.0,0,12,,,
229,40736199,1686004586.6800108,0.0,0.0,0.5,0.5,0.0,-10.481889724731444,-10.61176872253418,0.0,0.0,0.0,0,13,,,
230,40836159,1686004586.779971,0.0,0.0,0.5,0.5,0.0,-10.456233978271484,-10.902722358703612,0.0,0.0,0.0,0,14,,,
231,40936119,1686004586.8799307,0.0,0.0,0.5,0.5,0.0,-10.437423706054688,-10.805583953857422,0.0,0.0,0.0,0,14,,,
232,41036079,1686004586.9798908,0.0,0.0,0.5,0.5,0.0,-10.426898956298828,-10.69078540802002,0.0,0.0,0.0,0,14,,,
233,41136039,1686004587.079851,0.0,0.0,0.5,0.5,0.0,-10.41645336151123,-10.872763633728027,0.0,0.0,0.0,0,14,,,
234,41235999,1686004587.179811,0.0,0.0,0.5,0.5,0.0,-10.412677764892578,-10.755779266357422,0.0,0.0,0.0,0,13,,,
235,41336792,1686004587.280604,0.0,0.0,0.5,0.5,0.0,-10.412067413330078,-10.91481590270996,0.0,0.0,0.0,0,12,,,
236,41436752,1686004587.380564,0.0,0.0,0.5,0.5,0.0,-10.41755199432373,-10.639087677001951,0.0,0.0,0.0,0,11,,,
237,41536712,1686004587.4805238,0.0,0.0,0.5,0.5,0.0,-10.41834831237793,-10.6107759475708,0.0,0.0,0.0,0,10,,,
238,41636672,1686004587.580484,0.0,0.0,0.5,0.5,0.0,-10.411665916442873,-10.830434799194336,0.0,0.0,0.0,0,10,,,
239,41736632,1686004587.680444,0.0,0.0,0.5,0.5,0.0,-10.40821647644043,-10.63706398010254,0.0,0.0,0.0,0,9,,,
240,41836592,1686004587.7804039,0.0,0.0,0.5,0.5,0.0,-10.402382850646973,-10.741320610046388,0.0,0.0,0.0,0,9,,,
241,41936552,1686004587.880364,0.0,0.0,0.5,0.5,0.0,-10.397367477416992,-10.744913101196287,0.0,0.0,0.0,0,9,,,
242,42036512,1686004587.9803236,0.0,0.0,0.5,0.5,0.0,-10.394942283630373,-10.62716007232666,0.0,0.0,0.0,0,8,,,
243,42109000,1686004587.9803236,0.0,0.0,0.5,0.5,0.0,-10.394942283630373,-10.62716007232666,0.0,0.0,0.0,0,8,-20.0,-10.4132402029461,9.491759797053898
244,42136472,1686004588.0802839,0.0,0.0,0.5,0.5,0.0,-10.389477729797363,-10.588905334472656,0.0,9.47,0.0,0,8,-20.0,-10.4132402029461,9.491759797053898
245,42210000,1686004588.0802839,0.0,0.0,0.5,0.5,0.0,-10.389477729797363,-10.588905334472656,0.0,9.47,0.0,0,8,-20.0,-10.412223971230013,9.492776028769986
246,42236432,1686004588.180244,0.0,0.0,0.5,0.5,0.0,-10.37890625,-10.708313941955566,0.0,9.47,0.0,0,9,-20.0,-10.412223971230013,9.492776028769986
247,42310000,1686004588.180244,0.0,0.0,0.5,0.5,0.0,-10.37890625,-10.708313941955566,0.0,9.47,0.0,0,9,-20.0,-10.4132760306102,9.4917239693898
248,42336392,1686004588.2802038,0.0,0.0,0.5,0.5,0.0,-10.370217323303224,-10.818629264831545,0.0,9.47,0.0,0,9,-20.0,-10.4132760306102,9.4917239693898
249,42412000,1686004588.2802038,0.0,0.0,0.5,0.5,0.0,-10.370217323303224,-10.818629264831545,0.0,9.47,0.0,0,9,-20.0,-10.414098273489769,9.49090172651023
250,42436352,1686004588.380164,0.0,0.0,0.5,0.5,0.0,-10.369831085205078,-10.652024269104004,0.0,9.47,0.0,0,8,-20.0,-10.414098273489769,9.49090172651023
251,42513000,1686004588.380164,0.0,0.0,0.5,0.5,0.0,-10.369831085205078,-10.652024269104004,0.0,9.47,0.0,0,8,-20.0,-10.408694486478062,9.496305513521936
252,42536312,1686004588.480124,0.0,0.0,0.5,0.5,0.0,-10.369800567626951,-10.465171813964844,0.0,9.47,0.0,0,7,-20.0,-10.408694486478062,9.496305513521936
253,42615000,1686004588.480124,0.0,0.0,0.5,0.5,0.0,-10.369800567626951,-10.465171813964844,0.0,9.47,0.0,0,7,-20.0,-10.403194940477228,9.501805059522772
254,42636272,1686004588.5800838,0.0,0.0,0.5,0.5,0.0,-10.35956859588623,-10.576946258544922,0.0,9.49,0.0,0,7,-20.0,-10.403194940477228,9.501805059522772
255,42715000,1686004588.5800838,0.0,0.0,0.5,0.5,0.0,-10.35956859588623,-10.576946258544922,0.0,9.49,0.0,0,7,-20.0,-10.39868726294739,9.506312737052609
256,42736232,1686004588.680044,0.0,0.0,0.5,0.5,0.0,-10.344945907592772,-10.626736640930176,0.0,9.49,0.0,0,8,-20.0,-10.39868726294739,9.506312737052609
257,42815000,1686004588.680044,0.0,0.0,0.5,0.5,0.0,-10.344945907592772,-10.626736640930176,0.0,9.49,0.0,0,8,-20.0,-10.394896874720104,9.510103125279896
258,42836192,1686004588.7800035,0.0,0.0,0.5,0.5,0.0,-10.331666946411133,-10.54470920562744,0.0,9.5,0.0,0,8,-20.0,-10.394896874720104,9.510103125279896
259,42917000,1686004588.7800035,0.0,0.0,0.5,0.5,0.0,-10.331666946411133,-10.54470920562744,0.0,9.5,0.0,0,8,-20.0,-10.390722799625385,9.514277200374616
260,42936152,1686004588.8799639,0.0,0.0,0.5,0.5,0.0,-10.317068099975586,-10.49982738494873,0.0,9.5,0.0,0,9,-20.0,-10.390722799625385,9.514277200374616
261,43018000,1686004588.8799639,0.0,0.0,0.5,0.5,0.0,-10.317068099975586,-10.49982738494873,0.0,9.5,0.0,0,9,-20.0,-10.383091056915712,9.521908943084286
262,43036112,1686004588.979924,0.0,0.0,0.5,0.5,0.0,-10.29914665222168,-10.75757884979248,0.0,9.5,0.0,0,10,-20.0,-10.383091056915712,9.521908943084286
263,43120000,1686004588.979924,0.0,0.0,0.5,0.5,0.0,-10.29914665222168,-10.75757884979248,0.0,9.5,0.0,0,10,-20.0,-10.375323259226796,9.529676740773205
264,43136072,1686004589.0798838,0.0,0.0,0.5,0.5,0.0,-10.2893648147583,-10.399439811706545,0.0,9.5,0.0,0,9,-20.0,-10.375323259226796,9.529676740773205
265,43220000,1686004589.0798838,0.0,0.0,0.5,0.5,0.0,-10.2893648147583,-10.399439811706545,0.0,9.5,0.0,0,9,-20.0,-10.368122891309037,9.536877108690964
266,43236032,1686004589.179844,0.0,0.0,0.5,0.5,0.0,-10.277223587036133,-10.353625297546388,0.0,9.51,0.0,0,10,-20.0,-10.368122891309037,9.536877108690964
267,43320000,1686004589.179844,0.0,0.0,0.5,0.5,0.0,-10.277223587036133,-10.353625297546388,0.0,9.51,0.0,0,10,-20.0,-10.365850335744486,9.539149664255511
268,43335992,1686004589.279804,0.0,0.0,0.5,0.5,0.0,-10.254758834838867,-10.376153945922852,0.0,9.51,0.0,0,11,-20.0,-10.365850335744486,9.539149664255511
269,43422000,1686004589.279804,0.0,0.0,0.5,0.5,0.0,-10.254758834838867,-10.376153945922852,0.0,9.51,0.0,0,11,-20.0,-10.362800141904964,9.542199858095035
270,43436785,1686004589.3805969,0.0,0.0,0.5,0.5,0.0,-10.223482131958008,-10.554466247558594,0.0,9.52,0.0,0,12,-20.0,-10.362800141904964,9.542199858095035
271,43523000,1686004589.3805969,0.0,0.0,0.5,0.5,0.0,-10.223482131958008,-10.554466247558594,0.0,9.52,0.0,0,12,-20.0,-10.351360685968052,9.553639314031948
272,43536745,1686004589.4805567,0.0,0.0,0.5,0.5,0.0,-10.199572563171388,-10.52403450012207,0.0,9.54,0.0,0,13,-20.0,-10.351360685968052,9.553639314031948
273,43624000,1686004589.4805567,0.0,0.0,0.5,0.5,0.0,-10.199572563171388,-10.52403450012207,0.0,9.54,0.0,0,13,-20.0,-10.33973085206654,9.56526914793346
274,43636705,1686004589.5805168,0.2915294468402862,0.0,0.4235177040100097,0.5,-10.182960510253906,-10.18143367767334,-10.359926223754885,9.49,9.54,0.0,12,13,-20.0,-10.33973085206654,9.56526914793346
275,43725000,1686004589.5805168,0.2915294468402862,0.0,0.4235177040100097,0.5,-10.182960510253906,-10.18143367767334,-10.359926223754885,9.49,9.54,0.0,12,13,-20.0,-10.327677829716304,9.577322170283695
276,43736665,1686004589.680477,0.3842790126800537,0.0,0.3637466728687286,0.5,-10.172901153564451,-10.16491985321045,-10.46389389038086,9.49,9.55,0.0,5,7,-20.0,-10.327677829716304,9.577322170283695
277,43825000,1686004589.680477,0.3842790126800537,0.0,0.3637466728687286,0.5,-10.172901153564451,-10.16491985321045,-10.46389389038086,9.49,9.55,0.0,5,7,-20.0,-10.30865323602333,9.596346763976667
278,43836625,1686004589.7804368,0.4040994644165039,0.0,0.3780810534954071,0.5,-10.166732788085938,-10.155454635620115,-10.600899696350098,9.49,9.58,0.0,1,2,-20.0,-10.30865323602333,9.596346763976667
279,43927000,1686004589.7804368,0.4040994644165039,0.0,0.3780810534954071,0.5,-10.166732788085938,-10.155454635620115,-10.600899696350098,9.49,9.58,0.0,1,2,-20.0,-10.289714399970546,9.615285600029454
280,43936585,1686004589.8803968,0.4516512453556061,0.0,0.4042454361915588,0.5,-10.16342544555664,-10.159674644470217,-10.482166290283203,9.49,9.59,0.0,1,-2,-20.0,-10.289714399970546,9.615285600029454
281,44028000,1686004589.8803968,0.4516512453556061,0.0,0.4042454361915588,0.5,-10.16342544555664,-10.159674644470217,-10.482166290283203,9.49,9.59,0.0,1,-2,-20.0,-10.275725742642363,9.629274257357636
282,44036545,1686004589.9803567,0.5054518580436707,0.0,0.4535922408103943,0.5,-10.162344932556152,-10.171079635620115,-10.679142951965332,9.49,9.6,0.0,2,-4,-20.0,-10.275725742642363,9.629274257357636
283,44135000,1686004589.9803567,0.5054518580436707,0.0,0.4535922408103943,0.5,-10.162344932556152,-10.171079635620115,-10.679142951965332,9.49,9.6,0.0,2,-4,-20.0,-10.260772564518136,9.644227435481865
284,44136505,1686004590.0803168,0.5980687737464905,0.0,0.5129686594009399,0.5,-10.16301727294922,-10.192511558532717,-10.442672729492188,9.49,9.6,0.0,7,-4,-20.0,-10.260772564518136,9.644227435481865
285,44236000,1686004590.0803168,0.5980687737464905,0.0,0.5129686594009399,0.5,-10.16301727294922,-10.192511558532717,-10.442672729492188,9.49,9.6,0.0,7,-4,-20.0,-10.244353709443246,9.660646290556754
286,44236465,1686004590.1802769,0.6475870609283447,0.0,0.6017507314682007,0.5,-10.165105819702148,-10.20931339263916,-10.363332748413086,9.49,9.62,0.0,10,-3,-20.0,-10.244353709443246,9.660646290556754
287,44336425,1686004590.2802367,0.5682047605514526,0.0,0.5947189331054688,0.5,-10.16845417022705,-10.212732315063477,-10.556102752685549,9.49,9.64,0.0,9,1,-20.0,-10.244353709443246,9.660646290556754
288,44337000,1686004590.2802367,0.5682047605514526,0.0,0.5947189331054688,0.5,-10.16845417022705,-10.212732315063477,-10.556102752685549,9.49,9.64,0.0,9,1,-20.0,-10.213074797793372,9.691925202206626
289,44436385,1686004590.3801968,0.5069835782051086,0.0,0.5399139523506165,0.5,-10.172995567321776,-10.212718963623049,-10.397601127624512,9.49,9.67,0.0,6,4,-20.0,-10.213074797793372,9.691925202206626
290,44439000,1686004590.3801968,0.5069835782051086,0.0,0.5399139523506165,0.5,-10.172995567321776,-10.212718963623049,-10.397601127624512,9.49,9.67,0.0,6,4,-20.0,-10.184268703543262,9.720731296456735
291,44536345,1686004590.480157,0.4172011315822601,0.0,0.4771144986152649,0.5,-10.178766250610352,-10.207189559936523,-10.364094734191896,9.49,9.7,0.0,2,5,-20.0,-10.184268703543262,9.720731296456735
292,44539000,1686004590.480157,0.4172011315822601,0.0,0.4771144986152649,0.5,-10.178766250610352,-10.207189559936523,-10.364094734191896,9.49,9.7,0.0,2,5,-20.0,-10.173853110898248,9.731146889101751
293,44636305,1686004590.5801167,0.3401306271553039,0.0,0.3850661814212799,0.5,-10.185837745666504,-10.19533634185791,-10.548639297485352,9.49,9.71,0.0,-4,4,-20.0,-10.173853110898248,9.731146889101751
294,44643000,1686004590.5801167,0.3401306271553039,0.0,0.3850661814212799,0.5,-10.185837745666504,-10.19533634185791,-10.548639297485352,9.49,9.71,0.0,-4,4,-20.0,-10.163101717482483,9.741898282517514
295,44736265,1686004590.6800768,0.3816438317298889,0.0,0.3575159311294555,0.5,-10.194218635559082,-10.191606521606444,-10.384481430053713,9.49,9.72,0.0,-9,-2,-20.0,-10.163101717482483,9.741898282517514
296,44743000,1686004590.6800768,0.3816438317298889,0.0,0.3575159311294555,0.5,-10.194218635559082,-10.191606521606444,-10.384481430053713,9.49,9.72,0.0,-9,-2,-20.0,-10.156913996560087,9.74808600343991
297,44836225,1686004590.7800367,0.3899048268795013,0.0,0.370926171541214,0.5,-10.203865051269531,-10.192371368408203,-10.55483627319336,9.49,9.72,0.0,-13,-7,-20.0,-10.156913996560087,9.74808600343991
298,44844000,1686004590.7800367,0.3899048268795013,0.0,0.370926171541214,0.5,-10.203865051269531,-10.192371368408203,-10.55483627319336,9.49,9.72,0.0,-13,-7,-20.0,-10.172723951269266,9.732276048730734
299,44936185,1686004590.8799968,0.4130285382270813,0.0,0.3834207952022552,0.5,-10.214673042297363,-10.203373908996582,-10.433317184448242,9.49,9.71,0.0,-14,-12,-20.0,-10.172723951269266,9.732276048730734
300,44948000,1686004590.8799968,0.4130285382270813,0.0,0.3834207952022552,0.5,-10.214673042297363,-10.203373908996582,-10.433317184448242,9.49,9.71,0.0,-14,-12,-20.0,-10.188064683508037,9.716935316491965
301,45036145,1686004590.9799569,0.4252718091011047,0.0,0.4048196673393249,0.5,-10.226468086242676,-10.21719741821289,-10.592851638793944,9.49,9.7,0.0,-14,-14,-20.0,-10.188064683508037,9.716935316491965
302,45049000,1686004590.9799569,0.4252718091011047,0.0,0.4048196673393249,0.5,-10.226468086242676,-10.21719741821289,-10.592851638793944,9.49,9.7,0.0,-14,-14,-20.0,-10.196493143157838,9.708506856842162
303,45136105,1686004591.0799167,0.4453981816768646,0.0,0.4205822944641113,0.5,-10.239025115966797,-10.236790657043455,-10.402411460876465,9.49,9.68,0.0,-13,-15,-20.0,-10.196493143157838,9.708506856842162
304,45153000,1686004591.0799167,0.4453981816768646,0.0,0.4205822944641113,0.5,-10.239025115966797,-10.236790657043455,-10.402411460876465,9.49,9.68,0.0,-13,-15,-20.0,-10.20518477060807,9.699815229391929
305,45236065,1686004591.1798768,0.4475010633468628,0.0,0.441631406545639,0.5,-10.252050399780272,-10.252150535583496,-10.70757293701172,9.49,9.67,0.0,-13,-14,-20.0,-10.20518477060807,9.699815229391929
306,45254000,1686004591.1798768,0.4475010633468628,0.0,0.441631406545639,0.5,-10.252050399780272,-10.252150535583496,-10.70757293701172,9.49,9.67,0.0,-13,-14,-20.0,-10.211257423821122,9.693742576178876
307,45336025,1686004591.279837,0.4620551466941833,0.0,0.4443965256214142,0.5,-10.265344619750977,-10.273839950561523,-10.457403182983398,9.49,9.67,0.0,-10,-14,-20.0,-10.211257423821122,9.693742576178876
308,45355000,1686004591.279837,0.4620551466941833,0.0,0.4443965256214142,0.5,-10.265344619750977,-10.273839950561523,-10.457403182983398,9.49,9.67,0.0,-10,-14,-20.0,-10.204472824878438,9.70052717512156
309,45435985,1686004591.3797967,0.4817295670509338,0.0,0.4681236147880554,0.5,-10.278843879699709,-10.29135799407959,-10.638564109802246,9.49,9.68,0.0,-9,-12,-20.0,-10.204472824878438,9.70052717512156
310,45457000,1686004591.3797967,0.4817295670509338,0.0,0.4681236147880554,0.5,-10.278843879699709,-10.29135799407959,-10.638564109802246,9.49,9.68,0.0,-9,-12,-20.0,-10.19834293466398,9.70665706533602
311,45536778,1686004591.4805899,0.4749864339828491,0.0,0.4673680365085602,0.5,-10.292696952819824,-10.309035301208496,-10.685697555541992,9.49,9.68,0.0,-8,-11,-20.0,-10.19834293466398,9.70665706533602
312,45557000,1686004591.4805899,0.4749864339828491,0.0,0.4673680365085602,0.5,-10.292696952819824,-10.309035301208496,-10.685697555541992,9.49,9.68,0.0,-8,-11,-20.0,-10.196746336811431,9.708253663188568
313,45636738,1686004591.58055,0.4885991811752319,0.0,0.4728572070598602,0.5,-10.306645393371582,-10.329550743103027,-10.84609317779541,9.49,9.68,0.0,-7,-10,-20.0,-10.196746336811431,9.708253663188568
314,45659000,1686004591.58055,0.4885991811752319,0.0,0.4728572070598602,0.5,-10.306645393371582,-10.329550743103027,-10.84609317779541,9.49,9.68,0.0,-7,-10,-20.0,-10.19512375993374,9.70987624006626
315,45736698,1686004591.6805098,0.5585029125213623,0.0,0.504727840423584,0.5,-10.32076644897461,-10.357275009155272,-10.74547290802002,9.49,9.68,0.0,-3,-11,-20.0,-10.19512375993374,9.70987624006626
316,45759000,1686004591.6805098,0.5585029125213623,0.0,0.504727840423584,0.5,-10.32076644897461,-10.357275009155272,-10.74547290802002,9.49,9.68,0.0,-3,-11,-20.0,-10.195884524312511,9.709115475687488
317,45836658,1686004591.78047,0.6520822644233704,0.0,0.5875973105430603,0.5,-10.335030555725098,-10.38863468170166,-10.48173713684082,9.49,9.68,0.0,1,-10,-20.0,-10.195884524312511,9.709115475687488
318,45861000,1686004591.78047,0.6520822644233704,0.0,0.5875973105430603,0.5,-10.335030555725098,-10.38863468170166,-10.48173713684082,9.49,9.68,0.0,1,-10,-20.0,-10.214081421666322,9.690918578333678
319,45936618,1686004591.88043,0.5911939144134521,0.0,0.6167086362838745,0.5,-10.349382400512695,-10.406011581420898,-10.711997032165527,9.49,9.67,0.0,2,-5,-20.0,-10.214081421666322,9.690918578333678
320,45961000,1686004591.88043,0.5911939144134521,0.0,0.6167086362838745,0.5,-10.349382400512695,-10.406011581420898,-10.711997032165527,9.49,9.67,0.0,2,-5,-20.0,-10.231816316732107,9.673183683267892
321,46036578,1686004591.9803898,0.5219228863716125,0.0,0.5676890015602112,0.5,-10.363722801208496,-10.4129638671875,-10.47742748260498,9.49,9.66,0.0,0,-1,-20.0,-10.231816316732107,9.673183683267892
322,46062000,1686004591.9803898,0.5219228863716125,0.0,0.5676890015602112,0.5,-10.363722801208496,-10.4129638671875,-10.47742748260498,9.49,9.66,0.0,0,-1,-20.0,-10.247981233291627,9.657018766708372
323,46136538,1686004592.08035,0.4367888867855072,0.0,0.5093482136726379,0.5,-10.377925872802734,-10.40903663635254,-10.624488830566406,9.49,9.63,0.0,-4,0,-20.0,-10.247981233291627,9.657018766708372
324,46164000,1686004592.08035,0.4367888867855072,0.0,0.5093482136726379,0.5,-10.377925872802734,-10.40903663635254,-10.624488830566406,9.49,9.63,0.0,-4,0,-20.0,-10.264382394069075,9.640617605930922
325,46236498,1686004592.18031,0.3050517439842224,0.0,0.3978436291217804,0.5,-10.391751289367676,-10.399450302124023,-10.52340602874756,9.49,9.62,0.0,-11,0,-20.0,-10.264382394069075,9.640617605930922
326,46264000,1686004592.18031,0.3050517439842224,0.0,0.3978436291217804,0.5,-10.391751289367676,-10.399450302124023,-10.52340602874756,9.49,9.62,0.0,-11,0,-20.0,-10.281008769790422,9.623991230209578
327,46336458,1686004592.2802699,0.3343455195426941,0.0,0.3529651761054992,0.5,-10.405106544494627,-10.389185905456545,-10.840271949768066,9.49,9.6,0.0,-17,-4,-20.0,-10.281008769790422,9.623991230209578
328,46366000,1686004592.2802699,0.3343455195426941,0.0,0.3529651761054992,0.5,-10.405106544494627,-10.389185905456545,-10.840271949768066,9.49,9.6,0.0,-17,-4,-20.0,-10.303575243397743,9.601424756602256
329,46436418,1686004592.38023,0.3824508786201477,0.0,0.3612134158611297,0.5,-10.417877197265623,-10.393961906433104,-10.720834732055664,9.49,9.58,0.0,-19,-12,-20.0,-10.303575243397743,9.601424756602256
330,46466000,1686004592.38023,0.3824508786201477,0.0,0.3612134158611297,0.5,-10.417877197265623,-10.393961906433104,-10.720834732055664,9.49,9.58,0.0,-19,-12,-20.0,-10.326848003754296,9.578151996245705
331,46536378,1686004592.4801898,0.44312185049057,0.0,0.409759521484375,0.5,-10.429944038391112,-10.412745475769045,-10.70530891418457,9.49,9.55,0.0,-16,-16,-20.0,-10.326848003754296,9.578151996245705
332,46566000,1686004592.4801898,0.44312185049057,0.0,0.409759521484375,0.5,-10.429944038391112,-10.412745475769045,-10.70530891418457,9.49,9.55,0.0,-16,-16,-20.0,-10.362369477616388,9.542630522383613
333,46636338,1686004592.58015,0.4992547631263733,0.0,0.4650693535804748,0.5,-10.44114112854004,-10.43415355682373,-10.89768409729004,9.49,9.52,0.0,-12,-16,-20.0,-10.362369477616388,9.542630522383613
334,46668000,1686004592.58015,0.4992547631263733,0.0,0.4650693535804748,0.5,-10.44114112854004,-10.43415355682373,-10.89768409729004,9.49,9.52,0.0,-12,-16,-20.0,-10.39605281898342,9.50894718101658
335,46736298,1686004592.68011,0.6122449636459351,0.0,0.5366876721382141,0.5,-10.451302528381348,-10.462564468383787,-10.572117805480955,9.49,9.5,0.0,-6,-15,-20.0,-10.39605281898342,9.50894718101658
336,46769000,1686004592.68011,0.6122449636459351,0.0,0.5366876721382141,0.5,-10.451302528381348,-10.462564468383787,-10.572117805480955,9.49,9.5,0.0,-6,-15,-20.0,-10.40124186856999,9.50375813143001
337,46836258,1686004592.7800698,0.6148223280906677,0.0,0.6160985827445984,0.5,-10.46030044555664,-10.480996131896973,-10.728720664978027,9.49,9.5,0.0,-2,-11,-20.0,-10.40124186856999,9.50375813143001
338,46871000,1686004592.7800698,0.6148223280906677,0.0,0.6160985827445984,0.5,-10.46030044555664,-10.480996131896973,-10.728720664978027,9.49,9.5,0.0,-2,-11,-20.0,-10.4065603563309,9.498439643669098
339,46936218,1686004592.88003,0.5641732215881348,0.0,0.6008626818656921,0.5,-10.468170166015623,-10.489938735961914,-10.76850414276123,9.49,9.48,0.0,0,-5,-20.0,-10.4065603563309,9.498439643669098
340,46972000,1686004592.88003,0.5641732215881348,0.0,0.6008626818656921,0.5,-10.468170166015623,-10.489938735961914,-10.76850414276123,9.49,9.48,0.0,0,-5,-20.0,-10.41027355490066,9.49472644509934
341,47036178,1686004592.97999,0.5344451665878296,0.0,0.570360004901886,0.5,-10.474896430969238,-10.494565963745115,-10.82842254638672,9.49,9.47,0.0,0,-2,-20.0,-10.41027355490066,9.49472644509934
342,47072000,1686004592.97999,0.5344451665878296,0.0,0.570360004901886,0.5,-10.474896430969238,-10.494565963745115,-10.82842254638672,9.49,9.47,0.0,0,-2,-20.0,-10.398303149829744,9.506696850170254
343,47136138,1686004593.0799499,0.5275620222091675,0.0,0.5482209324836731,0.5,-10.480518341064451,-10.4995698928833,-10.76412868499756,9.49,9.49,0.0,0,0,-20.0,-10.398303149829744,9.506696850170254
344,47174000,1686004593.0799499,0.5275620222091675,0.0,0.5482209324836731,0.5,-10.480518341064451,-10.4995698928833,-10.76412868499756,9.49,9.49,0.0,0,0,-20.0,-10.388373348171957,9.516626651828044
345,47236098,1686004593.17991,0.525056779384613,0.0,0.5398536920547485,0.5,-10.485204696655272,-10.50311279296875,-10.866609573364258,9.49,9.5,0.0,1,0,-20.0,-10.388373348171957,9.516626651828044
346,47274000,1686004593.17991,0.525056779384613,0.0,0.5398536920547485,0.5,-10.485204696655272,-10.50311279296875,-10.866609573364258,9.49,9.5,0.0,1,0,-20.0,-10.402037568952936,9.502962431047065
347,47336058,1686004593.2798696,0.532564103603363,0.0,0.5358179211616516,0.5,-10.489145278930664,-10.508572578430176,-10.72931671142578,9.49,9.49,0.0,2,0,-20.0,-10.402037568952936,9.502962431047065
348,47376000,1686004593.2798696,0.532564103603363,0.0,0.5358179211616516,0.5,-10.489145278930664,-10.508572578430176,-10.72931671142578,9.49,9.49,0.0,2,0,-20.0,-10.41593717528836,9.48906282471164
349,47436018,1686004593.37983,0.5390685200691223,0.0,0.5458235740661621,0.5,-10.492386817932127,-10.510612487792969,-10.90947437286377,9.49,9.47,0.0,2,1,-20.0,-10.41593717528836,9.48906282471164
350,47477000,1686004593.37983,0.5390685200691223,0.0,0.5458235740661621,0.5,-10.492386817932127,-10.510612487792969,-10.90947437286377,9.49,9.47,0.0,2,1,-20.0,-10.430792259635709,9.474207740364292
351,47535978,1686004593.47979,0.5476877689361572,0.0,0.5477767586708069,0.5,-10.494885444641112,-10.515874862670898,-10.824793815612791,9.49,9.46,0.0,4,1,-20.0,-10.430792259635709,9.474207740364292
352,47577000,1686004593.47979,0.5476877689361572,0.0,0.5477767586708069,0.5,-10.494885444641112,-10.515874862670898,-10.824793815612791,9.49,9.46,0.0,4,1,-20.0,-10.458153927254203,9.446846072745796
353,47636771,1686004593.5805829,0.5780839920043945,0.0,0.5692774057388306,0.5,-10.49662971496582,-10.521512985229492,-10.881702423095703,9.49,9.43,0.0,6,2,-20.0,-10.458153927254203,9.446846072745796
354,47679000,1686004593.5805829,0.5780839920043945,0.0,0.5692774057388306,0.5,-10.49662971496582,-10.521512985229492,-10.881702423095703,9.49,9.43,0.0,6,2,-20.0,-10.48409625527605,9.42090374472395
355,47736731,1686004593.6805427,0.589773416519165,0.0,0.588153600692749,0.5,-10.497481346130373,-10.527578353881836,-10.60137176513672,9.49,9.42,0.0,8,4,-20.0,-10.48409625527605,9.42090374472395
356,47779000,1686004593.6805427,0.589773416519165,0.0,0.588153600692749,0.5,-10.497481346130373,-10.527578353881836,-10.60137176513672,9.49,9.42,0.0,8,4,-20.0,-10.48892158840238,9.41607841159762
357,47836691,1686004593.7805028,0.5538098216056824,0.0,0.5893245935440063,0.5,-10.497424125671388,-10.522017478942873,-10.692510604858398,9.49,9.39,0.0,7,7,-20.0,-10.48892158840238,9.41607841159762
358,47881000,1686004593.7805028,0.5538098216056824,0.0,0.5893245935440063,0.5,-10.497424125671388,-10.522017478942873,-10.692510604858398,9.49,9.39,0.0,7,7,-20.0,-10.493825903711274,9.411174096288724
359,47936651,1686004593.880463,0.4883488416671753,0.0,0.5473915934562683,0.5,-10.496429443359377,-10.506155014038086,-10.739827156066896,9.49,9.39,0.0,4,8,-20.0,-10.493825903711274,9.411174096288724
360,47981000,1686004593.880463,0.4883488416671753,0.0,0.5473915934562683,0.5,-10.496429443359377,-10.506155014038086,-10.739827156066896,9.49,9.39,0.0,4,8,-20.0,-10.498698394489502,9.406301605510498
361,48036611,1686004593.9804227,0.4136516451835632,0.0,0.48472461104393,0.5,-10.494434356689451,-10.488884925842283,-10.825994491577148,9.49,9.38,0.0,0,8,-20.0,-10.498698394489502,9.406301605510498
362,48082000,1686004593.9804227,0.4136516451835632,0.0,0.48472461104393,0.5,-10.494434356689451,-10.488884925842283,-10.825994491577148,9.49,9.38,0.0,0,8,-20.0,-10.504134140229125,9.400865859770876
363,48136571,1686004594.0803828,0.3916302025318146,0.0,0.4235793054103851,0.5,-10.49147605895996,-10.47695541381836,-10.61343002319336,9.49,9.38,0.0,0,7,-20.0,-10.504134140229125,9.400865859770876
364,48184000,1686004594.0803828,0.3916302025318146,0.0,0.4235793054103851,0.5,-10.49147605895996,-10.47695541381836,-10.61343002319336,9.49,9.38,0.0,0,7,-20.0,-10.509511607968236,9.395488392031764
365,48236531,1686004594.180343,0.404384583234787,0.0,0.4189757406711578,0.5,-10.487592697143556,-10.463945388793944,-10.782017707824709,9.49,9.37,0.0,-2,4,-20.0,-10.509511607968236,9.395488392031764
366,48284000,1686004594.180343,0.404384583234787,0.0,0.4189757406711578,0.5,-10.487592697143556,-10.463945388793944,-10.782017707824709,9.49,9.37,0.0,-2,4,-20.0,-10.513199141133605,9.391800858866397
367,48336491,1686004594.280303,0.4194088578224182,0.0,0.4189233779907226,0.5,-10.482839584350586,-10.456204414367676,-10.583243370056152,9.49,9.37,0.0,-2,2,-20.0,-10.513199141133605,9.391800858866397
368,48386000,1686004594.280303,0.4194088578224182,0.0,0.4189233779907226,0.5,-10.482839584350586,-10.456204414367676,-10.583243370056152,9.49,9.37,0.0,-2,2,-20.0,-10.51694375807735,9.38805624192265
369,48436451,1686004594.3802629,0.4319840669631958,0.0,0.4354712665081024,0.5,-10.477265357971191,-10.44722843170166,-10.521121978759766,9.49,9.37,0.0,-3,1,-20.0,-10.51694375807735,9.38805624192265
370,48486000,1686004594.3802629,0.4319840669631958,0.0,0.4354712665081024,0.5,-10.477265357971191,-10.44722843170166,-10.521121978759766,9.49,9.37,0.0,-3,1,-20.0,-10.520303325141592,9.384696674858407
371,48536411,1686004594.4802227,0.3993004560470581,0.0,0.4291600286960602,0.5,-10.470955848693848,-10.431475639343262,-10.612712860107422,9.49,9.37,0.0,-5,1,-20.0,-10.520303325141592,9.384696674858407
372,48586000,1686004594.4802227,0.3993004560470581,0.0,0.4291600286960602,0.5,-10.470955848693848,-10.431475639343262,-10.612712860107422,9.49,9.37,0.0,-5,1,-20.0,-10.51970352029128,9.38529647970872
373,48636371,1686004594.5801828,0.3758663833141327,0.0,0.4006430506706238,0.5,-10.463998794555664,-10.414359092712402,-10.536498069763184,9.49,9.37,0.0,-7,0,-20.0,-10.51970352029128,9.38529647970872
374,48688000,1686004594.5801828,0.3758663833141327,0.0,0.4006430506706238,0.5,-10.463998794555664,-10.414359092712402,-10.536498069763184,9.49,9.37,0.0,-7,0,-20.0,-10.518144583890258,9.38685541610974
375,48736331,1686004594.6801429,0.3819178938865661,0.0,0.3918486833572387,0.5,-10.456480979919434,-10.39794635772705,-10.775083541870115,9.49,9.37,0.0,-9,-2,-20.0,-10.518144583890258,9.38685541610974
376,48788000,1686004594.6801429,0.3819178938865661,0.0,0.3918486833572387,0.5,-10.456480979919434,-10.39794635772705,-10.775083541870115,9.49,9.37,0.0,-9,-2,-20.0,-10.504968703649812,9.400031296350187
377,48836291,1686004594.7801027,0.4217058718204498,0.0,0.4001879096031189,0.5,-10.448472023010254,-10.391895294189451,-10.463302612304688,9.49,9.38,0.0,-8,-5,-20.0,-10.504968703649812,9.400031296350187
378,48890000,1686004594.7801027,0.4217058718204498,0.0,0.4001879096031189,0.5,-10.448472023010254,-10.391895294189451,-10.463302612304688,9.49,9.38,0.0,-8,-5,-20.0,-10.491585045828993,9.413414954171008
379,48936251,1686004594.8800628,0.4440776407718658,0.0,0.4337828755378723,0.5,-10.440101623535156,-10.385233879089355,-10.714747428894045,9.49,9.39,0.0,-7,-6,-20.0,-10.491585045828993,9.413414954171008
380,48991000,1686004594.8800628,0.4440776407718658,0.0,0.4337828755378723,0.5,-10.440101623535156,-10.385233879089355,-10.714747428894045,9.49,9.39,0.0,-7,-6,-20.0,-10.47849177709634,9.426508222903658
381,49036211,1686004594.980023,0.4635382890701294,0.0,0.4462489783763885,0.5,-10.431536674499512,-10.38413429260254,-10.534708976745604,9.49,9.41,0.0,-5,-6,-20.0,-10.47849177709634,9.426508222903658
382,49091000,1686004594.980023,0.4635382890701294,0.0,0.4462489783763885,0.5,-10.431536674499512,-10.38413429260254,-10.534708976745604,9.49,9.41,0.0,-5,-6,-20.0,-10.466414334319706,9.438585665680291
383,49136171,1686004595.079983,0.4840168058872223,0.0,0.4681568741798401,0.5,-10.42298984527588,-10.38129711151123,-10.788355827331545,9.49,9.41,0.0,-4,-5,-20.0,-10.466414334319706,9.438585665680291
384,49193000,1686004595.079983,0.4840168058872223,0.0,0.4681568741798401,0.5,-10.42298984527588,-10.38129711151123,-10.788355827331545,9.49,9.41,0.0,-4,-5,-20.0,-10.45415561922895,9.450844380771048
385,49236131,1686004595.1799428,0.5126120448112488,0.0,0.4821968972682953,0.5,-10.41455364227295,-10.385214805603027,-10.546220779418944,9.49,9.43,0.0,0,-4,-20.0,-10.45415561922895,9.450844380771048
386,49293000,1686004595.1799428,0.5126120448112488,0.0,0.4821968972682953,0.5,-10.41455364227295,-10.385214805603027,-10.546220779418944,9.49,9.43,0.0,0,-4,-20.0,-10.442002000163413,9.462997999836588
387,49336091,1686004595.2799027,0.569871723651886,0.0,0.526465892791748,0.5,-10.40634059906006,-10.385905265808104,-10.717615127563477,9.49,9.45,0.0,1,-3,-20.0,-10.442002000163413,9.462997999836588
388,49395000,1686004595.2799027,0.569871723651886,0.0,0.526465892791748,0.5,-10.40634059906006,-10.385905265808104,-10.717615127563477,9.49,9.45,0.0,1,-3,-20.0,-10.4296447669725,9.475355233027498
389,49436051,1686004595.3798628,0.5816192626953125,0.0,0.5553677082061768,0.5,-10.398517608642578,-10.388001441955566,-10.707334518432615,9.49,9.45,0.0,4,-2,-20.0,-10.4296447669725,9.475355233027498
390,49495000,1686004595.3798628,0.5816192626953125,0.0,0.5553677082061768,0.5,-10.398517608642578,-10.388001441955566,-10.707334518432615,9.49,9.45,0.0,4,-2,-20.0,-10.417417303494648,9.487582696505353
391,49536011,1686004595.4798229,0.5941148996353149,0.0,0.5741927027702332,0.5,-10.391148567199709,-10.391554832458496,-10.74347686767578,9.49,9.46,0.0,7,0,-20.0,-10.417417303494648,9.487582696505353
392,49596000,1686004595.4798229,0.5941148996353149,0.0,0.5741927027702332,0.5,-10.391148567199709,-10.391554832458496,-10.74347686767578,9.49,9.46,0.0,7,0,-20.0,-10.404286656252284,9.500713343747716
393,49636804,1686004595.580616,0.6015767455101013,0.0,0.5856422781944275,0.5,-10.384185791015623,-10.396684646606444,-10.624398231506348,9.49,9.49,0.0,10,2,-20.0,-10.404286656252284,9.500713343747716
394,49697000,1686004595.580616,0.6015767455101013,0.0,0.5856422781944275,0.5,-10.384185791015623,-10.396684646606444,-10.624398231506348,9.49,9.49,0.0,10,2,-20.0,-10.39170860841667,9.51329139158333
395,49736764,1686004595.6805758,0.5771372318267822,0.0,0.5815466642379761,0.5,-10.377854347229004,-10.394962310791016,-10.620444297790527,9.49,9.5,0.0,11,5,-20.0,-10.39170860841667,9.51329139158333
396,49798000,1686004595.6805758,0.5771372318267822,0.0,0.5815466642379761,0.5,-10.377854347229004,-10.394962310791016,-10.620444297790527,9.49,9.5,0.0,11,5,-20.0,-10.38844126083197,9.51655873916803
397,49836724,1686004595.780536,0.531563401222229,0.0,0.553072988986969,0.5,-10.372221946716309,-10.387003898620604,-10.69942569732666,9.49,9.5,0.0,9,8,-20.0,-10.38844126083197,9.51655873916803
398,49900000,1686004595.780536,0.531563401222229,0.0,0.553072988986969,0.5,-10.372221946716309,-10.387003898620604,-10.69942569732666,9.49,9.5,0.0,9,8,-20.0,-10.385120513030833,9.519879486969169
399,49936684,1686004595.8804955,0.4904975295066833,0.0,0.5129314661026001,0.5,-10.367291450500488,-10.37816047668457,-10.715869903564451,9.49,9.5,0.0,7,8,-20.0,-10.385120513030833,9.519879486969169
400,50000000,1686004595.8804955,0.4904975295066833,0.0,0.5129314661026001,0.5,-10.367291450500488,-10.37816047668457,-10.715869903564451,9.49,9.5,0.0,7,8,-20.0,-10.382232847511151,9.522767152488846
401,50036644,1686004595.9804559,0.452530562877655,0.0,0.473547875881195,0.5,-10.363018035888672,-10.372320175170898,-10.638834953308104,9.49,9.5,0.0,6,8,-20.0,-10.382232847511151,9.522767152488846
402,50100000,1686004595.9804559,0.452530562877655,0.0,0.473547875881195,0.5,-10.363018035888672,-10.372320175170898,-10.638834953308104,9.49,9.5,0.0,6,8,-20.0,-10.383972891717011,9.521027108282988
403,50136604,1686004596.080416,0.4425564706325531,0.0,0.4489505887031555,0.5,-10.359333038330078,-10.365897178649902,-10.43729019165039,9.49,9.5,0.0,5,8,-20.0,-10.383972891717011,9.521027108282988
404,50202000,1686004596.080416,0.4425564706325531,0.0,0.4489505887031555,0.5,-10.359333038330078,-10.365897178649902,-10.43729019165039,9.49,9.5,0.0,5,8,-20.0,-10.385842242776782,9.519157757223216
405,50236564,1686004596.1803758,0.4010626673698425,0.0,0.4275483787059784,0.5,-10.35617446899414,-10.351655006408691,-10.717913627624512,9.49,9.5,0.0,1,7,-20.0,-10.385842242776782,9.519157757223216
406,50302000,1686004596.1803758,0.4010626673698425,0.0,0.4275483787059784,0.5,-10.35617446899414,-10.351655006408691,-10.717913627624512,9.49,9.5,0.0,1,7,-20.0,-10.388962495304746,9.516037504695252
407,50336524,1686004596.280336,0.3892002701759338,0.0,0.3909888863563537,0.5,-10.353470802307127,-10.340164184570312,-10.477007865905762,9.49,9.5,0.0,-1,5,-20.0,-10.388962495304746,9.516037504695252
408,50404000,1686004596.280336,0.3892002701759338,0.0,0.3909888863563537,0.5,-10.353470802307127,-10.340164184570312,-10.477007865905762,9.49,9.5,0.0,-1,5,-20.0,-10.392135969114458,9.512864030885542
409,50436484,1686004596.380296,0.401422917842865,0.0,0.395805686712265,0.5,-10.351165771484377,-10.33037567138672,-10.48319149017334,9.49,9.5,0.0,-4,1,-20.0,-10.392135969114458,9.512864030885542
410,50505000,1686004596.380296,0.401422917842865,0.0,0.395805686712265,0.5,-10.351165771484377,-10.33037567138672,-10.48319149017334,9.49,9.5,0.0,-4,1,-20.0,-10.394620668473362,9.510379331526638
411,50536444,1686004596.4802558,0.3893763124942779,0.0,0.3923734128475189,0.5,-10.349199295043944,-10.31872272491455,-10.459827423095703,9.49,9.5,0.0,-7,0,-20.0,-10.394620668473362,9.510379331526638
412,50605000,1686004596.4802558,0.3893763124942779,0.0,0.3923734128475189,0.5,-10.349199295043944,-10.31872272491455,-10.459827423095703,9.49,9.5,0.0,-7,0,-20.0,-10.389482001009204,9.515517998990797
413,50636404,1686004596.580216,0.3763079643249511,0.0,0.3833229839801788,0.5,-10.347525596618652,-10.304920196533203,-10.76260757446289,9.49,9.5,0.0,-11,-3,-20.0,-10.389482001009204,9.515517998990797
414,50707000,1686004596.580216,0.3763079643249511,0.0,0.3833229839801788,0.5,-10.347525596618652,-10.304920196533203,-10.76260757446289,9.49,9.5,0.0,-11,-3,-20.0,-10.384229180076996,9.520770819923005
