,TimeUS,timestamp,ThI,ABst,ThO,ThH,DAlt,Alt,BAlt,DSAlt,SAlt,TAlt,DCRt,CRt,terrain_z,sub_z,rf
0,21737135,1685893232.680048,0.0,0.0,0.5,0.5,0.0,-0.2579719126224518,-0.2658968567848205,0.0,0.0,0.0,0,-6,,,
1,21837095,1685893232.780008,0.0,0.0,0.5,0.5,0.0,-0.26364266872406,-0.2933785021305084,0.0,0.0,0.0,0,-6,,,
2,21937055,1685893232.879968,0.0,0.0,0.5,0.5,0.0,-0.2708473801612854,-0.2759127914905548,0.0,0.0,0.0,0,-6,,,
3,22037015,1685893232.979928,0.0,0.0,0.5,0.5,0.0,-0.2782864272594452,-0.2580269575119018,0.0,0.0,0.0,0,-6,,,
4,22136975,1685893233.079888,0.0,0.0,0.5,0.5,0.0,-0.2843689918518066,-0.0099210776388645,0.0,0.0,0.0,0,-6,,,
5,22236935,1685893233.179848,0.0,0.0,0.5,0.5,0.0,-0.2796274721622467,-0.0980548486113548,0.0,0.0,0.0,0,-5,,,
6,22336895,1685893233.279808,0.0,0.0,0.5,0.5,0.0,-0.2645948529243469,-0.1995583474636078,0.0,0.0,0.0,0,-3,,,
7,22436855,1685893233.379768,0.0,0.0,0.5,0.5,0.0,-0.2486440241336822,-0.1471269130706787,0.0,0.0,0.0,0,-1,,,
8,22536815,1685893233.479728,0.0,0.0,0.4975000023841858,0.5,0.0,-0.2327009588479995,-0.3480644226074219,0.0,0.0,0.0,0,0,,,
9,22636775,1685893233.579688,0.0,0.0,0.3812499940395355,0.5,0.0,-0.2241640388965606,-0.2415441572666168,0.0,0.0,0.0,0,-2,,,
10,22736735,1685893233.679648,0.0,0.0,0.25,0.5,0.0,-0.2342535555362701,-0.120932713150978,0.0,0.0,0.0,0,-23,,,
11,22836695,1685893233.779608,0.0,0.0,0.25,0.5,0.0,-0.2610836923122406,-0.0839987248182296,0.0,0.0,0.0,0,-39,,,
12,22936655,1685893233.879568,0.0,0.0,0.25,0.5,0.0,-0.2938959300518036,-0.4853834509849548,0.0,0.0,0.0,0,-48,,,
13,23036615,1685893233.979528,0.0,0.0,0.25,0.5,0.0,-0.3417811989784241,-0.4423078894615173,0.0,0.0,0.0,0,-52,,,
14,23136575,1685893234.079488,0.0,0.0,0.25,0.5,0.0,-0.4030975997447967,-0.3177806138992309,0.0,0.0,0.0,0,-55,,,
15,23236535,1685893234.179448,0.0,0.0,0.25,0.5,0.0,-0.4641389846801758,-0.3355006277561188,0.0,0.0,0.0,0,-57,,,
16,23336495,1685893234.279408,0.0,0.0,0.25,0.5,0.0,-0.5185779333114624,-0.3461152613162994,0.0,0.0,0.0,0,-57,,,
17,23436455,1685893234.379368,0.0,0.0,0.25,0.5,0.0,-0.5658276677131653,-0.7504328489303589,0.0,0.0,0.0,0,-56,,,
18,23536415,1685893234.479328,0.0,0.0,0.25,0.5,0.0,-0.6234327554702759,-0.8277009129524231,0.0,0.0,0.0,0,-56,,,
19,23636375,1685893234.579288,0.0,0.0,0.25,0.5,0.0,-0.6941915154457092,-0.8303101062774658,0.0,0.0,0.0,0,-57,,,
20,23736335,1685893234.679248,0.0,0.0,0.25,0.5,0.0,-0.7717669010162354,-0.7530938982963562,0.0,0.0,0.0,0,-59,,,
21,23837128,1685893234.7800407,0.0,0.0,0.25,0.5,0.0,-0.8465657830238342,-0.8931704163551331,0.0,0.0,0.0,0,-60,,,
22,23937088,1685893234.880001,0.0,0.0,0.25,0.5,0.0,-0.9204861521720886,-0.9446141719818116,0.0,0.0,0.0,0,-61,,,
23,24037048,1685893234.9799612,0.0,0.0,0.25,0.5,0.0,-0.9936492443084716,-0.9995846748352052,0.0,0.0,0.0,0,-61,,,
24,24137008,1685893235.079921,0.0,0.0,0.25,0.5,0.0,-1.0656827688217163,-0.9163974523544312,0.0,0.0,0.0,0,-62,,,
25,24236968,1685893235.179881,0.0,0.0,0.25,0.5,0.0,-1.130787014961243,-1.0358322858810425,0.0,0.0,0.0,0,-62,,,
26,24336928,1685893235.2798407,0.0,0.0,0.25,0.5,0.0,-1.1894882917404177,-1.3702049255371094,0.0,0.0,0.0,0,-61,,,
27,24436888,1685893235.379801,0.0,0.0,0.25,0.5,0.0,-1.2580037117004397,-1.1195623874664309,0.0,0.0,0.0,0,-62,,,
28,24536848,1685893235.4797611,0.0,0.0,0.25,0.5,0.0,-1.3235732316970823,-1.3059254884719849,0.0,0.0,0.0,0,-62,,,
29,24636808,1685893235.5797207,0.0,0.0,0.25,0.5,0.0,-1.3865149021148682,-1.227723240852356,0.0,0.0,0.0,0,-62,,,
30,24736768,1685893235.679681,0.0,0.0,0.25,0.5,0.0,-1.445273518562317,-1.5054033994674685,0.0,0.0,0.0,0,-62,,,
31,24836728,1685893235.7796412,0.0,0.0,0.25,0.5,0.0,-1.505639910697937,-1.440626621246338,0.0,0.0,0.0,0,-61,,,
32,24936688,1685893235.879601,0.0,0.0,0.25,0.5,0.0,-1.567286491394043,-1.4346174001693726,0.0,0.0,0.0,0,-61,,,
33,25036648,1685893235.979561,0.0,0.0,0.25,0.5,0.0,-1.6238389015197754,-1.7943646907806396,0.0,0.0,0.0,0,-61,,,
34,25136608,1685893236.0795207,0.0,0.0,0.25,0.5,0.0,-1.6899250745773315,-1.7924139499664309,0.0,0.0,0.0,0,-61,,,
35,25236568,1685893236.179481,0.0,0.0,0.25,0.5,0.0,-1.7629395723342896,-1.64081871509552,0.0,0.0,0.0,0,-62,,,
36,25336528,1685893236.279441,0.0,0.0,0.25,0.5,0.0,-1.8322824239730835,-1.8941349983215328,0.0,0.0,0.0,0,-63,,,
37,25436488,1685893236.3794007,0.0,0.0,0.25,0.5,0.0,-1.901519775390625,-1.8830325603485107,0.0,0.0,0.0,0,-63,,,
38,25536448,1685893236.479361,0.0,0.0,0.25,0.5,0.0,-1.9715834856033323,-2.017287254333496,0.0,0.0,0.0,0,-64,,,
39,25636408,1685893236.5793211,0.0,0.0,0.25,0.5,0.0,-2.0431878566741943,-2.1192243099212646,0.0,0.0,0.0,0,-64,,,
40,25736368,1685893236.679281,0.0,0.0,0.25,0.5,0.0,-2.1198792457580566,-1.8721779584884644,0.0,0.0,0.0,0,-65,,,
41,25836328,1685893236.779241,0.0,0.0,0.25,0.5,0.0,-2.1847407817840576,-1.962118148803711,0.0,0.0,0.0,0,-65,,,
42,25937121,1685893236.880034,0.0,0.0,0.25,0.5,0.0,-2.2387712001800537,-2.3425748348236084,0.0,0.0,0.0,0,-64,,,
43,26037081,1685893236.979994,0.0,0.0,0.25,0.5,0.0,-2.2999658584594727,-2.285515785217285,0.0,0.0,0.0,0,-64,,,
44,26137041,1685893237.079954,0.0,0.0,0.25,0.5,0.0,-2.365065813064575,-2.285240650177002,0.0,0.0,0.0,0,-64,,,
45,26237001,1685893237.179914,0.0,0.0,0.25,0.5,0.0,-2.428997278213501,-2.2699170112609863,0.0,0.0,0.0,0,-64,,,
46,26336961,1685893237.279874,0.0,0.0,0.25,0.5,0.0,-2.487642526626587,-2.2328402996063232,0.0,0.0,0.0,0,-63,,,
47,26436921,1685893237.379834,0.0,0.0,0.25,0.5,0.0,-2.5370543003082275,-2.516873359680176,0.0,0.0,0.0,0,-62,,,
48,26536881,1685893237.479794,0.0,0.0,0.25,0.5,0.0,-2.586742401123047,-2.372464895248413,0.0,0.0,0.0,0,-61,,,
49,26636841,1685893237.579754,0.0,0.0,0.25,0.5,0.0,-2.6337883472442627,-2.733360290527344,0.0,0.0,0.0,0,-60,,,
50,26736801,1685893237.679714,0.0,0.0,0.25,0.5,0.0,-2.686945676803589,-2.648325204849243,0.0,0.0,0.0,0,-60,,,
51,26836761,1685893237.779674,0.0,0.0,0.25,0.5,0.0,-2.7452428340911865,-2.7352383136749268,0.0,0.0,0.0,0,-60,,,
52,26936721,1685893237.879634,0.0,0.0,0.25,0.5,0.0,-2.805082082748413,-2.6417179107666016,0.0,0.0,0.0,0,-60,,,
53,27036681,1685893237.979594,0.0,0.0,0.25,0.5,0.0,-2.8605797290802,-2.7194643020629883,0.0,0.0,0.0,0,-59,,,
54,27136641,1685893238.079554,0.0,0.0,0.25,0.5,0.0,-2.910489320755005,-2.7740895748138428,0.0,0.0,0.0,0,-58,,,
55,27236601,1685893238.179514,0.0,0.0,0.25,0.5,0.0,-2.956881284713745,-3.039335250854492,0.0,0.0,0.0,0,-57,,,
56,27336561,1685893238.279474,0.0,0.0,0.25,0.5,0.0,-3.009101867675781,-3.199275255203247,0.0,0.0,0.0,0,-57,,,
57,27436521,1685893238.379434,0.0,0.0,0.25,0.5,0.0,-3.0754666328430176,-3.0309414863586426,0.0,0.0,0.0,0,-58,,,
58,27536481,1685893238.479394,0.0,0.0,0.25,0.5,0.0,-3.1421337127685547,-3.0032382011413574,0.0,0.0,0.0,0,-58,,,
59,27636441,1685893238.579354,0.0,0.0,0.25,0.5,0.0,-3.2022018432617188,-3.2944157123565674,0.0,0.0,0.0,0,-58,,,
60,27736401,1685893238.679314,0.0,0.0,0.25,0.5,0.0,-3.2642316818237305,-3.283908605575561,0.0,0.0,0.0,0,-59,,,
61,27836361,1685893238.779274,0.0,0.0,0.25,0.5,0.0,-3.329765796661377,-3.2711775302886963,0.0,0.0,0.0,0,-59,,,
62,27936321,1685893238.879234,0.0,0.0,0.25,0.5,0.0,-3.393341064453125,-3.258599281311035,0.0,0.0,0.0,0,-59,,,
63,28037114,1685893238.9800267,0.0,0.0,0.25,0.5,0.0,-3.4505019187927246,-3.3408920764923096,0.0,0.0,0.0,0,-59,,,
64,28137074,1685893239.079987,0.0,0.0,0.25,0.5,0.0,-3.503098487854004,-3.348433494567871,0.0,0.0,0.0,0,-58,,,
65,28237034,1685893239.1799471,0.0,0.0,0.25,0.5,0.0,-3.55100154876709,-3.419560670852661,0.0,0.0,0.0,0,-57,,,
66,28336994,1685893239.2799067,0.0,0.0,0.25,0.5,0.0,-3.595798254013061,-3.454941749572754,0.0,0.0,0.0,0,-56,,,
67,28436954,1685893239.379867,0.0,0.0,0.25,0.5,0.0,-3.637994289398194,-3.5530779361724854,0.0,0.0,0.0,0,-55,,,
68,28536914,1685893239.4798272,0.0,0.0,0.25,0.5,0.0,-3.680479288101196,-3.666893243789673,0.0,0.0,0.0,0,-54,,,
69,28636874,1685893239.579787,0.0,0.0,0.25,0.5,0.0,-3.726910352706909,-3.728945255279541,0.0,0.0,0.0,0,-53,,,
70,28736834,1685893239.679747,0.0,0.0,0.25,0.5,0.0,-3.777132749557495,-4.06535005569458,0.0,0.0,0.0,0,-53,,,
71,28836794,1685893239.7797067,0.0,0.0,0.25,0.5,0.0,-3.841894388198853,-3.854431629180908,0.0,0.0,0.0,0,-54,,,
72,28936754,1685893239.879667,0.0,0.0,0.25,0.5,0.0,-3.9116463661193848,-4.033470153808594,0.0,0.0,0.0,0,-55,,,
73,29036714,1685893239.9796271,0.0,0.0,0.25,0.5,0.0,-3.98382306098938,-4.188239097595215,0.0,0.0,0.0,0,-56,,,
74,29136674,1685893240.0795867,0.0,0.0,0.25,0.5,0.0,-4.066357135772705,-3.980938196182251,0.0,0.0,0.0,0,-58,,,
75,29236634,1685893240.179547,0.0,0.0,0.25,0.5,0.0,-4.140810012817383,-4.372872352600098,0.0,0.0,0.0,0,-59,,,
76,29336594,1685893240.2795072,0.0,0.0,0.25,0.5,0.0,-4.220085144042969,-4.137538909912109,0.0,0.0,0.0,0,-61,,,
77,29436554,1685893240.379467,0.0,0.0,0.25,0.5,0.0,-4.2971673011779785,-4.410721302032471,0.0,0.0,0.0,0,-62,,,
78,29536514,1685893240.479427,0.0,0.0,0.25,0.5,0.0,-4.374092102050781,-4.207534313201904,0.0,0.0,0.0,0,-63,,,
79,29636474,1685893240.5793867,0.0,0.0,0.25,0.5,0.0,-4.44459342956543,-4.605236530303955,0.0,0.0,0.0,0,-63,,,
80,29736434,1685893240.679347,0.0,0.0,0.25,0.5,0.0,-4.517602920532227,-4.531810283660889,0.0,0.0,0.0,0,-64,,,
81,29836394,1685893240.7793071,0.0,0.0,0.25,0.5,0.0,-4.595180988311768,-4.702175617218018,0.0,0.0,0.0,0,-65,,,
82,29936354,1685893240.8792667,0.0,0.0,0.25,0.5,0.0,-4.675105094909668,-4.5408711433410645,0.0,0.0,0.0,0,-66,,,
83,30036314,1685893240.979227,0.0,0.0,0.25,0.5,0.0,-4.749321937561035,-4.738752365112305,0.0,0.0,0.0,0,-66,,,
84,30137107,1685893241.08002,0.0,0.0,0.25,0.5,0.0,-4.820663928985596,-4.743347644805908,0.0,0.0,0.0,0,-67,,,
85,30237067,1685893241.17998,0.0,0.0,0.25,0.5,0.0,-4.889125823974609,-4.792582035064697,0.0,0.0,0.0,0,-67,,,
86,30337027,1685893241.27994,0.0,0.0,0.25,0.5,0.0,-4.954395771026611,-4.7049241065979,0.0,0.0,0.0,0,-67,,,
87,30436987,1685893241.3799,0.0,0.0,0.25,0.5,0.0,-5.0103020668029785,-5.044873237609863,0.0,0.0,0.0,0,-66,,,
88,30536947,1685893241.47986,0.0,0.0,0.25,0.5,0.0,-5.070141792297363,-4.909324645996094,0.0,0.0,0.0,0,-65,,,
89,30636907,1685893241.57982,0.0,0.0,0.25,0.5,0.0,-5.127736568450928,-5.140624046325684,0.0,0.0,0.0,0,-65,,,
90,30736867,1685893241.67978,0.0,0.0,0.25,0.5,0.0,-5.188822746276856,-4.944218158721924,0.0,0.0,0.0,0,-65,,,
91,30836827,1685893241.77974,0.0,0.0,0.25,0.5,0.0,-5.242942333221436,-5.351886749267578,0.0,0.0,0.0,0,-64,,,
92,30936787,1685893241.8797,0.0,0.0,0.25,0.5,0.0,-5.305014133453369,-5.340546131134033,0.0,0.0,0.0,0,-64,,,
93,31036747,1685893241.97966,0.0,0.0,0.25,0.5,0.0,-5.373271465301514,-5.433815956115723,0.0,0.0,0.0,0,-64,,,
94,31136707,1685893242.07962,0.0,0.0,0.25,0.5,0.0,-5.445748329162598,-5.2444987297058105,0.0,0.0,0.0,0,-65,,,
95,31236667,1685893242.17958,0.0,0.0,0.25,0.5,0.0,-5.512180805206299,-5.589303970336914,0.0,0.0,0.0,0,-65,,,
96,31336627,1685893242.27954,0.0,0.0,0.25,0.5,0.0,-5.57959508895874,-5.393929481506348,0.0,0.0,0.0,0,-65,,,
97,31436587,1685893242.3795,0.0,0.0,0.25,0.5,0.0,-5.64343786239624,-5.719171524047852,0.0,0.0,0.0,0,-65,,,
98,31536547,1685893242.47946,0.0,0.0,0.25,0.5,0.0,-5.709359169006348,-5.645905017852783,0.0,0.0,0.0,0,-65,,,
99,31636507,1685893242.57942,0.0,0.0,0.25,0.5,0.0,-5.776969909667969,-5.6919426918029785,0.0,0.0,0.0,0,-66,,,
100,31736467,1685893242.67938,0.0,0.0,0.25,0.5,0.0,-5.841733932495117,-5.872701644897461,0.0,0.0,0.0,0,-65,,,
101,31836427,1685893242.77934,0.0,0.0,0.25,0.5,0.0,-5.909029483795166,-5.968154430389404,0.0,0.0,0.0,0,-66,,,
102,31936387,1685893242.8793,0.0,0.0,0.25,0.5,0.0,-5.981347560882568,-5.950415134429932,0.0,0.0,0.0,0,-66,,,
103,32036347,1685893242.97926,0.0,0.0,0.25,0.5,0.0,-6.054449558258057,-5.998514652252197,0.0,0.0,0.0,0,-67,,,
104,32137140,1685893243.080053,0.0,0.0,0.25,0.5,0.0,-6.125360488891602,-6.056242942810059,0.0,0.0,0.0,0,-67,,,
105,32237100,1685893243.1800127,0.0,0.0,0.25,0.5,0.0,-6.193757057189941,-5.875533103942871,0.0,0.0,0.0,0,-67,,,
106,32337060,1685893243.279973,0.0,0.0,0.25,0.5,0.0,-6.248955726623535,-6.1783952713012695,0.0,0.0,0.0,0,-66,,,
107,32437020,1685893243.379933,0.0,0.0,0.25,0.5,0.0,-6.302656650543213,-6.233125686645508,0.0,0.0,0.0,0,-65,,,
108,32536980,1685893243.4798927,0.0,0.0,0.25,0.5,0.0,-6.358527660369873,-6.384071350097656,0.0,0.0,0.0,0,-65,,,
109,32636940,1685893243.579853,0.0,0.0,0.25,0.5,0.0,-6.420131683349609,-6.218060493469238,0.0,0.0,0.0,0,-64,,,
110,32736900,1685893243.6798131,0.0,0.0,0.25,0.5,0.0,-6.47556209564209,-6.223910331726074,0.0,0.0,0.0,0,-64,,,
111,32836860,1685893243.779773,0.0,0.0,0.25,0.5,0.0,-6.522980690002441,-6.283675670623779,0.0,0.0,0.0,0,-62,,,
112,32936820,1685893243.879733,0.0,0.0,0.25,0.5,0.0,-6.563175678253174,-6.464702606201172,0.0,0.0,0.0,0,-61,,,
113,33036780,1685893243.9796932,0.0,0.0,0.25,0.5,0.0,-6.604821681976318,-6.658803462982178,0.0,0.0,0.0,0,-59,,,
114,33136740,1685893244.079653,0.0,0.0,0.25,0.5,0.0,-6.655093193054199,-6.570904731750488,0.0,0.0,0.0,0,-59,,,
115,33236700,1685893244.179613,0.0,0.0,0.25,0.5,0.0,-6.70739221572876,-6.868012428283691,0.0,0.0,0.0,0,-58,,,
116,33336660,1685893244.2795727,0.0,0.0,0.25,0.5,0.0,-6.77015495300293,-6.899710655212402,0.0,0.0,0.0,0,-59,,,
117,33436620,1685893244.379533,0.0,0.0,0.25,0.5,0.0,-6.842220306396484,-6.95319414138794,0.0,0.0,0.0,0,-60,,,
118,33536580,1685893244.4794931,0.0,0.0,0.25,0.5,0.0,-6.918888568878174,-6.666322708129883,0.0,0.0,0.0,0,-61,,,
119,33636540,1685893244.5794528,0.0,0.0,0.25,0.5,0.0,-6.985509872436523,-6.960494995117188,0.0,0.0,0.0,0,-61,,,
120,33736500,1685893244.679413,0.0,0.0,0.25,0.5,0.0,-7.046243190765381,-7.02663516998291,0.0,0.0,0.0,0,-61,,,
121,33836460,1685893244.7793732,0.0,0.0,0.25,0.5,0.0,-7.107862949371338,-6.996641635894775,0.0,0.0,0.0,0,-61,,,
122,33936420,1685893244.879333,0.0,0.0,0.25,0.5,0.0,-7.166709899902344,-6.933669567108154,0.0,0.0,0.0,0,-61,,,
123,34036380,1685893244.979293,0.0,0.0,0.25,0.5,0.0,-7.21529483795166,-7.273205280303955,0.0,0.0,0.0,0,-60,,,
124,34136340,1685893245.0792527,0.0,0.0,0.25,0.5,0.0,-7.269254684448242,-7.2034430503845215,0.0,0.0,0.0,0,-59,,,
125,34237133,1685893245.180046,0.0,0.0,0.25,0.5,0.0,-7.324467182159424,-7.189213275909424,0.0,0.0,0.0,0,-59,,,
126,34337093,1685893245.280006,0.0,0.0,0.25,0.5,0.0,-7.376136779785156,-7.350511074066162,0.0,0.0,0.0,0,-58,,,
127,34437053,1685893245.379966,0.0,0.0,0.25,0.5,0.0,-7.4289870262146,-7.22686767578125,0.0,0.0,0.0,0,-58,,,
128,34537013,1685893245.479926,0.0,0.0,0.25,0.5,0.0,-7.476068019866943,-7.496011734008789,0.0,0.0,0.0,0,-57,,,
129,34636973,1685893245.579886,0.0,0.0,0.25,0.5,0.0,-7.526415824890137,-7.346287250518799,0.0,0.0,0.0,0,-56,,,
130,34736933,1685893245.679846,0.0,0.0,0.25,0.5,0.0,-7.572852611541748,-7.571427822113037,0.0,0.0,0.0,0,-55,,,
131,34836893,1685893245.779806,0.0,0.0,0.25,0.5,0.0,-7.62162446975708,-7.560673713684082,0.0,0.0,0.0,0,-55,,,
132,34936853,1685893245.879766,0.0,0.0,0.25,0.5,0.0,-7.67158317565918,-7.576132774353027,0.0,0.0,0.0,0,-54,,,
133,35036813,1685893245.979726,0.0,0.0,0.25,0.5,0.0,-7.719794750213623,-7.923564434051514,0.0,0.0,0.0,0,-54,,,
134,35136773,1685893246.079686,0.0,0.0,0.25,0.5,0.0,-7.781306743621826,-7.898468494415283,0.0,0.0,0.0,0,-54,,,
135,35236733,1685893246.179646,0.0,0.0,0.25,0.5,0.0,-7.849420547485352,-7.985231876373291,0.0,0.0,0.0,0,-55,,,
136,35336693,1685893246.279606,0.0,0.0,0.25,0.5,0.0,-7.92341947555542,-8.115358352661133,0.0,0.0,0.0,0,-57,,,
137,35436653,1685893246.379566,0.0,0.0,0.25,0.5,0.0,-8.004790306091309,-8.037869453430176,0.0,0.0,0.0,0,-59,,,
138,35536613,1685893246.479526,0.0,0.0,0.25,0.5,0.0,-8.085375785827637,-7.888937473297119,0.0,0.0,0.0,0,-60,,,
139,35636573,1685893246.579486,0.0,0.0,0.25,0.5,0.0,-8.15316104888916,-8.058737754821777,0.0,0.0,0.0,0,-60,,,
140,35736533,1685893246.679446,0.0,0.0,0.25,0.5,0.0,-8.213547706604004,-8.345091819763184,0.0,0.0,0.0,0,-60,,,
141,35836493,1685893246.779406,0.0,0.0,0.25,0.5,0.0,-8.28049373626709,-8.136905670166016,0.0,0.0,0.0,0,-60,,,
142,35936453,1685893246.879366,0.0,0.0,0.25,0.5,0.0,-8.343708038330078,-8.178679466247559,0.0,0.0,0.0,0,-60,,,
143,36036413,1685893246.979326,0.0,0.0,0.25,0.5,0.0,-8.398816108703613,-8.520466804504395,0.0,0.0,0.0,0,-60,,,
144,36136373,1685893247.079286,0.0,0.0,0.25,0.5,0.0,-8.458815574645996,-8.50942325592041,0.0,0.0,0.0,0,-60,,,
145,36236333,1685893247.179246,0.0,0.0,0.25,0.5,0.0,-8.52562141418457,-8.611929893493652,0.0,0.0,0.0,0,-60,,,
146,36337126,1685893247.280039,0.0,0.0,0.25,0.5,0.0,-8.598628997802734,-8.649616241455078,0.0,0.0,0.0,0,-61,,,
147,36437086,1685893247.3799992,0.0,0.0,0.25,0.5,0.0,-8.673301696777344,-8.496236801147461,0.0,0.0,0.0,0,-62,,,
148,36537046,1685893247.479959,0.0,0.0,0.25,0.5,0.0,-8.74020004272461,-8.80552864074707,0.0,0.0,0.0,0,-63,,,
149,36637006,1685893247.579919,0.0,0.0,0.25,0.5,0.0,-8.806681632995605,-8.738389015197754,0.0,0.0,0.0,0,-63,,,
150,36736966,1685893247.6798787,0.0,0.0,0.25,0.5,0.0,-8.872946739196777,-8.996644973754883,0.0,0.0,0.0,0,-63,,,
151,36836926,1685893247.779839,0.0,0.0,0.25,0.5,0.0,-8.944967269897461,-8.963349342346191,0.0,0.0,0.0,0,-64,,,
152,36936886,1685893247.8797991,0.0,0.0,0.25,0.5,0.0,-9.01913356781006,-8.835616111755371,0.0,0.0,0.0,0,-65,,,
153,37036846,1685893247.9797587,0.0,0.0,0.25,0.5,0.0,-9.085003852844238,-9.057580947875977,0.0,0.0,0.0,0,-65,,,
154,37136806,1685893248.079719,0.0,0.0,0.25,0.5,0.0,-9.14992904663086,-8.915064811706543,0.0,0.0,0.0,0,-64,,,
155,37236766,1685893248.1796792,0.0,0.0,0.25,0.5,0.0,-9.206047058105469,-9.015388488769531,0.0,0.0,0.0,0,-64,,,
156,37336726,1685893248.279639,0.0,0.0,0.25,0.5,0.0,-9.25528621673584,-9.18125057220459,0.0,0.0,0.0,0,-63,,,
157,37436686,1685893248.379599,0.0,0.0,0.25,0.5,0.0,-9.305289268493652,-9.425592422485352,0.0,0.0,0.0,0,-62,,,
158,37536646,1685893248.4795587,0.0,0.0,0.25,0.5,0.0,-9.366300582885742,-9.233296394348145,0.0,0.0,0.0,0,-62,,,
159,37636606,1685893248.579519,0.0,0.0,0.25,0.5,0.0,-9.42551040649414,-9.557143211364746,0.0,0.0,0.0,0,-62,,,
160,37736566,1685893248.6794791,0.0,0.0,0.25,0.5,0.0,-9.492165565490724,-9.4208984375,0.0,0.0,0.0,0,-62,,,
161,37836526,1685893248.7794387,0.0,0.0,0.25,0.5,0.0,-9.55866813659668,-9.608213424682615,0.0,0.0,0.0,0,-62,,,
162,37936486,1685893248.879399,0.0,0.0,0.25,0.5,0.0,-9.62781810760498,-9.67572021484375,0.0,0.0,0.0,0,-63,,,
163,38036446,1685893248.9793591,0.0,0.0,0.25,0.5,0.0,-9.70053768157959,-9.471067428588867,0.0,0.0,0.0,0,-64,,,
164,38136406,1685893249.079319,0.0,0.0,0.25,0.5,0.0,-9.76329231262207,-9.710143089294434,0.0,0.0,0.0,0,-64,,,
165,38236366,1685893249.179279,0.0,0.0,0.25,0.5,0.0,-9.823206901550291,-9.714659690856934,0.0,0.0,0.0,0,-63,,,
166,38336326,1685893249.2792387,0.0,0.0,0.25,0.5,0.0,-9.881243705749512,-9.781246185302734,0.0,0.0,0.0,0,-63,,,
167,38437119,1685893249.380032,0.0,0.0,0.25,0.5,0.0,-9.936138153076172,-9.98562240600586,0.0,0.0,0.0,0,-62,,,
168,38537079,1685893249.479992,0.0,0.0,0.5,0.5,0.0,-9.99485206604004,-10.013827323913574,0.0,0.0,0.0,0,-53,,,
169,38637039,1685893249.579952,0.0,0.0,0.5,0.5,0.0,-10.04288387298584,-10.154065132141112,0.0,0.0,0.0,0,-40,,,
170,38736999,1685893249.679912,0.0,0.0,0.5,0.5,0.0,-10.08646297454834,-10.084576606750488,0.0,0.0,0.0,0,-32,,,
171,38836959,1685893249.779872,0.0,0.0,0.5,0.5,0.0,-10.1249361038208,-9.853903770446776,0.0,0.0,0.0,0,-28,,,
172,38936919,1685893249.879832,0.0,0.0,0.5,0.5,0.0,-10.146960258483888,-10.068602561950684,0.0,0.0,0.0,0,-23,,,
173,39036879,1685893249.979792,0.0,0.0,0.5,0.5,0.0,-10.158778190612791,-10.238386154174805,0.0,0.0,0.0,0,-20,,,
174,39136839,1685893250.079752,0.0,0.0,0.5,0.5,0.0,-10.173095703125,-10.16522216796875,0.0,0.0,0.0,0,-17,,,
175,39236799,1685893250.179712,0.0,0.0,0.5,0.5,0.0,-10.188822746276855,-10.261472702026367,0.0,0.0,0.0,0,-15,,,
176,39336759,1685893250.279672,0.0,0.0,0.5,0.5,0.0,-10.206731796264648,-10.31179428100586,0.0,0.0,0.0,0,-14,,,
177,39436719,1685893250.379632,0.0,0.0,0.5,0.5,0.0,-10.228652954101562,-10.166465759277344,0.0,0.0,0.0,0,-13,,,
178,39536679,1685893250.479592,0.0,0.0,0.5,0.5,0.0,-10.246217727661133,-10.088350296020508,0.0,0.0,0.0,0,-12,,,
179,39636639,1685893250.579552,0.0,0.0,0.5,0.5,0.0,-10.253872871398926,-10.16793727874756,0.0,0.0,0.0,0,-11,,,
180,39736599,1685893250.679512,0.0,0.0,0.5,0.5,0.0,-10.256070137023926,-10.224881172180176,0.0,0.0,0.0,0,-9,,,
181,39836559,1685893250.779472,0.0,0.0,0.5,0.5,0.0,-10.25749969482422,-10.035523414611816,0.0,0.0,0.0,0,-8,,,
182,39936519,1685893250.879432,0.0,0.0,0.5,0.5,0.0,-10.248218536376951,-10.360718727111816,0.0,0.0,0.0,0,-5,,,
183,40036479,1685893250.979392,0.0,0.0,0.5,0.5,0.0,-10.247055053710938,-10.207819938659668,0.0,0.0,0.0,0,-4,,,
184,40136439,1685893251.079352,0.0,0.0,0.5,0.5,0.0,-10.247172355651855,-10.157272338867188,0.0,0.0,0.0,0,-3,,,
185,40236399,1685893251.179312,0.0,0.0,0.5,0.5,0.0,-10.243452072143556,-10.281767845153809,0.0,0.0,0.0,0,-2,,,
186,40336359,1685893251.279272,0.0,0.0,0.5,0.5,0.0,-10.241731643676758,-10.009614944458008,0.0,0.0,0.0,0,-1,,,
187,40436319,1685893251.379232,0.0,0.0,0.5,0.5,0.0,-10.230536460876465,-10.136652946472168,0.0,0.0,0.0,0,0,,,
188,40537112,1685893251.480025,0.0,0.0,0.5,0.5,0.0,-10.214756965637209,-10.10622215270996,0.0,0.0,0.0,0,1,,,
189,40637072,1685893251.5799851,0.0,0.0,0.5,0.5,0.0,-10.196401596069336,-10.220619201660156,0.0,0.0,0.0,0,3,,,
190,40737032,1685893251.6799448,0.0,0.0,0.5,0.5,0.0,-10.18110466003418,-10.038166999816896,0.0,0.0,0.0,0,5,,,
191,40836992,1685893251.779905,0.0,0.0,0.5,0.5,0.0,-10.163249015808104,-10.33936595916748,0.0,0.0,0.0,0,6,,,
192,40936952,1685893251.8798652,0.0,0.0,0.5,0.5,0.0,-10.151917457580566,-10.25247573852539,0.0,0.0,0.0,0,7,,,
193,41036912,1685893251.979825,0.0,0.0,0.5,0.5,0.0,-10.149365425109863,-10.14792537689209,0.0,0.0,0.0,0,7,,,
194,41136872,1685893252.079785,0.0,0.0,0.5,0.5,0.0,-10.145634651184082,-10.340150833129885,0.0,0.0,0.0,0,8,,,
195,41236832,1685893252.1797447,0.0,0.0,0.5,0.5,0.0,-10.147253036499023,-10.233410835266112,0.0,0.0,0.0,0,7,,,
196,41336792,1685893252.279705,0.0,0.0,0.5,0.5,0.0,-10.152344703674316,-10.392449378967283,0.0,0.0,0.0,0,7,,,
197,41436752,1685893252.3796651,0.4091601073741913,0.0,0.4213340282440185,0.5,-10.148360252380373,-10.163816452026367,-10.11672306060791,0.0,0.0,0.0,10,5,,,
198,41536712,1685893252.4796247,0.536713719367981,0.0,0.4786694049835205,0.5,-10.143446922302246,-10.17345905303955,-10.098654747009276,0.0,0.0,0.0,12,4,,,
199,41636672,1685893252.579585,0.5779402256011963,0.0,0.5427020192146301,0.5,-10.14015769958496,-10.174211502075195,-10.318313598632812,0.0,0.0,0.0,12,4,,,
200,41736632,1685893252.6795452,0.5631263256072998,0.0,0.5573703646659851,0.5,-10.13795566558838,-10.1766996383667,-10.135190963745115,0.0,0.0,0.0,13,5,,,
201,41836592,1685893252.779505,0.5493710041046143,0.0,0.5586899518966675,0.5,-10.136483192443848,-10.17464542388916,-10.239447593688965,0.0,0.0,0.0,12,7,,,
202,41936552,1685893252.879465,0.5250589847564697,0.0,0.5403261184692383,0.5,-10.135498046875,-10.171499252319336,-10.253288269042969,0.0,0.0,0.0,11,8,,,
203,42036512,1685893252.9794247,0.528434157371521,0.0,0.5282205939292908,0.5,-10.134839057922363,-10.170140266418455,-10.135533332824709,0.0,0.0,0.0,11,8,,,
204,42116000,1685893252.9794247,0.528434157371521,0.0,0.5282205939292908,0.5,-10.134839057922363,-10.170140266418455,-10.135533332824709,0.0,0.0,0.0,11,8,-20.0,-10.152764371092518,9.75223562890748
205,42136472,1685893253.079385,0.5207496881484985,0.0,0.5274797677993774,0.5,-10.134398460388184,-10.165604591369627,-10.09727954864502,0.0,9.74,0.0,9,8,-20.0,-10.152764371092518,9.75223562890748
206,42218000,1685893253.079385,0.5207496881484985,0.0,0.5274797677993774,0.5,-10.134398460388184,-10.165604591369627,-10.09727954864502,0.0,9.74,0.0,9,8,-20.0,-10.159012595146832,9.745987404853167
207,42236432,1685893253.1793451,0.4682172536849975,0.0,0.5042315125465393,0.5,-10.134103775024414,-10.155829429626465,-10.216687202453612,0.0,9.72,0.0,6,8,-20.0,-10.159012595146832,9.745987404853167
208,42319000,1685893253.1793451,0.4682172536849975,0.0,0.5042315125465393,0.5,-10.134103775024414,-10.155829429626465,-10.216687202453612,0.0,9.72,0.0,6,8,-20.0,-10.167498495330909,9.73750150466909
209,42336392,1685893253.2793047,0.4081476628780365,0.0,0.4483003914356231,0.5,-10.133906364440918,-10.147860527038574,-10.327003479003906,0.0,9.71,0.0,4,8,-20.0,-10.167498495330909,9.73750150466909
210,42424000,1685893253.2793047,0.4081476628780365,0.0,0.4483003914356231,0.5,-10.133906364440918,-10.147860527038574,-10.327003479003906,0.0,9.71,0.0,4,8,-20.0,-10.174933666355102,9.730066333644896
211,42436352,1685893253.379265,0.4412915110588074,0.0,0.4278049767017364,0.5,-10.133773803710938,-10.148927688598633,-10.17064380645752,0.0,9.71,0.0,4,6,-20.0,-10.174933666355102,9.730066333644896
212,42525000,1685893253.379265,0.4412915110588074,0.0,0.4278049767017364,0.5,-10.133773803710938,-10.148927688598633,-10.17064380645752,0.0,9.71,0.0,4,6,-20.0,-10.174342446095832,9.730657553904166
213,42536312,1685893253.4792252,0.4845303297042846,0.0,0.4575695693492889,0.5,-10.133686065673828,-10.152222633361816,-9.983789443969728,0.0,9.71,0.0,5,4,-20.0,-10.174342446095832,9.730657553904166
214,42635000,1685893253.4792252,0.4845303297042846,0.0,0.4575695693492889,0.5,-10.133686065673828,-10.152222633361816,-9.983789443969728,0.0,9.71,0.0,5,4,-20.0,-10.17369534616951,9.73130465383049
215,42637105,1685893253.580018,0.4623052477836609,0.0,0.4743547439575195,0.5,-10.133626937866213,-10.145944595336914,-10.095566749572754,0.0,9.71,0.0,3,4,-20.0,-10.17369534616951,9.73130465383049
216,42735000,1685893253.580018,0.4623052477836609,0.0,0.4743547439575195,0.5,-10.133626937866213,-10.145944595336914,-10.095566749572754,0.0,9.71,0.0,3,4,-20.0,-10.171766880485958,9.733233119514042
217,42737065,1685893253.679978,0.4011401832103729,0.0,0.4387466311454773,0.5,-10.133586883544922,-10.135149002075195,-10.15560531616211,0.0,9.71,0.0,0,5,-20.0,-10.171766880485958,9.733233119514042
218,42836000,1685893253.679978,0.4011401832103729,0.0,0.4387466311454773,0.5,-10.133586883544922,-10.135149002075195,-10.15560531616211,0.0,9.71,0.0,0,5,-20.0,-10.169182161730468,9.735817838269533
219,42837025,1685893253.779938,0.3933809399604797,0.0,0.4041603207588196,0.5,-10.133562088012695,-10.12688159942627,-10.073578834533691,0.0,9.71,0.0,-1,3,-20.0,-10.169182161730468,9.735817838269533
220,42936985,1685893253.879898,0.4082996845245361,0.0,0.4041255414485931,0.5,-10.133537292480469,-10.12082290649414,-10.03894329071045,0.0,9.71,0.0,-3,0,-20.0,-10.169182161730468,9.735817838269533
221,42940000,1685893253.879898,0.4082996845245361,0.0,0.4041255414485931,0.5,-10.133537292480469,-10.12082290649414,-10.03894329071045,0.0,9.71,0.0,-3,0,-20.0,-10.165487617579076,9.739512382420925
222,43036945,1685893253.979858,0.409422904253006,0.0,0.4090287387371063,0.5,-10.133527755737305,-10.11466121673584,-10.306941032409668,0.0,9.71,0.0,-5,-1,-20.0,-10.165487617579076,9.739512382420925
223,43040000,1685893253.979858,0.409422904253006,0.0,0.4090287387371063,0.5,-10.133527755737305,-10.11466121673584,-10.306941032409668,0.0,9.71,0.0,-5,-1,-20.0,-10.158658470772073,9.746341529227928
224,43136905,1685893254.079818,0.4476214349269867,0.0,0.4184664785861969,0.5,-10.133527755737305,-10.118809700012209,-9.959049224853516,0.0,9.72,0.0,-4,-4,-20.0,-10.158658470772073,9.746341529227928
225,43142000,1685893254.079818,0.4476214349269867,0.0,0.4184664785861969,0.5,-10.133527755737305,-10.118809700012209,-9.959049224853516,0.0,9.72,0.0,-4,-4,-20.0,-10.151737693841742,9.753262306158256
226,43236865,1685893254.179778,0.4813592433929443,0.0,0.4597645998001098,0.5,-10.133527755737305,-10.122396469116213,-9.923480987548828,0.0,9.74,0.0,-3,-4,-20.0,-10.151737693841742,9.753262306158256
227,43243000,1685893254.179778,0.4813592433929443,0.0,0.4597645998001098,0.5,-10.133527755737305,-10.122396469116213,-9.923480987548828,0.0,9.74,0.0,-3,-4,-20.0,-10.146540912804586,9.758459087195414
228,43336825,1685893254.279738,0.4340577125549316,0.0,0.4601621329784393,0.5,-10.133527755737305,-10.11553955078125,-9.966503143310549,0.0,9.74,0.0,-5,-3,-20.0,-10.146540912804586,9.758459087195414
229,43343000,1685893254.279738,0.4340577125549316,0.0,0.4601621329784393,0.5,-10.133527755737305,-10.11553955078125,-9.966503143310549,0.0,9.74,0.0,-5,-3,-20.0,-10.147576096646642,9.757423903353358
230,43436785,1685893254.379698,0.3569676876068115,0.0,0.4085814952850342,0.5,-10.133527755737305,-10.10023307800293,-10.155062675476074,0.0,9.74,0.0,-9,-2,-20.0,-10.147576096646642,9.757423903353358
231,43445000,1685893254.379698,0.3569676876068115,0.0,0.4085814952850342,0.5,-10.133527755737305,-10.10023307800293,-10.155062675476074,0.0,9.74,0.0,-9,-2,-20.0,-10.147487885864631,9.757512114135368
232,43536745,1685893254.479658,0.3853967189788818,0.0,0.3777107894420624,0.5,-10.133527755737305,-10.094451904296877,-10.145123481750488,0.0,9.74,0.0,-11,-5,-20.0,-10.147487885864631,9.757512114135368
233,43545000,1685893254.479658,0.3853967189788818,0.0,0.3777107894420624,0.5,-10.133527755737305,-10.094451904296877,-10.145123481750488,0.0,9.74,0.0,-11,-5,-20.0,-10.140024518772202,9.764975481227795
234,43636705,1685893254.579618,0.4507335126399994,0.0,0.4029483795166015,0.5,-10.098990440368652,-10.098580360412598,-10.001510620117188,9.72,9.75,0.0,-9,-9,-20.0,-10.140024518772202,9.764975481227795
235,43647000,1685893254.579618,0.4507335126399994,0.0,0.4029483795166015,0.5,-10.098990440368652,-10.098580360412598,-10.001510620117188,9.72,9.75,0.0,-9,-9,-20.0,-10.132448238618366,9.772551761381632
236,43736665,1685893254.679578,0.5006781220436096,0.0,0.4770773351192474,0.5,-10.107566833496094,-10.10330581665039,-10.125971794128418,9.72,9.75,0.0,-8,-8,-20.0,-10.132448238618366,9.772551761381632
237,43748000,1685893254.679578,0.5006781220436096,0.0,0.4770773351192474,0.5,-10.107566833496094,-10.10330581665039,-10.125971794128418,9.72,9.75,0.0,-8,-8,-20.0,-10.125222118003617,9.779777881996385
238,43836625,1685893254.779538,0.4694882929325104,0.0,0.4780443012714386,0.5,-10.113604545593262,-10.107335090637209,-10.273225784301758,9.72,9.75,0.0,-6,-6,-20.0,-10.125222118003617,9.779777881996385
239,43848000,1685893254.779538,0.4694882929325104,0.0,0.4780443012714386,0.5,-10.113604545593262,-10.107335090637209,-10.273225784301758,9.72,9.75,0.0,-6,-6,-20.0,-10.120539254721749,9.784460745278253
240,43936585,1685893254.879498,0.4866933524608612,0.0,0.4721401631832123,0.5,-10.11781406402588,-10.118124961853027,-10.1749849319458,9.72,9.76,0.0,-3,-5,-20.0,-10.120539254721749,9.784460745278253
241,43953000,1685893254.879498,0.4866933524608612,0.0,0.4721401631832123,0.5,-10.11781406402588,-10.118124961853027,-10.1749849319458,9.72,9.76,0.0,-3,-5,-20.0,-10.116034648697706,9.788965351302291
242,44036545,1685893254.979458,0.5609143972396851,0.0,0.5109562277793884,0.5,-10.120885848999023,-10.132221221923828,-10.37196159362793,9.72,9.76,0.0,0,-5,-20.0,-10.116034648697706,9.788965351302291
243,44054000,1685893254.979458,0.5609143972396851,0.0,0.5109562277793884,0.5,-10.120885848999023,-10.132221221923828,-10.37196159362793,9.72,9.76,0.0,0,-5,-20.0,-10.11494154844593,9.790058451554067
244,44136505,1685893255.079418,0.6511956453323364,0.0,0.5838969945907593,0.5,-10.123286247253418,-10.155121803283691,-10.125246047973633,9.72,9.77,0.0,7,-4,-20.0,-10.11494154844593,9.790058451554067
245,44160000,1685893255.079418,0.6511956453323364,0.0,0.5838969945907593,0.5,-10.123286247253418,-10.155121803283691,-10.125246047973633,9.72,9.77,0.0,7,-4,-20.0,-10.113789190542638,9.79121080945736
246,44236465,1685893255.179378,0.626535177230835,0.0,0.628915548324585,0.5,-10.125332832336426,-10.170324325561523,-10.045906066894531,9.72,9.77,0.0,11,0,-20.0,-10.113789190542638,9.79121080945736
247,44261000,1685893255.179378,0.626535177230835,0.0,0.628915548324585,0.5,-10.125332832336426,-10.170324325561523,-10.045906066894531,9.72,9.77,0.0,11,0,-20.0,-10.111560695267304,9.793439304732695
248,44336425,1685893255.279338,0.5564751029014587,0.0,0.5992112159729004,0.5,-10.127236366271973,-10.169316291809082,-10.238676071166992,9.72,9.77,0.0,10,6,-20.0,-10.111560695267304,9.793439304732695
249,44364000,1685893255.279338,0.5564751029014587,0.0,0.5992112159729004,0.5,-10.127236366271973,-10.169316291809082,-10.238676071166992,9.72,9.77,0.0,10,6,-20.0,-10.10308729161925,9.80191270838075
250,44436385,1685893255.379298,0.5021913647651672,0.0,0.5439394116401672,0.5,-10.129131317138672,-10.164284706115724,-10.069929122924805,9.72,9.79,0.0,8,8,-20.0,-10.10308729161925,9.80191270838075
251,44467000,1685893255.379298,0.5021913647651672,0.0,0.5439394116401672,0.5,-10.129131317138672,-10.164284706115724,-10.069929122924805,9.72,9.79,0.0,8,8,-20.0,-10.09712268229065,9.80787731770935
252,44536345,1685893255.479258,0.4281550645828247,0.0,0.4890736639499664,0.5,-10.131141662597656,-10.153570175170898,-10.036419868469238,9.72,9.79,0.0,4,9,-20.0,-10.09712268229065,9.80787731770935
253,44568000,1685893255.479258,0.4281550645828247,0.0,0.4890736639499664,0.5,-10.131141662597656,-10.153570175170898,-10.036419868469238,9.72,9.79,0.0,4,9,-20.0,-10.101018113897332,9.803981886102669
254,44637138,1685893255.5800507,0.3372941613197326,0.0,0.401445060968399,0.5,-10.133378028869627,-10.136491775512695,-10.210716247558594,9.72,9.79,0.0,-1,8,-20.0,-10.101018113897332,9.803981886102669
255,44676000,1685893255.5800507,0.3372941613197326,0.0,0.401445060968399,0.5,-10.133378028869627,-10.136491775512695,-10.210716247558594,9.72,9.79,0.0,-1,8,-20.0,-10.105186883016897,9.799813116983104
256,44737098,1685893255.680011,0.3739153146743774,0.0,0.3655949234962463,0.5,-10.135834693908691,-10.126330375671388,-10.046560287475586,9.72,9.77,0.0,-5,3,-20.0,-10.105186883016897,9.799813116983104
257,44777000,1685893255.680011,0.3739153146743774,0.0,0.3655949234962463,0.5,-10.135834693908691,-10.126330375671388,-10.046560287475586,9.72,9.77,0.0,-5,3,-20.0,-10.112747910294647,9.792252089705352
258,44837058,1685893255.7799711,0.3953480720520019,0.0,0.3833450376987457,0.5,-10.138494491577148,-10.120972633361816,-10.206668853759766,9.72,9.77,0.0,-7,-1,-20.0,-10.112747910294647,9.792252089705352
259,44885000,1685893255.7799711,0.3953480720520019,0.0,0.3833450376987457,0.5,-10.138494491577148,-10.120972633361816,-10.206668853759766,9.72,9.77,0.0,-7,-1,-20.0,-10.132893115239028,9.772106884760971
260,44937018,1685893255.8799307,0.4228837490081787,0.0,0.4004737734794616,0.5,-10.141302108764648,-10.12316608428955,-10.085148811340332,9.72,9.75,0.0,-8,-5,-20.0,-10.132893115239028,9.772106884760971
261,44985000,1685893255.8799307,0.4228837490081787,0.0,0.4004737734794616,0.5,-10.141302108764648,-10.12316608428955,-10.085148811340332,9.72,9.75,0.0,-8,-5,-20.0,-10.148491284225864,9.756508715774135
262,45036978,1685893255.979891,0.4487852156162262,0.0,0.429499477148056,0.5,-10.144198417663574,-10.129015922546388,-10.23443603515625,9.72,9.74,0.0,-7,-6,-20.0,-10.148491284225864,9.756508715774135
263,45086000,1685893255.979891,0.4487852156162262,0.0,0.429499477148056,0.5,-10.144198417663574,-10.129015922546388,-10.23443603515625,9.72,9.74,0.0,-7,-6,-20.0,-10.15548626682304,9.74951373317696
264,45136938,1685893256.0798512,0.4805559813976288,0.0,0.4536667764186859,0.5,-10.147085189819336,-10.139896392822266,-10.04399585723877,9.72,9.72,0.0,-5,-7,-20.0,-10.15548626682304,9.74951373317696
265,45189000,1685893256.0798512,0.4805559813976288,0.0,0.4536667764186859,0.5,-10.147085189819336,-10.139896392822266,-10.04399585723877,9.72,9.72,0.0,-5,-7,-20.0,-10.16260856237201,9.742391437627989
266,45236898,1685893256.179811,0.5064197778701782,0.0,0.4876022636890411,0.5,-10.149853706359863,-10.146805763244627,-10.328662872314451,9.72,9.72,0.0,-3,-6,-20.0,-10.16260856237201,9.742391437627989
267,45289000,1685893256.179811,0.5064197778701782,0.0,0.4876022636890411,0.5,-10.149853706359863,-10.146805763244627,-10.328662872314451,9.72,9.72,0.0,-3,-6,-20.0,-10.165151425740516,9.739848574259485
268,45336858,1685893256.279771,0.5544769763946533,0.0,0.515602171421051,0.5,-10.152403831481934,-10.15957260131836,-10.068244934082031,9.72,9.71,0.0,0,-5,-20.0,-10.165151425740516,9.739848574259485
269,45397000,1685893256.279771,0.5544769763946533,0.0,0.515602171421051,0.5,-10.152403831481934,-10.15957260131836,-10.068244934082031,9.72,9.71,0.0,0,-5,-20.0,-10.151972011163478,9.75302798883652
270,45436818,1685893256.3797307,0.5903244614601135,0.0,0.567445695400238,0.5,-10.154666900634766,-10.16849422454834,-10.249407768249512,9.72,9.74,0.0,2,-4,-20.0,-10.151972011163478,9.75302798883652
271,45497000,1685893256.3797307,0.5903244614601135,0.0,0.567445695400238,0.5,-10.154666900634766,-10.16849422454834,-10.249407768249512,9.72,9.74,0.0,2,-4,-20.0,-10.139980395149603,9.765019604850396
272,45536778,1685893256.479691,0.5707364678382874,0.0,0.5728680491447449,0.5,-10.156635284423828,-10.175210952758787,-10.286293983459473,9.72,9.75,0.0,3,-1,-20.0,-10.139980395149603,9.765019604850396
273,45597000,1685893256.479691,0.5707364678382874,0.0,0.5728680491447449,0.5,-10.156635284423828,-10.175210952758787,-10.286293983459473,9.72,9.75,0.0,3,-1,-20.0,-10.12914459236264,9.775855407637358
274,45636738,1685893256.579651,0.5766209363937378,0.0,0.5716150999069214,0.5,-10.158391952514648,-10.18394660949707,-10.436440467834473,9.72,9.75,0.0,5,0,-20.0,-10.12914459236264,9.775855407637358
275,45699000,1685893256.579651,0.5766209363937378,0.0,0.5716150999069214,0.5,-10.158391952514648,-10.18394660949707,-10.436440467834473,9.72,9.75,0.0,5,0,-20.0,-10.120862313823174,9.784137686176823
276,45736698,1685893256.6796107,0.611498236656189,0.0,0.5853757262229919,0.5,-10.160027503967283,-10.199403762817385,-10.32557487487793,9.72,9.76,0.0,10,1,-20.0,-10.120862313823174,9.784137686176823
277,45800000,1685893256.6796107,0.611498236656189,0.0,0.5853757262229919,0.5,-10.160027503967283,-10.199403762817385,-10.32557487487793,9.72,9.76,0.0,10,1,-20.0,-10.1260208166561,9.778979183343898
278,45836658,1685893256.779571,0.6382932066917419,0.0,0.6169729232788086,0.5,-10.161614418029783,-10.218548774719238,-10.041346549987791,9.72,9.75,0.0,15,4,-20.0,-10.1260208166561,9.778979183343898
279,45901000,1685893256.779571,0.6382932066917419,0.0,0.6169729232788086,0.5,-10.161614418029783,-10.218548774719238,-10.041346549987791,9.72,9.75,0.0,15,4,-20.0,-10.131260668063472,9.773739331936529
280,45936618,1685893256.8795311,0.5786652565002441,0.0,0.6136064529418945,0.5,-10.163201332092283,-10.21766185760498,-10.261359214782717,9.72,9.75,0.0,14,10,-20.0,-10.131260668063472,9.773739331936529
281,46002000,1685893256.8795311,0.5786652565002441,0.0,0.6136064529418945,0.5,-10.163201332092283,-10.21766185760498,-10.261359214782717,9.72,9.75,0.0,14,10,-20.0,-10.13749010202155,9.76750989797845
282,46036578,1685893256.979491,0.5240797400474548,0.0,0.5637038350105286,0.5,-10.164799690246582,-10.20928955078125,-10.01654052734375,9.72,9.75,0.0,11,12,-20.0,-10.13749010202155,9.76750989797845
283,46102000,1685893256.979491,0.5240797400474548,0.0,0.5637038350105286,0.5,-10.164799690246582,-10.20928955078125,-10.01654052734375,9.72,9.75,0.0,11,12,-20.0,-10.15066926957316,9.75433073042684
284,46136538,1685893257.079451,0.4489777982234955,0.0,0.5098129510879517,0.5,-10.166411399841309,-10.192172050476074,-10.143108367919922,9.72,9.74,0.0,6,12,-20.0,-10.15066926957316,9.75433073042684
285,46204000,1685893257.079451,0.4489777982234955,0.0,0.5098129510879517,0.5,-10.166411399841309,-10.192172050476074,-10.143108367919922,9.72,9.74,0.0,6,12,-20.0,-10.163389285176534,9.741610714823466
286,46236498,1685893257.1794112,0.3247212171554565,0.0,0.4063768982887268,0.5,-10.16802215576172,-10.17092990875244,-10.031780242919922,9.72,9.72,0.0,0,11,-20.0,-10.163389285176534,9.741610714823466
287,46304000,1685893257.1794112,0.3247212171554565,0.0,0.4063768982887268,0.5,-10.16802215576172,-10.17092990875244,-10.031780242919922,9.72,9.72,0.0,0,11,-20.0,-10.169570765112796,9.735429234887205
288,46336458,1685893257.279371,0.3385279774665832,0.0,0.3554259836673736,0.5,-10.16959285736084,-10.149593353271484,-10.338397979736328,9.72,9.71,0.0,-7,6,-20.0,-10.169570765112796,9.735429234887205
289,46406000,1685893257.279371,0.3385279774665832,0.0,0.3554259836673736,0.5,-10.16959285736084,-10.149593353271484,-10.338397979736328,9.72,9.71,0.0,-7,6,-20.0,-10.175845891815248,9.729154108184751
290,46436418,1685893257.379331,0.3957736492156982,0.0,0.3608811199665069,0.5,-10.171024322509766,-10.14336395263672,-10.218961715698242,9.72,9.7,0.0,-9,-1,-20.0,-10.175845891815248,9.729154108184751
291,46506000,1685893257.379331,0.3957736492156982,0.0,0.3608811199665069,0.5,-10.171024322509766,-10.14336395263672,-10.218961715698242,9.72,9.7,0.0,-9,-1,-20.0,-10.183070681900375,9.721929318099622
292,46536378,1685893257.4792907,0.4654334187507629,0.0,0.4153772592544555,0.5,-10.172235488891602,-10.152225494384766,-10.182939529418944,9.72,9.7,0.0,-7,-6,-20.0,-10.183070681900375,9.721929318099622
293,46607000,1685893257.4792907,0.4654334187507629,0.0,0.4153772592544555,0.5,-10.172235488891602,-10.152225494384766,-10.182939529418944,9.72,9.7,0.0,-7,-6,-20.0,-10.203107576013933,9.701892423986068
294,46636338,1685893257.579251,0.526887834072113,0.0,0.4772566854953766,0.5,-10.173162460327148,-10.164532661437988,-10.365069389343262,9.72,9.68,0.0,-3,-7,-20.0,-10.203107576013933,9.701892423986068
295,46709000,1685893257.579251,0.526887834072113,0.0,0.4772566854953766,0.5,-10.173162460327148,-10.164532661437988,-10.365069389343262,9.72,9.68,0.0,-3,-7,-20.0,-10.221329248549583,9.683670751450416
296,46737131,1685893257.680044,0.6460410356521606,0.0,0.558856725692749,0.5,-10.173760414123535,-10.184337615966797,-10.039505004882812,9.72,9.66,0.0,2,-7,-20.0,-10.221329248549583,9.683670751450416
297,46809000,1685893257.680044,0.6460410356521606,0.0,0.558856725692749,0.5,-10.173760414123535,-10.184337615966797,-10.039505004882812,9.72,9.66,0.0,2,-7,-20.0,-10.213455990051267,9.691544009948732
298,46837091,1685893257.780004,0.6175225973129272,0.0,0.6230204105377197,0.5,-10.173937797546388,-10.19465446472168,-10.17561149597168,9.72,9.67,0.0,6,-2,-20.0,-10.213455990051267,9.691544009948732
299,46911000,1685893257.780004,0.6175225973129272,0.0,0.6230204105377197,0.5,-10.173937797546388,-10.19465446472168,-10.17561149597168,9.72,9.67,0.0,6,-2,-20.0,-10.20545663931487,9.69954336068513
300,46937051,1685893257.879964,0.566253125667572,0.0,0.5959361791610718,0.5,-10.173632621765137,-10.195258140563965,-10.21539306640625,9.72,9.67,0.0,7,2,-20.0,-10.20545663931487,9.69954336068513
301,47011000,1685893257.879964,0.566253125667572,0.0,0.5959361791610718,0.5,-10.173632621765137,-10.195258140563965,-10.21539306640625,9.72,9.67,0.0,7,2,-20.0,-10.19618878235578,9.708811217644218
302,47037011,1685893257.979924,0.5376104116439819,0.0,0.5624449849128723,0.5,-10.17284870147705,-10.191862106323242,-10.265066146850586,9.72,9.68,0.0,6,5,-20.0,-10.19618878235578,9.708811217644218
303,47114000,1685893257.979924,0.5376104116439819,0.0,0.5624449849128723,0.5,-10.17284870147705,-10.191862106323242,-10.265066146850586,9.72,9.68,0.0,6,5,-20.0,-10.16930164883828,9.73569835116172
304,47136971,1685893258.079884,0.529321551322937,0.0,0.5397658944129944,0.5,-10.17162799835205,-10.189448356628418,-10.190528869628906,9.72,9.71,0.0,6,6,-20.0,-10.16930164883828,9.73569835116172
305,47214000,1685893258.079884,0.529321551322937,0.0,0.5397658944129944,0.5,-10.17162799835205,-10.189448356628418,-10.190528869628906,9.72,9.71,0.0,6,6,-20.0,-10.145682904235978,9.759317095764022
306,47236931,1685893258.179844,0.5299447178840637,0.0,0.5321034789085388,0.5,-10.17006778717041,-10.186713218688965,-10.293007850646973,9.72,9.74,0.0,6,6,-20.0,-10.145682904235978,9.759317095764022
307,47314000,1685893258.179844,0.5299447178840637,0.0,0.5321034789085388,0.5,-10.17006778717041,-10.186713218688965,-10.293007850646973,9.72,9.74,0.0,6,6,-20.0,-10.150705051500012,9.754294948499988
308,47336891,1685893258.279804,0.539909303188324,0.0,0.5318381786346436,0.5,-10.168349266052246,-10.18654441833496,-10.145466804504396,9.72,9.74,0.0,7,5,-20.0,-10.150705051500012,9.754294948499988
309,47416000,1685893258.279804,0.539909303188324,0.0,0.5318381786346436,0.5,-10.168349266052246,-10.18654441833496,-10.145466804504396,9.72,9.74,0.0,7,5,-20.0,-10.155801330274056,9.749198669725942
310,47436851,1685893258.379764,0.5411913990974426,0.0,0.5397063493728638,0.5,-10.166661262512209,-10.184891700744627,-10.325624465942385,9.72,9.72,0.0,7,6,-20.0,-10.155801330274056,9.749198669725942
311,47517000,1685893258.379764,0.5411913990974426,0.0,0.5397063493728638,0.5,-10.166661262512209,-10.184891700744627,-10.325624465942385,9.72,9.72,0.0,7,6,-20.0,-10.161874057104084,9.743125942895915
312,47536811,1685893258.479724,0.5476759672164917,0.0,0.5395008325576782,0.5,-10.165091514587402,-10.186872482299805,-10.23069953918457,9.72,9.72,0.0,8,5,-20.0,-10.161874057104084,9.743125942895915
313,47618000,1685893258.479724,0.5476759672164917,0.0,0.5395008325576782,0.5,-10.165091514587402,-10.186872482299805,-10.23069953918457,9.72,9.72,0.0,8,5,-20.0,-10.179568457173598,9.7254315428264
314,47636771,1685893258.579684,0.5774165987968445,0.0,0.5588091015815735,0.5,-10.1636381149292,-10.189459800720217,-10.287607192993164,9.72,9.7,0.0,9,5,-20.0,-10.179568457173598,9.7254315428264
315,47719000,1685893258.579684,0.5774165987968445,0.0,0.5588091015815735,0.5,-10.1636381149292,-10.189459800720217,-10.287607192993164,9.72,9.7,0.0,9,5,-20.0,-10.195269584913726,9.709730415086272
316,47736731,1685893258.679644,0.59105384349823,0.0,0.5774033665657043,0.5,-10.162263870239258,-10.193309783935549,-10.007277488708496,9.72,9.68,0.0,10,6,-20.0,-10.195269584913726,9.709730415086272
317,47819000,1685893258.679644,0.59105384349823,0.0,0.5774033665657043,0.5,-10.162263870239258,-10.193309783935549,-10.007277488708496,9.72,9.68,0.0,10,6,-20.0,-10.19260691302688,9.71239308697312
318,47836691,1685893258.779604,0.5580262541770935,0.0,0.5809213519096375,0.5,-10.160881042480469,-10.186802864074709,-10.098414421081545,9.72,9.7,0.0,9,8,-20.0,-10.19260691302688,9.71239308697312
319,47921000,1685893258.779604,0.5580262541770935,0.0,0.5809213519096375,0.5,-10.160881042480469,-10.186802864074709,-10.098414421081545,9.72,9.7,0.0,9,8,-20.0,-10.190036916773668,9.714963083226332
320,47936651,1685893258.879564,0.4845291972160339,0.0,0.5355011224746704,0.5,-10.15940761566162,-10.171170234680176,-10.145732879638672,9.72,9.7,0.0,5,9,-20.0,-10.190036916773668,9.714963083226332
321,48021000,1685893258.879564,0.4845291972160339,0.0,0.5355011224746704,0.5,-10.15940761566162,-10.171170234680176,-10.145732879638672,9.72,9.7,0.0,5,9,-20.0,-10.189051199337484,9.715948800662517
322,48036611,1685893258.979524,0.3907374143600464,0.0,0.4631999135017395,0.5,-10.157844543457031,-10.154809951782228,-10.242145538330078,9.72,9.7,0.0,0,9,-20.0,-10.189051199337484,9.715948800662517
323,48124000,1685893258.979524,0.3907374143600464,0.0,0.4631999135017395,0.5,-10.157844543457031,-10.154809951782228,-10.242145538330078,9.72,9.7,0.0,0,9,-20.0,-10.188043280012868,9.716956719987133
324,48136571,1685893259.079484,0.3925919532775879,0.0,0.4039919376373291,0.5,-10.156200408935549,-10.144773483276367,-10.01933479309082,9.72,9.7,0.0,-1,6,-20.0,-10.188043280012868,9.716956719987133
325,48224000,1685893259.079484,0.3925919532775879,0.0,0.4039919376373291,0.5,-10.156200408935549,-10.144773483276367,-10.01933479309082,9.72,9.7,0.0,-1,6,-20.0,-10.187221871387974,9.717778128612023
326,48236531,1685893259.179444,0.4073871374130249,0.0,0.4076118171215057,0.5,-10.1544828414917,-10.13511848449707,-10.187923431396484,9.72,9.7,0.0,-4,3,-20.0,-10.187221871387974,9.717778128612023
327,48324000,1685893259.179444,0.4073871374130249,0.0,0.4076118171215057,0.5,-10.1544828414917,-10.13511848449707,-10.187923431396484,9.72,9.7,0.0,-4,3,-20.0,-10.188257098228584,9.716742901771417
328,48336491,1685893259.279404,0.4214209020137787,0.0,0.410011738538742,0.5,-10.152700424194336,-10.13087272644043,-9.98914909362793,9.72,9.7,0.0,-4,0,-20.0,-10.188257098228584,9.716742901771417
329,48426000,1685893259.279404,0.4214209020137787,0.0,0.410011738538742,0.5,-10.152700424194336,-10.13087272644043,-9.98914909362793,9.72,9.7,0.0,-4,0,-20.0,-10.189084577150616,9.715915422849385
330,48436451,1685893259.379364,0.4291756153106689,0.0,0.4254578053951263,0.5,-10.150863647460938,-10.125598907470703,-9.937273025512695,9.72,9.7,0.0,-5,-1,-20.0,-10.189084577150616,9.715915422849385
331,48527000,1685893259.379364,0.4291756153106689,0.0,0.4254578053951263,0.5,-10.150863647460938,-10.125598907470703,-9.937273025512695,9.72,9.7,0.0,-5,-1,-20.0,-10.187387278567876,9.717612721432124
332,48536411,1685893259.479324,0.3962700963020324,0.0,0.4173533916473388,0.5,-10.148975372314451,-10.11415672302246,-10.028865814208984,9.72,9.7,0.0,-8,-2,-20.0,-10.187387278567876,9.717612721432124
333,48628000,1685893259.479324,0.3962700963020324,0.0,0.4173533916473388,0.5,-10.148975372314451,-10.11415672302246,-10.028865814208984,9.72,9.7,0.0,-8,-2,-20.0,-10.185662810262544,9.719337189737455
334,48636371,1685893259.579284,0.3798980116844177,0.0,0.3924451172351837,0.5,-10.147046089172363,-10.102046012878418,-9.962898254394531,9.72,9.7,0.0,-11,-4,-20.0,-10.185662810262544,9.719337189737455
335,48729000,1685893259.579284,0.3798980116844177,0.0,0.3924451172351837,0.5,-10.147046089172363,-10.102046012878418,-9.962898254394531,9.72,9.7,0.0,-11,-4,-20.0,-10.18258201128008,9.722417988719918
336,48736331,1685893259.679244,0.3845878839492798,0.0,0.387118935585022,0.5,-10.145079612731934,-10.09146785736084,-10.201481819152832,9.72,9.7,0.0,-14,-7,-20.0,-10.18258201128008,9.722417988719918
337,48829000,1685893259.679244,0.3845878839492798,0.0,0.387118935585022,0.5,-10.145079612731934,-10.09146785736084,-10.201481819152832,9.72,9.7,0.0,-14,-7,-20.0,-10.16409170699888,9.74090829300112
338,48837124,1685893259.7800372,0.4193325042724609,0.0,0.3945516645908355,0.5,-10.143065452575684,-10.091504096984863,-9.88969898223877,9.72,9.72,0.0,-13,-10,-20.0,-10.16409170699888,9.74090829300112
339,48931000,1685893259.7800372,0.4193325042724609,0.0,0.3945516645908355,0.5,-10.143065452575684,-10.091504096984863,-9.88969898223877,9.72,9.72,0.0,-13,-10,-20.0,-10.146345303272788,9.758654696727213
340,48937084,1685893259.879997,0.4351789355278015,0.0,0.4243122339248657,0.5,-10.14106559753418,-10.09083366394043,-10.15139389038086,9.72,9.74,0.0,-13,-11,-20.0,-10.146345303272788,9.758654696727213
341,49031000,1685893259.879997,0.4351789355278015,0.0,0.4243122339248657,0.5,-10.14106559753418,-10.09083366394043,-10.15139389038086,9.72,9.74,0.0,-13,-11,-20.0,-10.140979762949602,9.764020237050396
342,49037044,1685893259.979957,0.4446947276592254,0.0,0.431795984506607,0.5,-10.139145851135254,-10.095502853393556,-9.971354484558104,9.72,9.75,0.0,-11,-11,-20.0,-10.140979762949602,9.764020237050396
343,49133000,1685893259.979957,0.4446947276592254,0.0,0.431795984506607,0.5,-10.139145851135254,-10.095502853393556,-9.971354484558104,9.72,9.75,0.0,-11,-11,-20.0,-10.135529069494172,9.769470930505827
344,49137004,1685893260.0799167,0.4556820392608642,0.0,0.4487141966819763,0.5,-10.13741683959961,-10.098323822021484,-10.225000381469728,9.72,9.75,0.0,-10,-10,-20.0,-10.135529069494172,9.769470930505827
345,49233000,1685893260.0799167,0.4556820392608642,0.0,0.4487141966819763,0.5,-10.13741683959961,-10.098323822021484,-10.225000381469728,9.72,9.75,0.0,-10,-10,-20.0,-10.12959178512448,9.77540821487552
346,49236964,1685893260.179877,0.4773458242416382,0.0,0.4571460485458374,0.5,-10.135958671569824,-10.107626914978027,-9.99311351776123,9.72,9.75,0.0,-7,-10,-20.0,-10.12959178512448,9.77540821487552
347,49334000,1685893260.179877,0.4773458242416382,0.0,0.4571460485458374,0.5,-10.135958671569824,-10.107626914978027,-9.99311351776123,9.72,9.75,0.0,-7,-10,-20.0,-10.11671396400776,9.788286035992238
348,49336924,1685893260.2798371,0.5017434358596802,0.0,0.4847783148288727,0.5,-10.134807586669922,-10.113645553588867,-10.164507865905762,9.72,9.75,0.0,-5,-8,-20.0,-10.11671396400776,9.788286035992238
349,49436000,1685893260.2798371,0.5017434358596802,0.0,0.4847783148288727,0.5,-10.134807586669922,-10.113645553588867,-10.164507865905762,9.72,9.75,0.0,-5,-8,-20.0,-10.104308987768125,9.800691012231876
350,49436884,1685893260.3797967,0.5191436409950256,0.0,0.5015813708305359,0.5,-10.133970260620115,-10.120599746704102,-10.164474487304688,9.72,9.76,0.0,-3,-7,-20.0,-10.104308987768125,9.800691012231876
351,49536000,1685893260.3797967,0.5191436409950256,0.0,0.5015813708305359,0.5,-10.133970260620115,-10.120599746704102,-10.164474487304688,9.72,9.76,0.0,-3,-7,-20.0,-10.100345335295504,9.804654664704495
352,49536844,1685893260.479757,0.5573153495788574,0.0,0.52802574634552,0.5,-10.133469581604004,-10.129403114318848,-10.20061492919922,9.72,9.79,0.0,0,-6,-20.0,-10.100345335295504,9.804654664704495
353,49636804,1685893260.5797172,0.5832098126411438,0.0,0.5589019656181335,0.5,-10.133380889892578,-10.14027500152588,-10.091781616210938,9.72,9.79,0.0,1,-5,-20.0,-10.100345335295504,9.804654664704495
354,49638000,1685893260.5797172,0.5832098126411438,0.0,0.5589019656181335,0.5,-10.133380889892578,-10.14027500152588,-10.091781616210938,9.72,9.79,0.0,1,-5,-20.0,-10.09631571989444,9.80868428010556
355,49736764,1685893260.679677,0.5759847164154053,0.0,0.5766488313674927,0.5,-10.133769989013672,-10.14725399017334,-10.098077774047852,9.72,9.79,0.0,3,-2,-20.0,-10.09631571989444,9.80868428010556
356,49738000,1685893260.679677,0.5759847164154053,0.0,0.5766488313674927,0.5,-10.133769989013672,-10.14725399017334,-10.098077774047852,9.72,9.79,0.0,3,-2,-20.0,-10.092884188250226,9.812115811749774
357,49836724,1685893260.779637,0.5342106223106384,0.0,0.5594895482063293,0.5,-10.13464069366455,-10.14775276184082,-10.177057266235352,9.72,9.79,0.0,2,0,-20.0,-10.092884188250226,9.812115811749774
358,49839000,1685893260.779637,0.5342106223106384,0.0,0.5594895482063293,0.5,-10.13464069366455,-10.14775276184082,-10.177057266235352,9.72,9.79,0.0,2,0,-20.0,-10.095793558682802,9.809206441317198
359,49936684,1685893260.8795967,0.4975907206535339,0.0,0.5236298441886902,0.5,-10.13598346710205,-10.146530151367188,-10.203750610351562,9.72,9.79,0.0,1,1,-20.0,-10.095793558682802,9.809206441317198
360,49940000,1685893260.8795967,0.4975907206535339,0.0,0.5236298441886902,0.5,-10.13598346710205,-10.146530151367188,-10.203750610351562,9.72,9.79,0.0,1,1,-20.0,-10.098931733488756,9.806068266511245
361,50036644,1685893260.979557,0.4671061635017395,0.0,0.4914679825305938,0.5,-10.137763023376465,-10.147567749023438,-10.136961936950684,9.72,9.79,0.0,0,1,-20.0,-10.098931733488756,9.806068266511245
362,50041000,1685893260.979557,0.4671061635017395,0.0,0.4914679825305938,0.5,-10.137763023376465,-10.147567749023438,-10.136961936950684,9.72,9.79,0.0,0,1,-20.0,-10.104161506054949,9.800838493945053
363,50136604,1685893261.0795171,0.4380855560302734,0.0,0.4614098966121673,0.5,-10.139942169189451,-10.147424697875977,-9.94566535949707,9.72,9.79,0.0,0,2,-20.0,-10.104161506054949,9.800838493945053
364,50143000,1685893261.0795171,0.4380855560302734,0.0,0.4614098966121673,0.5,-10.139942169189451,-10.147424697875977,-9.94566535949707,9.72,9.79,0.0,0,2,-20.0,-10.109461841804366,9.795538158195631
365,50236564,1685893261.1794767,0.3936156928539276,0.0,0.4318194389343261,0.5,-10.142474174499512,-10.138848304748535,-10.226287841796877,9.72,9.77,0.0,-3,2,-20.0,-10.109461841804366,9.795538158195631
366,50243000,1685893261.1794767,0.3936156928539276,0.0,0.4318194389343261,0.5,-10.142474174499512,-10.138848304748535,-10.226287841796877,9.72,9.77,0.0,-3,2,-20.0,-10.115163359984384,9.789836640015617
367,50336524,1685893261.279437,0.3835580945014953,0.0,0.3918482065200805,0.5,-10.145270347595217,-10.132486343383787,-9.99562931060791,9.72,9.76,0.0,-6,0,-20.0,-10.115163359984384,9.789836640015617
368,50343000,1685893261.279437,0.3835580945014953,0.0,0.3918482065200805,0.5,-10.145270347595217,-10.132486343383787,-9.99562931060791,9.72,9.76,0.0,-6,0,-20.0,-10.126468478132503,9.778531521867494
369,50436484,1685893261.3793972,0.3965260982513428,0.0,0.3967399597167969,0.5,-10.14821434020996,-10.127622604370115,-10.001813888549805,9.72,9.75,0.0,-9,-3,-20.0,-10.126468478132503,9.778531521867494
370,50445000,1685893261.3793972,0.3965260982513428,0.0,0.3967399597167969,0.5,-10.14821434020996,-10.127622604370115,-10.001813888549805,9.72,9.75,0.0,-9,-3,-20.0,-10.1373382725776,9.767661727422398
371,50536444,1685893261.479357,0.3824901580810547,0.0,0.3920885622501373,0.5,-10.151193618774414,-10.12061595916748,-9.988693237304688,9.72,9.75,0.0,-12,-5,-20.0,-10.1373382725776,9.767661727422398
372,50545000,1685893261.479357,0.3824901580810547,0.0,0.3920885622501373,0.5,-10.151193618774414,-10.12061595916748,-9.988693237304688,9.72,9.75,0.0,-12,-5,-20.0,-10.140713341553983,9.764286658446016
373,50636404,1685893261.579317,0.367967814207077,0.0,0.3807930946350097,0.5,-10.15414810180664,-10.111200332641602,-10.291475296020508,9.72,9.75,0.0,-15,-7,-20.0,-10.140713341553983,9.764286658446016
374,50647000,1685893261.579317,0.367967814207077,0.0,0.3807930946350097,0.5,-10.15414810180664,-10.111200332641602,-10.291475296020508,9.72,9.75,0.0,-15,-7,-20.0,-10.14414054016564,9.76085945983436
375,50736364,1685893261.6792767,0.4101483225822449,0.0,0.3824010193347931,0.5,-10.157029151916504,-10.11789321899414,-10.23735237121582,9.72,9.75,0.0,-14,-11,-20.0,-10.14414054016564,9.76085945983436
376,50747000,1685893261.6792767,0.4101483225822449,0.0,0.3824010193347931,0.5,-10.157029151916504,-10.11789321899414,-10.23735237121582,9.72,9.75,0.0,-14,-11,-20.0,-10.147278340139389,9.757721659860612
377,50836324,1685893261.779237,0.4791845381259918,0.0,0.4295745491981506,0.5,-10.159814834594728,-10.13633918762207,-10.209793090820312,9.72,9.74,0.0,-9,-13,-20.0,-10.147278340139389,9.757721659860612
378,50848000,1685893261.779237,0.4791845381259918,0.0,0.4295745491981506,0.5,-10.159814834594728,-10.13633918762207,-10.209793090820312,9.72,9.74,0.0,-9,-13,-20.0,-10.147502204665937,9.757497795334064
379,50937117,1685893261.88003,0.5607118010520935,0.0,0.4969496130943298,0.5,-10.162493705749512,-10.158645629882812,-10.214890480041504,9.72,9.74,0.0,-3,-12,-20.0,-10.147502204665937,9.757497795334064
380,50950000,1685893261.88003,0.5607118010520935,0.0,0.4969496130943298,0.5,-10.162493705749512,-10.158645629882812,-10.214890480041504,9.72,9.74,0.0,-3,-12,-20.0,-10.147329360560844,9.757670639439157
381,51037077,1685893261.97999,0.6431511640548706,0.0,0.5854329466819763,0.5,-10.164998054504396,-10.179210662841797,-10.33583164215088,9.72,9.74,0.0,1,-10,-20.0,-10.147329360560844,9.757670639439157
382,51050000,1685893261.97999,0.6431511640548706,0.0,0.5854329466819763,0.5,-10.164998054504396,-10.179210662841797,-10.33583164215088,9.72,9.74,0.0,1,-10,-20.0,-10.142151235557828,9.762848764442172
383,51137037,1685893262.07995,0.6377713084220886,0.0,0.6228808164596558,0.5,-10.167346954345703,-10.200552940368652,-10.180296897888184,9.72,9.75,0.0,7,-5,-20.0,-10.142151235557828,9.762848764442172
384,51152000,1685893262.07995,0.6377713084220886,0.0,0.6228808164596558,0.5,-10.167346954345703,-10.200552940368652,-10.180296897888184,9.72,9.75,0.0,7,-5,-20.0,-10.13688682303317,9.76811317696683
385,51236997,1685893262.17991,0.6063927412033081,0.0,0.6236861944198608,0.5,-10.169568061828612,-10.212621688842772,-10.13412094116211,9.72,9.75,0.0,10,1,-20.0,-10.13688682303317,9.76811317696683
386,51252000,1685893262.17991,0.6063927412033081,0.0,0.6236861944198608,0.5,-10.169568061828612,-10.212621688842772,-10.13412094116211,9.72,9.75,0.0,10,1,-20.0,-10.131434983852303,9.773565016147696
387,51336957,1685893262.27987,0.5505675077438354,0.0,0.5896034836769104,0.5,-10.171697616577148,-10.211519241333008,-10.049911499023438,9.72,9.75,0.0,9,6,-20.0,-10.131434983852303,9.773565016147696
388,51353000,1685893262.27987,0.5505675077438354,0.0,0.5896034836769104,0.5,-10.171697616577148,-10.211519241333008,-10.049911499023438,9.72,9.75,0.0,9,6,-20.0,-10.12270507477392,9.78229492522608
389,51436917,1685893262.37983,0.4623688757419586,0.0,0.529794454574585,0.5,-10.173760414123535,-10.197369575500488,-10.383864402770996,9.72,9.76,0.0,5,8,-20.0,-10.12270507477392,9.78229492522608
