TimeUS,terrain_z,sub_z,rf
42116000,-20.0,-10.152764371092518,9.752235628907481
42218000,-20.0,-10.159012595146832,9.745987404853167
42319000,-20.0,-10.167498495330909,9.73750150466909
42424000,-20.0,-10.174933666355102,9.730066333644897
42525000,-20.0,-10.174342446095833,9.730657553904166
42635000,-20.0,-10.17369534616951,9.73130465383049
42735000,-20.0,-10.171766880485958,9.733233119514042
42836000,-20.0,-10.169182161730467,9.735817838269533
42940000,-20.0,-10.165487617579076,9.739512382420923
43040000,-20.0,-10.158658470772071,9.746341529227928
43142000,-20.0,-10.151737693841742,9.753262306158257
43243000,-20.0,-10.146540912804586,9.758459087195414
43343000,-20.0,-10.147576096646642,9.757423903353358
43445000,-20.0,-10.147487885864631,9.757512114135368
43545000,-20.0,-10.140024518772202,9.764975481227797
43647000,-20.0,-10.132448238618366,9.772551761381633
43748000,-20.0,-10.125222118003615,9.779777881996385
43848000,-20.0,-10.120539254721747,9.784460745278253
43953000,-20.0,-10.116034648697706,9.788965351302293
44054000,-20.0,-10.11494154844593,9.790058451554069
44160000,-20.0,-10.113789190542638,9.791210809457361
44261000,-20.0,-10.111560695267304,9.793439304732695
44364000,-20.0,-10.10308729161925,9.80191270838075
44467000,-20.0,-10.09712268229065,9.80787731770935
44568000,-20.0,-10.101018113897332,9.803981886102667
44676000,-20.0,-10.105186883016895,9.799813116983104
44777000,-20.0,-10.112747910294647,9.792252089705352
44885000,-20.0,-10.132893115239028,9.772106884760971
44985000,-20.0,-10.148491284225864,9.756508715774135
45086000,-20.0,-10.15548626682304,9.74951373317696
45189000,-20.0,-10.16260856237201,9.742391437627989
45289000,-20.0,-10.165151425740515,9.739848574259485
45397000,-20.0,-10.151972011163478,9.753027988836521
45497000,-20.0,-10.139980395149603,9.765019604850396
45597000,-20.0,-10.12914459236264,9.775855407637358
45699000,-20.0,-10.120862313823174,9.784137686176825
45800000,-20.0,-10.126020816656101,9.778979183343898
45901000,-20.0,-10.131260668063472,9.773739331936527
46002000,-20.0,-10.13749010202155,9.76750989797845
46102000,-20.0,-10.15066926957316,9.754330730426839
46204000,-20.0,-10.163389285176534,9.741610714823466
46304000,-20.0,-10.169570765112795,9.735429234887205
46406000,-20.0,-10.175845891815248,9.729154108184751
46506000,-20.0,-10.183070681900377,9.721929318099622
46607000,-20.0,-10.203107576013931,9.701892423986068
46709000,-20.0,-10.221329248549583,9.683670751450416
46809000,-20.0,-10.213455990051267,9.691544009948732
46911000,-20.0,-10.20545663931487,9.69954336068513
47011000,-20.0,-10.196188782355781,9.708811217644218
47114000,-20.0,-10.16930164883828,9.73569835116172
47214000,-20.0,-10.145682904235978,9.759317095764022
47314000,-20.0,-10.150705051500012,9.754294948499988
47416000,-20.0,-10.155801330274057,9.749198669725942
47517000,-20.0,-10.161874057104084,9.743125942895915
47618000,-20.0,-10.179568457173598,9.725431542826401
47719000,-20.0,-10.195269584913726,9.709730415086273
47819000,-20.0,-10.192606913026879,9.71239308697312
47921000,-20.0,-10.190036916773668,9.714963083226332
48021000,-20.0,-10.189051199337483,9.715948800662517
48124000,-20.0,-10.188043280012867,9.716956719987133
48224000,-20.0,-10.187221871387974,9.717778128612025
48324000,-20.0,-10.188257098228583,9.716742901771417
48426000,-20.0,-10.189084577150616,9.715915422849383
48527000,-20.0,-10.187387278567876,9.717612721432124
48628000,-20.0,-10.185662810262544,9.719337189737455
48729000,-20.0,-10.182582011280081,9.722417988719918
48829000,-20.0,-10.16409170699888,9.74090829300112
48931000,-20.0,-10.146345303272787,9.758654696727213
49031000,-20.0,-10.140979762949602,9.764020237050397
49133000,-20.0,-10.135529069494172,9.769470930505827
49233000,-20.0,-10.129591785124479,9.77540821487552
49334000,-20.0,-10.116713964007761,9.788286035992238
49436000,-20.0,-10.104308987768123,9.800691012231876
49536000,-20.0,-10.100345335295504,9.804654664704495
49638000,-20.0,-10.09631571989444,9.80868428010556
49738000,-20.0,-10.092884188250226,9.812115811749774
49839000,-20.0,-10.095793558682802,9.809206441317198
49940000,-20.0,-10.098931733488756,9.806068266511243
50041000,-20.0,-10.104161506054947,9.800838493945053
50143000,-20.0,-10.109461841804366,9.795538158195633
50243000,-20.0,-10.115163359984384,9.789836640015615
50343000,-20.0,-10.126468478132505,9.778531521867494
50445000,-20.0,-10.137338272577601,9.767661727422398
50545000,-20.0,-10.140713341553983,9.764286658446016
50647000,-20.0,-10.144140540165639,9.76085945983436
50747000,-20.0,-10.147278340139387,9.757721659860612
50848000,-20.0,-10.147502204665935,9.757497795334064
50950000,-20.0,-10.147329360560843,9.757670639439157
51050000,-20.0,-10.142151235557828,9.762848764442172
51152000,-20.0,-10.13688682303317,9.76811317696683
51252000,-20.0,-10.131434983852303,9.773565016147696
51353000,-20.0,-10.12270507477392,9.78229492522608
51454000,-20.0,-10.115179362047389,9.78982063795261
51555000,-20.0,-10.123855488856686,9.781144511143314
51657000,-20.0,-10.132664619943906,9.772335380056093
51757000,-20.0,-10.14268825904188,9.76231174095812
51859000,-20.0,-10.169198038458985,9.735801961541014
51959000,-20.0,-10.193739897918002,9.711260102081997
52060000,-20.0,-10.199385996920238,9.705614003079761
52162000,-20.0,-10.205119546575519,9.69988045342448
52262000,-16.0,-10.209491343225007,5.695508656774993
52365000,-16.0,-10.198734942039067,5.706265057960933
52465000,-16.0,-10.190048948395438,5.7149510516045625
52566000,-16.0,-10.199259116889916,5.705740883110084
52667000,-16.0,-10.207305234218545,5.697694765781455
52768000,-16.0,-10.2019756288822,5.7030243711178
52870000,-16.0,-10.196537570874428,5.708462429125572
52970000,-16.0,-10.191479725930423,5.713520274069578
53071000,-16.0,-10.189158802390562,5.715841197609438
53172000,-16.0,-10.186196192763559,5.7188038072364415
53273000,-16.0,-10.176604877490607,5.728395122509393
53375000,-16.0,-10.166860799335462,5.738139200664539
53475000,-16.0,-10.151770666888366,5.753229333111634
53575000,-16.0,-10.073664083401225,5.831335916598776
53677000,-16.0,-9.993903121004212,5.911096878995788
53777000,-16.0,-9.909527534953535,5.995472465046466
53879000,-16.0,-9.82376428031064,6.081235719689361
53980000,-16.0,-9.733316294258866,6.171683705741134
54080000,-16.0,-9.56896493899293,6.3360350610070695
54182000,-16.0,-9.405169710566534,6.499830289433466
54282000,-16.0,-9.280301371568822,6.624698628431179
54387000,-16.0,-9.150570510242584,6.754429489757416
54487000,-16.0,-9.020407447004818,6.884592552995183
54587000,-16.0,-8.843824694468033,7.061175305531967
54689000,-16.0,-8.672342678025636,7.232657321974364
54789000,-16.0,-8.571211540119059,7.3337884598809415
54891000,-16.0,-8.468501776149987,7.4364982238500135
54991000,-16.0,-8.36312393193894,7.54187606806106
55092000,-16.0,-8.219547584653144,7.685452415346856
55194000,-16.0,-8.07756525990863,7.827434740091371
55294000,-16.0,-7.98411656059892,7.92088343940108
55397000,-16.0,-7.888900234777807,8.016099765222192
55497000,-16.0,-7.790213959488633,8.114786040511367
55597000,-16.0,-7.6326318708593295,8.27236812914067
55699000,-16.0,-7.476835124447946,8.428164875552055
55799000,-16.0,-7.372110332129525,8.532889667870474
55901000,-16.0,-7.265732071679957,8.639267928320043
56002000,-16.0,-7.156773074270027,8.748226925729972
56102000,-16.0,-6.997548409696583,8.907451590303415
56204000,-16.0,-6.840405753879194,9.064594246120805
56304000,-16.0,-6.737726961457082,9.167273038542918
56406000,-16.0,-6.633470609834908,9.27152939016509
56506000,-16.0,-6.527444696717111,9.377555303282888
56606000,-16.0,-6.37982393125936,9.52517606874064
56708000,-16.0,-6.232966602953137,9.672033397046862
56808000,-16.0,-6.125576843654694,9.779423156345304
56910000,-16.0,-6.016417808517933,9.888582191482067
57011000,-16.0,-5.905637498513955,9.999362501486045
57112000,-16.0,-5.749106356079508,10.155893643920491
57213000,-16.0,-5.59847368032074,10.306526319679259
57313000,-16.0,-5.490256545894334,10.414743454105666
57415000,-16.0,-5.380410836893202,10.524589163106798
57515000,-16.0,-5.2688115614151645,10.636188438584835
57618000,-16.0,-5.111387272253839,10.79361272774616
57719000,-16.0,-4.957243057783599,10.9477569422164
57819000,-16.0,-4.794573605206727,11.110426394793272
57921000,-16.0,-4.635926976712082,11.269073023287918
58021000,-16.0,-4.549625291539239,11.35537470846076
58123000,-16.0,-4.4618869415795475,11.443113058420453
58223000,-16.0,-4.378693483908816,11.526306516091184
58323000,-16.0,-4.328557373397816,11.576442626602184
58425000,-16.0,-4.280850879419352,11.624149120580649
58526000,-16.0,-4.27262799633574,11.63237200366426
58627000,-16.0,-4.264284074646614,11.640715925353385
58728000,-16.0,-4.25851070972782,11.64648929027218
58828000,-16.0,-4.283082079355714,11.621917920644284
58930000,-16.0,-4.30913955228715,11.59586044771285
59030000,-16.0,-4.348317022640599,11.556682977359399
59132000,-16.0,-4.388054767914359,11.516945232085641
59232000,-16.0,-4.431121817745009,11.47387818225499
59333000,-16.0,-4.52222635086921,11.382773649130788
59435000,-16.0,-4.6123433556546924,11.292656644345307
59535000,-16.0,-4.673079425419744,11.231920574580256
59637000,-16.0,-4.734760835678741,11.170239164321258
59737000,-16.0,-4.7985523804710635,11.106447619528936
59837000,-16.0,-4.898561514820057,11.006438485179943
59939000,-16.0,-4.998615108528488,10.906384891471513
60040000,-16.0,-5.078955384316939,10.826044615683061
60142000,-16.0,-5.160397925546416,10.744602074453583
60242000,-16.0,-5.244850166612995,10.660149833387004
60342000,-16.0,-5.380528706532697,10.524471293467302
60444000,-16.0,-5.515009141435861,10.389990858564138
60544000,-16.0,-5.60785483723065,10.297145162769349
60646000,-16.0,-5.702228226103893,10.202771773896107
60747000,-16.0,-5.797413395962813,10.107586604037186
60847000,-16.0,-5.921043317035882,9.983956682964118
60949000,-16.0,-6.044072933884029,9.860927066115972
61049000,-16.0,-6.134760399501606,9.770239600498394
61151000,-16.0,-6.227063275323257,9.677936724676742
61252000,-16.0,-6.3194546829575895,9.58554531704241
61352000,-16.0,-6.431731270399187,9.473268729600813
61454000,-16.0,-6.542247039231159,9.36275296076884
61554000,-16.0,-6.610227337305238,9.294772662694761
61656000,-16.0,-6.679288049528388,9.225711950471611
61756000,-16.0,-6.748797242112072,9.156202757887927
61857000,-16.0,-6.8364243827087625,9.068575617291236
61959000,-16.0,-6.921881779915648,8.983118220084352
62059000,-16.0,-6.969070922084626,8.935929077915373
62161000,-16.0,-7.017039938885765,8.887960061114233
62262000,-16.0,-7.063763285850187,8.841236714149813
62363000,-16.0,-7.106150150573294,8.798849849426706
62464000,-16.02,-7.146551278738912,8.778448721261087
62564000,-16.05,-7.172551696569346,8.782448303430654
62666000,-16.08,-7.1989030312007944,8.786096968799203
62766000,-16.1,-7.223227398581279,8.781772601418721
62868000,-16.12,-7.2290668906714854,8.795933109328514
62969000,-16.15,-7.232012613435304,8.822987386564693
63069000,-16.17,-7.201492583601058,8.873507416398942
63171000,-16.2,-7.170802686411062,8.934197313588937
63271000,-16.23,-7.143046505773663,8.991953494226337
63374000,-16.25,-7.114627389307206,9.040372610692794
63474000,-16.27,-7.08527080602133,9.089729193978668
63574000,-16.3,-7.0387419043407435,9.166258095659257
63676000,-16.33,-6.991269785726225,9.243730214273773
63776000,-16.35,-6.942155716756839,9.31284428324316
63878000,-16.38,-6.892215204350652,9.392784795649346
63979000,-16.4,-6.839847145114087,9.465152854885911
64079000,-16.42,-6.752568212112551,9.572431787887451
64181000,-16.45,-6.667054101488852,9.687945898511147
64281000,-16.48,-6.618462934299162,9.766537065700838
64383000,-16.5,-6.569094509851472,9.835905490148528
64483000,-16.52,-6.52093810088177,9.90406189911823
64584000,-16.55,-6.477824078446735,9.977175921553265
64686000,-16.58,-6.434777913965142,10.050222086034855
64786000,-16.6,-6.401246345802976,10.103753654197025
64888000,-16.62,-6.367142908466493,10.157857091533508
64988000,-16.65,-6.33250433026708,10.222495669732918
65089000,-16.67,-6.285346822234465,10.289653177765535
65192000,-16.7,-6.2380529591494485,10.36694704085055
65292000,-16.73,-6.20217634218807,10.43282365781193
65394000,-16.75,-6.165733704121256,10.489266295878744
65494000,-16.77,-6.130323703366536,10.544676296633464
65595000,-16.8,-6.0994904175747715,10.60550958242523
65696000,-16.83,-6.068808013212266,10.666191986787732
65797000,-16.85,-6.044968293017046,10.710031706982955
65899000,-16.88,-6.020742165628143,10.764257834371856
65999000,-16.9,-5.99759579410053,10.807404205899468
66099000,-16.92,-5.982566448750482,10.842433551249519
66201000,-16.95,-5.969532485254472,10.885467514745526
66302000,-16.98,-5.982588254040452,10.902411745959549
66404000,-17.0,-5.995859902220638,10.909140097779362
66504000,-17.03,-6.009922842477065,10.925077157522935
66605000,-17.05,-6.035785237175648,10.919214762824351
66707000,-17.08,-6.062626637897591,10.922373362102407
66807000,-17.1,-6.097489834459173,10.907510165540828
66909000,-17.12,-6.132915542437898,10.892084457562103
67009000,-17.15,-6.171885981106524,10.883114018893474
67111000,-17.17,-6.258311185397592,10.81668881460241
67211000,-17.2,-6.3410058449482305,10.763994155051767
67312000,-17.23,-6.397545640476007,10.737454359523992
67414000,-17.25,-6.454926493461698,10.7000735065383
67514000,-17.28,-6.5141523073299386,10.670847692670062
67616000,-17.3,-6.6066985482004865,10.598301451799513
67716000,-17.33,-6.696348054286665,10.538651945713331
67817000,-17.35,-6.7698818099955735,10.485118190004426
67918000,-17.38,-6.843255440145789,10.44174455985421
68019000,-17.4,-6.899979579516115,10.405020420483883
68121000,-17.42,-6.957706948694736,10.367293051305266
68221000,-17.45,-7.017515080224591,10.337484919775408
68322000,-17.48,-7.11312322301864,10.27187677698136
68423000,-17.5,-7.206577511276966,10.198422488723034
68524000,-17.53,-7.256441737526694,10.178558262473308
68625000,-17.55,-7.307100856044804,10.147899143955195
68726000,-17.58,-7.359531700168124,10.125468299831875
68826000,-17.6,-7.442133670489466,10.062866329510536
68929000,-17.62,-7.5247028173005495,10.00029718269945
69029000,-17.65,-7.582219976814283,9.972780023185715
69131000,-17.67,-7.640727219166093,9.934272780833908
69232000,-17.7,-7.70006875896548,9.90493124103452
69332000,-17.73,-7.778480927278702,9.856519072721298
69434000,-17.75,-7.8557869010613475,9.799213098938653
69534000,-17.78,-7.9084575655137055,9.776542434486295
69636000,-17.8,-7.9619511895351565,9.743048810464844
69736000,-17.83,-8.017809876262069,9.717190123737929
69837000,-17.85,-8.10960222365652,9.645397776343481
69939000,-17.88,-8.19837994014457,9.586620059855429
70039000,-17.9,-8.231597840536969,9.57340215946303
70141000,-17.92,-8.265297069492815,9.559702930507186
70241000,-17.95,-8.2979848948465,9.557015105153498
70342000,-17.98,-8.324821261733234,9.560178738266766
70443000,-18.0,-8.351904470601264,9.553095529398735
70544000,-18.02,-8.376321570494072,9.548678429505927
70646000,-18.05,-8.401170446159435,9.553829553840565
70746000,-18.08,-8.424831113797326,9.560168886202671
70846000,-18.1,-8.439659169120887,9.565340830879114
70948000,-18.12,-8.453608596186502,9.571391403813498
71049000,-18.15,-8.454376815543533,9.600623184456465
71151000,-18.18,-8.45515793439208,9.629842065607919
71251000,-18.2,-8.454985927561768,9.65001407243823
71352000,-18.23,-8.44427944365173,9.69072055634827
71454000,-18.25,-8.43516624056976,9.719833759430239
71554000,-18.27,-8.445981483759127,9.729018516240872
71656000,-18.3,-8.456990552842635,9.748009447157365
71756000,-18.33,-8.466771204692884,9.768228795307113
71857000,-18.35,-8.465248359294298,9.789751640705703
71959000,-18.38,-8.462676492897756,9.822323507102242
72059000,-18.4,-8.448714367175945,9.856285632824052
72161000,-18.43,-8.434528653237216,9.900471346762783
72261000,-18.45,-8.421167668045149,9.93383233195485
72363000,-18.48,-8.414453125230471,9.970546874769529
72463000,-18.5,-8.40786427040431,9.997135729595689
72564000,-18.53,-8.401541051635832,10.033458948364169
72666000,-18.55,-8.395120900218574,10.059879099781426
72766000,-18.58,-8.389611749384434,10.095388250615564
72868000,-18.6,-8.393550548925386,10.111449451074614
72968000,-18.62,-8.396903913427698,10.128096086572302
73069000,-18.65,-8.394165730421937,10.16083426957806
73171000,-18.68,-8.390610415302268,10.194389584697731
73271000,-18.7,-8.378236168615379,10.22676383138462
73373000,-18.73,-8.365663476795914,10.269336523204085
73473000,-18.75,-8.355216022410163,10.299783977589836
73574000,-18.78,-8.367058348850724,10.317941651149276
73675000,-18.8,-8.379580422788933,10.325419577211067
73776000,-18.83,-8.397716178112594,10.337283821887404
73878000,-18.85,-8.416139861416191,10.33886013858381
73978000,-18.88,-8.433102983416592,10.351897016583406
74078000,-18.9,-8.43594116155778,10.369058838442218
74180000,-18.93,-8.440412498804104,10.394587501195895
74281000,-18.95,-8.462929118098296,10.392070881901702
74383000,-18.98,-8.485800265745393,10.399199734254607
74483000,-19.0,-8.510339307453735,10.394660692546264
74583000,-19.03,-8.558257075536837,10.376742924463164
74685000,-19.05,-8.605015085064519,10.349984914935481
74786000,-19.08,-8.629110532355913,10.355889467644085
74888000,-19.1,-8.653620913809439,10.351379086190562
74988000,-19.12,-8.678967663200057,10.346032336799944
75089000,-19.15,-8.718303788540037,10.33669621145996
75191000,-19.18,-8.757665708893537,10.327334291106462
75292000,-19.2,-8.787615677286512,10.317384322713487
75394000,-19.23,-8.818067976725438,10.316932023274562
75494000,-19.25,-8.850588370179771,10.304411629820228
75594000,-19.28,-8.909273691896184,10.275726308103817
75696000,-19.3,-8.966971247260304,10.238028752739696
75797000,-19.33,-9.00461971895014,10.230380281049857
75898000,-19.35,-9.042887224341868,10.212112775658133
75999000,-19.38,-9.082216247482155,10.202783752517844
76099000,-19.4,-9.140392250782885,10.164607749217113
76201000,-19.43,-9.19797207015172,10.13702792984828
76301000,-19.45,-9.238277192236032,10.116722807763967
76403000,-19.48,-9.279309662688668,10.105690337311332
76504000,-19.5,-9.321481301472115,10.083518698527884
76604000,-19.53,-9.38486389180344,10.050136108196561
76706000,-19.55,-9.446679266726676,10.008320733273324
76806000,-19.58,-9.479251390412456,10.005748609587542
76908000,-19.6,-9.512463801872983,9.992536198127018
77009000,-19.62,-9.546472926314705,9.978527073685296
77112000,-19.65,-9.598133826670008,9.95686617332999
77212000,-19.68,-9.645643602880874,9.939356397119125
77313000,-19.7,-9.667508139470598,9.9374918605294
77415000,-19.73,-9.689710783969522,9.945289216030478
77515000,-19.75,-9.713551819026442,9.941448180973557
77617000,-19.78,-9.757109799011662,9.927890200988339
77717000,-19.8,-9.800963859731011,9.904036140268989
77818000,-19.83,-9.85448551201577,9.880514487984227
77920000,-19.85,-9.906037210264278,9.848962789735722
78020000,-19.88,-9.926210592722802,9.858789407277197
78122000,-19.9,-9.946749775339566,9.858250224660432
78222000,-19.93,-9.967452712009297,9.867547287990702
78323000,-19.95,-9.994089710763781,9.860910289236218
78425000,-19.98,-10.02158007293349,9.86341992706651
78525000,-20.0,-10.05367926095272,9.85132073904728
78627000,-20.0,-10.0862352621717,9.8187647378283
78727000,-20.0,-10.119760501217955,9.785239498782044
78828000,-20.0,-10.170016114681282,9.734983885318718
78929000,-20.0,-10.217817131099164,9.687182868900836
79030000,-20.0,-10.22710823400151,9.67789176599849
79132000,-20.0,-10.23654265916385,9.668457340836149
79232000,-20.0,-10.245284545598015,9.659715454401985
79332000,-20.0,-10.24753729058139,9.65746270941861
79434000,-20.0,-10.249630478534183,9.655369521465817
79534000,-20.0,-10.24935002280491,9.65564997719509
79636000,-20.0,-10.249064658483718,9.655935341516281
79737000,-20.0,-10.24921253531672,9.655787464683279
79837000,-20.0,-10.254438476967739,9.65056152303226
79939000,-20.0,-10.259096438283613,9.645903561716386
80039000,-20.0,-10.255958129456266,9.649041870543734
80141000,-20.0,-10.252769391370746,9.652230608629253
80242000,-20.0,-10.25045524609466,9.65454475390534
80342000,-20.0,-10.257385290025075,9.647614709974924
80444000,-20.0,-10.265545196649871,9.639454803350128
80544000,-20.0,-10.286587407810798,9.618412592189202
80646000,-20.0,-10.307967724821212,9.597032275178787
80746000,-20.0,-10.327793365898406,9.577206634101593
80847000,-20.0,-10.333364637086902,9.571635362913097
80949000,-20.0,-10.3382746762621,9.566725323737899
81049000,-20.0,-10.333964513323481,9.571035486676518
81151000,-20.0,-10.329584317530067,9.575415682469933
81251000,-20.0,-10.324226530189803,9.580773469810197
81352000,-20.0,-10.306750030104492,9.598249969895507
81454000,-20.0,-10.290623763461406,9.614376236538593
81554000,-20.0,-10.293232250218885,9.611767749781114
81656000,-20.0,-10.2958871217278,9.6091128782722
81757000,-20.0,-10.297357242617435,9.607642757382564
81857000,-20.0,-10.286214317067119,9.61878568293288
81959000,-20.0,-10.274850866991716,9.630149133008283
82059000,-20.0,-10.263230678544929,9.64176932145507
82161000,-20.0,-10.25140534547627,9.65359465452373
82262000,-20.0,-10.23854188768911,9.66645811231089
82364000,-20.0,-10.211504042500914,9.693495957499085
82464000,-20.0,-10.185293428420573,9.719706571579426
82565000,-20.0,-10.163274869150095,9.741725130849904
82666000,-20.0,-10.140944287292426,9.764055712707574
82767000,-20.0,-10.12000633723098,9.78499366276902
82869000,-20.0,-10.110392986433302,9.794607013566697
82970000,-20.0,-10.10172716267377,9.80327283732623
83070000,-20.0,-10.100752138470629,9.80424786152937
83172000,-20.0,-10.09895855250762,9.80604144749238
83272000,-20.0,-10.088959648035422,9.816040351964578
83376000,-20.0,-10.078651051710366,9.826348948289633
83476000,-20.0,-10.069426436861166,9.835573563138833
83577000,-20.0,-10.06703643611056,9.837963563889438
83679000,-20.0,-10.065470691033811,9.839529308966188
83779000,-20.0,-10.071913604204727,9.833086395795272
83881000,-20.0,-10.078467674142148,9.826532325857851
83982000,-20.0,-10.083945817837963,9.821054182162037
84082000,-20.0,-10.08055051772844,9.82444948227156
84184000,-20.0,-10.075978391678708,9.829021608321291
84284000,-20.0,-10.060160148333823,9.844839851666176
84387000,-20.0,-10.043937077444726,9.861062922555274
84488000,-20.0,-10.029718296062168,9.875281703937832
84588000,-20.0,-10.030960161894999,9.874039838105
84690000,-20.0,-10.032608348614023,9.872391651385977
84790000,-20.0,-10.038123784104519,9.86687621589548
84892000,-20.0,-10.043730680187679,9.86126931981232
84992000,-20.0,-10.048261826614363,9.856738173385637
85093000,-20.0,-10.04272813759283,9.86227186240717
85195000,-20.0,-10.036732815934021,9.868267184065978
85295000,-20.0,-10.02666818422668,9.87833181577332
85397000,-20.0,-10.016436068508051,9.888563931491948
85497000,-20.0,-10.007468264531628,9.897531735468371
85598000,-20.0,-10.010915830200924,9.894084169799076
85699000,-20.0,-10.015671597249584,9.889328402750415
85800000,-20.0,-10.034978735525819,9.87002126447418
85902000,-20.0,-10.054589971647985,9.850410028352014
86002000,-20.0,-10.07535085837679,9.829649141623209
86102000,-20.0,-10.113396265134385,9.791603734865614
86204000,-20.0,-10.149998580737352,9.755001419262648
86305000,-20.0,-10.16175869517202,9.74324130482798
86407000,-20.0,-10.173712873852493,9.731287126147507
86507000,-20.0,-10.185052003096834,9.719947996903166
86610000,-20.0,-10.191655362312844,9.713344637687156
86711000,-20.0,-10.198405186422027,9.706594813577972
86811000,-20.0,-10.208385782738418,9.696614217261581
86913000,-20.0,-10.218512833148024,9.686487166851975
87013000,-20.0,-10.227643876694927,9.677356123305072
87115000,-20.0,-10.228365459723744,9.676634540276256
87215000,-20.0,-10.229017106380093,9.675982893619906
87316000,-20.0,-10.229088255432456,9.675911744567543
87418000,-20.0,-10.228630690376734,9.676369309623265
87518000,-20.0,-10.222358415640954,9.682641584359045
87620000,-20.0,-10.215979351110343,9.689020648889656
87720000,-20.0,-10.210594021573225,9.694405978426774
87821000,-20.0,-10.215513707993182,9.689486292006817
87922000,-20.0,-10.220571668901162,9.684428331098838
88023000,-20.0,-10.226370090967592,9.678629909032407
88125000,-20.0,-10.23227041616999,9.672729583830009
88225000,-20.0,-10.23787185854638,9.667128141453619
88325000,-20.0,-10.241215509274818,9.663784490725181
88427000,-20.0,-10.24487491552616,9.66012508447384
88528000,-20.0,-10.251540924412728,9.653459075587271
88630000,-16.0,-10.258324605470658,5.646675394529342
88730000,-16.0,-10.264592502970276,5.640407497029725
88830000,-16.0,-10.26635763348347,5.638642366516531
88932000,-16.0,-10.267068695921267,5.637931304078733
89033000,-16.0,-10.255288363899206,5.649711636100794
89135000,-16.0,-10.243351241113178,5.661648758886822
89235000,-16.0,-10.230787803597595,5.674212196402405
89335000,-16.0,-10.209103760723867,5.695896239276133
89437000,-16.0,-10.187666620259405,5.717333379740595
89537000,-16.0,-10.17353234512475,5.73146765487525
89639000,-16.0,-10.159166453090773,5.745833546909227
89739000,-16.0,-10.141333946293747,5.763666053706253
89840000,-16.0,-10.078295148656245,5.826704851343755
89942000,-16.0,-10.013456828134787,5.891543171865213
90042000,-16.0,-9.939182824976898,5.965817175023102
90144000,-16.0,-9.863874600271515,6.041125399728485
90244000,-16.0,-9.784654682026016,6.120345317973984
90345000,-16.0,-9.64532850077943,6.259671499220571
90447000,-16.0,-9.506704792278278,6.3982952077217226
90547000,-16.0,-9.40658598468597,6.49841401531403
90649000,-16.0,-9.304837569027564,6.6001624309724365
90749000,-16.0,-9.199758176714631,6.705241823285369
90850000,-16.0,-9.036657702444254,6.868342297555746
90951000,-16.0,-8.876085274568975,7.028914725431025
91052000,-16.0,-8.776112626423947,7.128887373576053
91154000,-16.0,-8.674729021822918,7.230270978177082
91254000,-16.0,-8.57116843646716,7.333831563532841
91354000,-16.0,-8.424896259376975,7.480103740623025
91456000,-16.0,-8.279619243987717,7.625380756012283
91557000,-16.0,-8.173818612260355,7.731181387739645
91658000,-16.0,-8.06635485970908,7.838645140290921
91759000,-16.0,-7.956467996433711,7.94853200356629
91859000,-16.0,-7.8004904729920685,8.10450952700793
91961000,-16.0,-7.645571063801996,8.259428936198004
92062000,-16.0,-7.539266106139251,8.365733893860748
92164000,-16.0,-7.431251580956059,8.473748419043941
92264000,-16.0,-7.320339561458693,8.584660438541308
92369000,-16.0,-7.150411648454074,8.754588351545925
92470000,-16.0,-6.994513937475621,8.91048606252438
92570000,-16.0,-6.891543061247033,9.013456938752967
92672000,-16.0,-6.787040178165015,9.117959821834985
92772000,-16.0,-6.677436210357995,9.227563789642003
92875000,-16.0,-6.5107077556722315,9.394292244327767
92975000,-16.0,-6.34820436683651,9.55679563316349
93075000,-16.0,-6.189210968528013,9.715789031471987
93179000,-16.0,-6.031681205162926,9.873318794837074
93280000,-16.0,-5.933324745032696,9.971675254967304
93383000,-16.0,-5.831992671268931,10.073007328731068
93484000,-16.0,-5.729184681038222,10.175815318961776
93584000,-16.0,-5.594581807231353,10.310418192768646
93686000,-16.0,-5.462421747679228,10.442578252320772
93787000,-16.0,-5.369249159625202,10.535750840374797
93889000,-16.0,-5.2745783231267875,10.630421676873212
93989000,-16.0,-5.176146746983408,10.728853253016592
94089000,-16.0,-5.031970799089084,10.873029200910915
94191000,-16.0,-4.889381470767168,11.015618529232832
94291000,-16.0,-4.786689375265947,11.118310624734052
94394000,-16.0,-4.6821432891148085,11.22285671088519
94494000,-16.0,-4.576412228295308,11.328587771704692
94594000,-16.0,-4.436037749492614,11.468962250507385
94696000,-16.0,-4.300934787513228,11.604065212486772
94796000,-16.0,-4.252232414655932,11.652767585344067
94898000,-16.0,-4.202794958390962,11.702205041609037
94999000,-16.0,-4.158697206854683,11.746302793145317
95099000,-16.0,-4.168505234642601,11.736494765357397
95201000,-16.0,-4.180486907895255,11.724513092104745
95301000,-16.0,-4.215725892955689,11.68927410704431
95403000,-16.0,-4.251559348625332,11.653440651374668
95504000,-16.0,-4.289369016517419,11.61563098348258
95604000,-16.0,-4.356970608837064,11.548029391162936
95706000,-16.0,-4.4253246834733835,11.479675316526615
95806000,-16.0,-4.4888862903069295,11.41611370969307
95908000,-16.0,-4.553416328456761,11.351583671543239
96008000,-16.0,-4.620126119465369,11.284873880534631
96111000,-16.0,-4.726968931732324,11.178031068267677
96211000,-16.0,-4.83090408451237,11.07409591548763
96311000,-16.0,-4.921871805069755,10.983128194930243
96413000,-16.0,-5.014403327226169,10.89059667277383
96514000,-16.0,-5.108420876076264,10.796579123923737
96615000,-16.0,-5.239124275096133,10.665875724903866
96716000,-16.0,-5.366566170853857,10.538433829146141
96816000,-16.0,-5.48122514173433,10.423774858265668
96918000,-16.0,-5.595257285490414,10.309742714509586
97018000,-16.0,-5.681370820819513,10.223629179180486
97121000,-16.0,-5.769221387631743,10.135778612368258
97221000,-16.0,-5.858561966565127,10.046438033434873
97321000,-16.0,-5.982889912833834,9.922110087166166
97424000,-16.0,-6.105105176509483,9.799894823490517
97524000,-16.0,-6.17669376658164,9.72830623341836
97626000,-16.0,-6.24946350458554,9.65553649541446
97726000,-16.0,-6.324299034763212,9.580700965236788
97827000,-16.0,-6.433728647588468,9.471271352411533
97929000,-16.0,-6.541379229928644,9.363620770071355
98029000,-16.0,-6.610081403425833,9.294918596574165
98131000,-16.0,-6.6798829945543,9.225117005445698
98231000,-16.0,-6.749195257034762,9.155804742965238
98331000,-16.0,-6.825839313509902,9.079160686490097
98433000,-16.0,-6.900375704202476,9.004624295797523
98534000,-16.0,-6.934254735586578,8.970745264413422
98636000,-16.0,-6.968652942364856,8.936347057635144
98736000,-16.0,-7.0038210225657185,8.90117897743428
98836000,-16.02,-7.054282878765643,8.870717121234355
98938000,-16.05,-7.103543554311048,8.851456445688951
99039000,-16.08,-7.1279429297486425,8.857057070251356
99141000,-16.1,-7.152725643392833,8.852274356607168
99241000,-16.12,-7.177239669766532,8.847760330233468
99341000,-16.15,-7.203181349162165,8.851818650837833
99443000,-16.17,-7.226423184673384,8.848576815326618
99544000,-16.2,-7.213688298386198,8.8913117016138
99645000,-16.23,-7.200747722158409,8.93425227784159
99746000,-16.25,-7.185182826904547,8.969817173095452
99846000,-16.27,-7.136651380498855,9.038348619501145
99948000,-16.3,-7.088224799555312,9.116775200444687
100049000,-16.33,-7.050359958097256,9.18464004190274
100151000,-16.35,-7.0119257130978765,9.243074286902123
100251000,-16.38,-6.972194852693202,9.312805147306795
100351000,-16.4,-6.9105780988531595,9.394421901146838
100453000,-16.42,-6.850014495779133,9.474985504220868
100554000,-16.45,-6.812508463904921,9.542491536095078
100656000,-16.48,-6.774381072073346,9.610618927926653
100756000,-16.5,-6.733337387265203,9.671662612734798
100856000,-16.52,-6.653528549791673,9.771471450208326
100959000,-16.55,-6.574678119522636,9.880321880477364
101059000,-16.58,-6.522420021337252,9.962579978662745
101161000,-16.6,-6.469324373668915,10.035675626331086
101261000,-16.62,-6.41566203775073,10.10933796224927
101364000,-16.65,-6.345251267542592,10.209748732457406
101464000,-16.67,-6.279298891350601,10.2957011086494
101564000,-16.7,-6.247520972540946,10.357479027459052
101666000,-16.73,-6.215261768990954,10.419738231009045
101767000,-16.75,-6.182514298501168,10.472485701498831
101869000,-16.77,-6.1385755613583255,10.536424438641673
101969000,-16.8,-6.096353263104599,10.6086467368954
102069000,-16.83,-6.0654047932848565,10.669595206715142
102171000,-16.85,-6.035127086036144,10.719872913963856
102272000,-16.88,-6.017755407439237,10.767244592560761
102374000,-16.9,-6.000060653898863,10.804939346101134
102474000,-16.92,-5.983270461863275,10.841729538136727
102574000,-16.95,-5.97302911441198,10.88197088558802
102676000,-16.98,-5.964018325859635,10.920981674140366
102777000,-17.0,-5.970482319785721,10.93451768021428
102879000,-17.03,-5.977050400971208,10.957949599028792
102979000,-17.05,-5.985950151761565,10.969049848238436
103079000,-17.08,-6.022348712870129,10.962651287129868
103181000,-17.1,-6.0602412225005935,10.944758777499407
103282000,-17.12,-6.10768340276816,10.91731659723184
103386000,-17.15,-6.156967601652947,10.89803239834705
103487000,-17.17,-6.207279433043472,10.86772056695653
103587000,-17.2,-6.281478324180808,10.82352167581919
103689000,-17.23,-6.354999435142252,10.780000564857747
103789000,-17.25,-6.411637662047267,10.743362337952734
103891000,-17.28,-6.469270415746532,10.715729584253468
103991000,-17.3,-6.529787787822199,10.6752122121778
104092000,-17.33,-6.623609425191595,10.611390574808402
104194000,-17.35,-6.715493181380728,10.539506818619273
104294000,-17.38,-6.7708603129522285,10.51413968704777
104396000,-17.4,-6.82709326527292,10.477906734727078
104496000,-17.42,-6.884729454194046,10.440270545805955
104597000,-17.45,-6.967804164227028,10.387195835772971
104699000,-17.48,-7.050448031861544,10.334551968138456
104799000,-17.5,-7.112045549827975,10.292954450172024
104901000,-17.53,-7.174640957538015,10.260359042461985
105002000,-17.55,-7.238203880971272,10.216796119028727
105102000,-17.58,-7.324681280930128,10.160318719069869
105204000,-17.6,-7.409715786571576,10.095284213428425
105304000,-17.62,-7.46396180717862,10.06103819282138
105406000,-17.65,-7.519046432662907,10.03595356733709
105506000,-17.67,-7.577029728416342,9.99797027158366
105607000,-17.7,-7.678013542507452,9.926986457492546
105709000,-17.73,-7.77759515470702,9.85740484529298
105809000,-17.75,-7.842518549478859,9.81248145052114
105911000,-17.78,-7.908500405734603,9.776499594265397
106011000,-17.8,-7.973301337282836,9.731698662717164
106113000,-17.83,-8.037771952696671,9.697228047303327
106214000,-17.85,-8.098747380215904,9.656252619784096
106314000,-17.88,-8.1316406309356,9.653359369064399
106416000,-17.9,-8.165060053613315,9.639939946386683
106516000,-17.92,-8.198317038026344,9.626682961973657
106618000,-17.95,-8.236376297101788,9.61862370289821
106718000,-17.98,-8.274365463671312,9.610634536328687
106819000,-18.0,-8.318138132904787,9.586861867095212
106921000,-18.02,-8.36145822279807,9.563541777201928
107021000,-18.05,-8.391063827344063,9.563936172655938
107123000,-18.08,-8.421144768495777,9.56385523150422
107223000,-18.1,-8.451280585641804,9.553719414358197
107324000,-18.12,-8.487705138817438,9.537294861182563
107426000,-18.15,-8.523166666929676,9.531833333070322
107527000,-18.18,-8.538214305913172,9.546785694086827
107629000,-18.2,-8.553491068635333,9.551508931364666
107729000,-18.23,-8.567843031927078,9.567156968072922
107829000,-18.25,-8.575067595168537,9.579932404831462
107931000,-18.27,-8.58188187430714,9.59311812569286
108031000,-18.3,-8.583147339565784,9.621852660434216
108133000,-18.33,-8.584434300739783,9.650565699260214
108234000,-18.35,-8.585914494258327,9.669085505741673
108334000,-18.38,-8.589798307666673,9.695201692333326
108436000,-18.4,-8.592172833176505,9.712827166823493
108536000,-18.43,-8.576109082570648,9.758890917429351
108638000,-18.45,-8.559809342213809,9.79519065778619
108739000,-18.48,-8.542548248320497,9.842451751679503
108839000,-18.5,-8.5112043144518,9.893795685548199
108941000,-18.53,-8.480902547032981,9.95409745296702
109041000,-18.55,-8.469386572967288,9.985613427032712
109143000,-18.58,-8.457691636213932,10.027308363786066
109243000,-18.6,-8.446003445244033,10.058996554755968
109344000,-18.62,-8.432136747616013,10.092863252383987
109446000,-18.65,-8.418359478354594,10.136640521645404
109546000,-18.68,-8.408466992185026,10.176533007814973
109648000,-18.7,-8.398421523363945,10.206578476636054
109748000,-18.73,-8.389411551510097,10.245588448489903
109848000,-18.75,-8.390969442051055,10.264030557948944
109950000,-18.78,-8.39265028887189,10.29234971112811
110051000,-18.8,-8.395444081158939,10.309555918841061
110153000,-18.83,-8.398280103285812,10.336719896714186
110253000,-18.85,-8.400204452996478,10.354795547003523
110354000,-18.88,-8.392340293960935,10.392659706039064
110455000,-18.9,-8.386298724035193,10.418701275964805
110556000,-18.93,-8.402056712724956,10.432943287275043
110658000,-18.95,-8.418064617743937,10.436935382256062
110758000,-18.98,-8.436256972733094,10.448743027266906
110860000,-19.0,-8.482721713220831,10.422278286779168
110960000,-19.03,-8.52654169319881,10.40845830680119
111061000,-19.05,-8.547117592654235,10.407882407345765
111163000,-19.08,-8.567975819290304,10.417024180709694
111263000,-19.1,-8.58943680528284,10.41556319471716
111365000,-19.12,-8.622201704467841,10.40279829553216
111465000,-19.15,-8.655648949250242,10.399351050749756
111566000,-19.18,-8.703065963499402,10.381934036500597
111667000,-19.2,-8.749819061336103,10.355180938663896
111768000,-19.23,-8.779677303550024,10.355322696449976
111870000,-19.25,-8.810026228951067,10.344973771048933
111970000,-19.28,-8.841070983078973,10.343929016921027
112071000,-19.3,-8.885545361935321,10.319454638064679
112173000,-19.33,-8.929757521870954,10.305242478129044
112273000,-19.35,-8.962546607459142,10.292453392540859
112375000,-19.38,-8.995868591076183,10.289131408923815
112475000,-19.4,-9.031348736406104,10.273651263593894
112576000,-19.43,-9.09668405074054,10.238315949259459
112678000,-19.45,-9.161467703973505,10.193532296026493
112778000,-19.48,-9.206381617453067,10.178618382546933
112880000,-19.5,-9.25199215367685,10.153007846323149
112980000,-19.53,-9.298267134772896,10.136732865227104
113081000,-19.55,-9.360309454501543,10.094690545498457
113183000,-19.58,-9.420724733529337,10.064275266470661
113283000,-19.6,-9.449243906318234,10.055756093681767
113385000,-19.62,-9.478267449780905,10.046732550219096
113486000,-19.65,-9.51016724288913,10.044832757110868
113586000,-19.68,-9.579123573925568,10.005876426074432
113688000,-19.7,-9.647391400145604,9.957608599854394
113788000,-19.73,-9.695044501310518,9.939955498689482
113891000,-19.75,-9.74361608962204,9.911383910377959
113991000,-19.78,-9.79053849082763,9.89446150917237
114091000,-19.8,-9.82959963707423,9.87540036292577
114193000,-19.83,-9.868888899688294,9.866111100311704
114294000,-19.85,-9.903454555424808,9.851545444575192
114396000,-19.88,-9.938589153259004,9.846410846740994
114496000,-19.9,-9.972971831228604,9.832028168771394
114596000,-19.93,-10.00548712417913,9.82951287582087
114698000,-19.95,-10.036768915430475,9.818231084569524
114798000,-19.98,-10.04879746978473,9.83620253021527
114900000,-20.0,-10.06101603356148,9.84398396643852
115000000,-20.0,-10.075080864639085,9.829919135360914
115101000,-20.0,-10.113927890899902,9.791072109100098
115203000,-20.0,-10.152979329667934,9.752020670332065
115303000,-20.0,-10.187065803941529,9.71793419605847
115406000,-20.0,-10.221886149066625,9.683113850933374
115506000,-20.0,-10.256254664856591,9.648745335143408
115606000,-20.0,-10.293538684201646,9.611461315798353
115708000,-20.0,-10.328808450081896,9.576191549918104
115809000,-20.0,-10.335910555823576,9.569089444176424
115910000,-20.0,-10.34312189254344,9.56187810745656
116011000,-20.0,-10.349016756979712,9.555983243020288
116113000,-20.0,-10.3419871153313,9.5630128846687
116213000,-20.0,-10.335757410634885,9.569242589365114
116313000,-20.0,-10.337095549798912,9.567904450201087
116416000,-20.0,-10.33846028474354,9.566539715256459
116516000,-20.0,-10.340332932484506,9.564667067515494
116619000,-20.0,-10.348248573850661,9.556751426149338
116719000,-20.0,-10.356836647145425,9.548163352854575
116820000,-20.0,-10.373872035059634,9.531127964940366
116922000,-20.0,-10.389147936280139,9.51585206371986
117023000,-20.0,-10.384738189157,9.520261810843
117125000,-20.0,-10.380236681827215,9.524763318172784
117226000,-20.0,-10.372593247212846,9.532406752787153
117326000,-20.0,-10.337282300915884,9.567717699084115
117428000,-20.0,-10.303578041337712,9.601421958662288
117528000,-20.0,-10.290739851809793,9.614260148190207
117630000,-20.0,-10.277693572717872,9.627306427282127
117730000,-20.0,-10.266921489125087,9.638078510874912
117831000,-20.0,-10.277863108020966,9.627136891979033
117931000,-20.0,-10.287817460275054,9.617182539724945
118032000,-20.0,-10.283396131847674,9.621603868152325
118132000,-20.0,-10.278975097488662,9.626024902511338
118232000,-20.0,-10.273771888215869,9.63122811178413
118333000,-20.0,-10.25359815561194,9.65140184438806
118433000,-20.0,-10.234123229980469,9.67087677001953
118533000,-20.0,-10.234123229980469,9.67087677001953
118634000,-20.0,-10.234123229980469,9.67087677001953
118734000,-20.0,-10.234123229980469,9.67087677001953
118835000,-20.0,-10.234123229980469,9.67087677001953
118935000,-20.0,-10.234123229980469,9.67087677001953
119035000,-20.0,-10.234123229980469,9.67087677001953
119136000,-20.0,-10.234123229980469,9.67087677001953
119236000,-20.0,-10.234123229980469,9.67087677001953
119336000,-20.0,-10.234123229980469,9.67087677001953
119437000,-20.0,-10.234123229980469,9.67087677001953
119537000,-20.0,-10.234123229980469,9.67087677001953
119637000,-20.0,-10.234123229980469,9.67087677001953
119738000,-20.0,-10.234123229980469,9.67087677001953
119838000,-20.0,-10.234123229980469,9.67087677001953
