TimeUS,terrain_z,sub_z,rf
42109000,-20.0,-10.4132402029461,9.491759797053898
42210000,-20.0,-10.412223971230013,9.492776028769986
42310000,-20.0,-10.4132760306102,9.491723969389799
42412000,-20.0,-10.414098273489769,9.49090172651023
42513000,-20.0,-10.408694486478062,9.496305513521937
42615000,-20.0,-10.403194940477228,9.501805059522772
42715000,-20.0,-10.39868726294739,9.506312737052609
42815000,-20.0,-10.394896874720104,9.510103125279896
42917000,-20.0,-10.390722799625383,9.514277200374616
43018000,-20.0,-10.383091056915713,9.521908943084286
43120000,-20.0,-10.375323259226796,9.529676740773203
43220000,-20.0,-10.368122891309037,9.536877108690963
43320000,-20.0,-10.365850335744486,9.539149664255513
43422000,-20.0,-10.362800141904964,9.542199858095035
43523000,-20.0,-10.351360685968052,9.553639314031948
43624000,-20.0,-10.33973085206654,9.56526914793346
43725000,-20.0,-10.327677829716304,9.577322170283695
43825000,-20.0,-10.30865323602333,9.596346763976669
43927000,-20.0,-10.289714399970546,9.615285600029454
44028000,-20.0,-10.275725742642363,9.629274257357636
44135000,-20.0,-10.260772564518136,9.644227435481863
44236000,-20.0,-10.244353709443246,9.660646290556754
44337000,-20.0,-10.213074797793373,9.691925202206626
44439000,-20.0,-10.184268703543262,9.720731296456737
44539000,-20.0,-10.173853110898248,9.731146889101751
44643000,-20.0,-10.163101717482485,9.741898282517514
44743000,-20.0,-10.156913996560089,9.74808600343991
44844000,-20.0,-10.172723951269266,9.732276048730734
44948000,-20.0,-10.188064683508035,9.716935316491965
45049000,-20.0,-10.196493143157838,9.708506856842162
45153000,-20.0,-10.20518477060807,9.699815229391929
45254000,-20.0,-10.211257423821122,9.693742576178877
45355000,-20.0,-10.204472824878438,9.700527175121561
45457000,-20.0,-10.19834293466398,9.70665706533602
45557000,-20.0,-10.196746336811431,9.708253663188568
45659000,-20.0,-10.19512375993374,9.70987624006626
45759000,-20.0,-10.195884524312511,9.709115475687488
45861000,-20.0,-10.214081421666322,9.690918578333678
45961000,-20.0,-10.231816316732107,9.673183683267892
46062000,-20.0,-10.247981233291627,9.657018766708372
46164000,-20.0,-10.264382394069077,9.640617605930922
46264000,-20.0,-10.281008769790422,9.623991230209578
46366000,-20.0,-10.303575243397743,9.601424756602256
46466000,-20.0,-10.326848003754295,9.578151996245705
46566000,-20.0,-10.362369477616387,9.542630522383613
46668000,-20.0,-10.396052818983419,9.50894718101658
46769000,-20.0,-10.40124186856999,9.50375813143001
46871000,-20.0,-10.406560356330901,9.498439643669098
46972000,-20.0,-10.410273554900659,9.49472644509934
47072000,-20.0,-10.398303149829745,9.506696850170254
47174000,-20.0,-10.388373348171955,9.516626651828044
47274000,-20.0,-10.402037568952936,9.502962431047063
47376000,-20.0,-10.41593717528836,9.48906282471164
47477000,-20.0,-10.430792259635707,9.474207740364292
47577000,-20.0,-10.458153927254203,9.446846072745796
47679000,-20.0,-10.48409625527605,9.42090374472395
47779000,-20.0,-10.48892158840238,9.416078411597619
47881000,-20.0,-10.493825903711274,9.411174096288725
47981000,-20.0,-10.498698394489502,9.406301605510498
48082000,-20.0,-10.504134140229125,9.400865859770875
48184000,-20.0,-10.509511607968236,9.395488392031764
48284000,-20.0,-10.513199141133605,9.391800858866395
48386000,-20.0,-10.51694375807735,9.38805624192265
48486000,-20.0,-10.520303325141592,9.384696674858407
48586000,-20.0,-10.51970352029128,9.38529647970872
48688000,-20.0,-10.518144583890258,9.386855416109741
48788000,-20.0,-10.504968703649812,9.400031296350187
48890000,-20.0,-10.491585045828991,9.413414954171008
48991000,-20.0,-10.478491777096341,9.426508222903658
49091000,-20.0,-10.466414334319706,9.438585665680293
49193000,-20.0,-10.45415561922895,9.450844380771048
49293000,-20.0,-10.442002000163413,9.462997999836587
49395000,-20.0,-10.429644766972501,9.475355233027498
49495000,-20.0,-10.417417303494647,9.487582696505353
49596000,-20.0,-10.404286656252284,9.500713343747716
49697000,-20.0,-10.39170860841667,9.51329139158333
49798000,-20.0,-10.38844126083197,9.51655873916803
49900000,-20.0,-10.385120513030833,9.519879486969167
50000000,-20.0,-10.382232847511153,9.522767152488846
50100000,-20.0,-10.383972891717011,9.521027108282988
50202000,-20.0,-10.385842242776782,9.519157757223217
50302000,-20.0,-10.388962495304746,9.516037504695253
50404000,-20.0,-10.392135969114458,9.512864030885542
50505000,-20.0,-10.394620668473362,9.510379331526638
50605000,-20.0,-10.389482001009203,9.515517998990797
50707000,-20.0,-10.384229180076995,9.520770819923005
50807000,-20.0,-10.378633239958257,9.526366760041743
50909000,-20.0,-10.372949724048274,9.532050275951725
51009000,-20.0,-10.366680851888711,9.538319148111288
51111000,-20.0,-10.352029504142084,9.552970495857915
51212000,-20.0,-10.337972107157242,9.567027892842757
51312000,-20.0,-10.328309756123106,9.576690243876893
51414000,-20.0,-10.318489585258263,9.586510414741737
51514000,-20.0,-10.310292796312867,9.594707203687133
51616000,-20.0,-10.31905014492072,9.58594985507928
51717000,-20.0,-10.32877133661553,9.57622866338447
51817000,-20.0,-10.351106260419376,9.553893739580623
51919000,-20.0,-10.372228922254566,9.532771077745434
52019000,-20.0,-10.375229098824859,9.52977090117514
52121000,-20.0,-10.378277207986656,9.526722792013343
52221000,-16.0,-10.380131091617065,5.524868908382936
52322000,-16.0,-10.368481111219657,5.536518888780344
52424000,-16.0,-10.358023038124639,5.5469769618753615
52524000,-16.0,-10.364317046975906,5.540682953024095
52626000,-16.0,-10.370714853211648,5.534285146788352
52726000,-16.0,-10.375982429801025,5.529017570198975
52827000,-16.0,-10.36899133139092,5.536008668609081
52928000,-16.0,-10.36239558005484,5.542604419945159
53029000,-16.0,-10.36195504476456,5.54304495523544
53131000,-16.0,-10.36150816317243,5.543491836827569
53231000,-16.0,-10.359283093129305,5.5457169068706955
53332000,-16.0,-10.336584381026404,5.568415618973597
53434000,-16.0,-10.310537900303553,5.594462099696448
53534000,-16.0,-10.250661093385368,5.654338906614632
53636000,-16.0,-10.189829931481533,5.715170068518467
53736000,-16.0,-10.123489620506795,5.781510379493205
53836000,-16.0,-9.9825027153621,5.9224972846379
53938000,-16.0,-9.841441380178052,6.063558619821948
54039000,-16.0,-9.729196209335814,6.175803790664186
54141000,-16.0,-9.615435824020562,6.2895641759794385
54241000,-16.0,-9.49783935943547,6.40716064056453
54341000,-16.0,-9.313385459340436,6.591614540659564
54443000,-16.0,-9.131416644249153,6.773583355750847
54543000,-16.0,-9.01445342730847,6.890546572691529
54645000,-16.0,-8.895755619384197,7.009244380615804
54745000,-16.0,-8.776280592788394,7.128719407211606
54846000,-16.0,-8.626357660490598,7.278642339509402
54947000,-16.0,-8.478068716955994,7.426931283044007
55048000,-16.0,-8.380696292860039,7.524303707139961
55150000,-16.0,-8.281923304124032,7.623076695875969
55250000,-16.0,-8.181439452114734,7.723560547885266
55350000,-16.0,-8.041097021719697,7.863902978280303
55452000,-16.0,-7.901207218692453,8.003792781307547
55553000,-16.0,-7.795570214468391,8.109429785531608
55654000,-16.0,-7.688319996469646,8.216680003530353
55755000,-16.0,-7.578779731771738,8.32622026822826
55855000,-16.0,-7.421568868118718,8.48343113188128
55957000,-16.0,-7.265755763593079,8.63924423640692
56057000,-16.0,-7.159304561376749,8.74569543862325
56159000,-16.0,-7.0513108006434555,8.853689199356543
56259000,-16.0,-6.9414095713322475,8.963590428667752
56361000,-16.0,-6.78667302705278,9.11832697294722
56462000,-16.0,-6.637797897500412,9.267202102499587
56562000,-16.0,-6.539711505381678,9.365288494618321
56664000,-16.0,-6.4401064961239305,9.464893503876068
56764000,-16.0,-6.337469994355351,9.567530005644647
56866000,-16.0,-6.176326135073697,9.728673864926302
56966000,-16.0,-6.0178766852596866,9.887123314740313
57067000,-16.0,-5.863534849358462,10.041465150641537
57170000,-16.0,-5.708889369959488,10.196110630040511
57270000,-16.0,-5.60023456661768,10.30476543338232
57373000,-16.0,-5.489640739010574,10.415359260989424
57473000,-16.0,-5.376666195939384,10.528333804060615
57573000,-16.0,-5.222459509870143,10.682540490129856
57675000,-16.0,-5.070754951240977,10.834245048759023
57775000,-16.0,-4.966198019795701,10.938801980204298
57877000,-16.0,-4.860027725736889,11.044972274263111
57978000,-16.0,-4.755718390456306,11.149281609543694
58078000,-16.0,-4.653850858578272,11.251149141421728
58180000,-16.0,-4.557855683106365,11.347144316893635
58280000,-16.0,-4.549976438229841,11.355023561770158
58382000,-16.0,-4.5419772105553715,11.363022789444628
58482000,-16.0,-4.537587562649795,11.367412437350206
58583000,-16.0,-4.575675119780258,11.329324880219742
58684000,-16.0,-4.614834531764624,11.290165468235374
58785000,-16.0,-4.659602384312985,11.245397615687015
58886000,-16.0,-4.70511275185767,11.19988724814233
58987000,-16.0,-4.753313144264165,11.151686855735834
59087000,-16.0,-4.844026758683363,11.060973241316637
59189000,-16.0,-4.935059227689387,10.969940772310613
59289000,-16.0,-5.012340285852232,10.892659714147767
59391000,-16.0,-5.090838796794507,10.814161203205492
59491000,-16.0,-5.170458663703657,10.734541336296342
59592000,-16.0,-5.278469885976215,10.626530114023785
59694000,-16.0,-5.385421442439349,10.519578557560651
59794000,-16.0,-5.458951699097595,10.446048300902405
59896000,-16.0,-5.533624228640935,10.371375771359064
59996000,-16.0,-5.610966650886075,10.294033349113924
60096000,-16.0,-5.735743654700288,10.169256345299711
60198000,-16.0,-5.859606266287882,10.045393733712118
60299000,-16.0,-5.949867923823366,9.955132076176634
60400000,-16.0,-6.041513336943516,9.863486663056483
60501000,-16.0,-6.134992010872066,9.770007989127933
60601000,-16.0,-6.268413768962592,9.636586231037407
60703000,-16.0,-6.399647542245993,9.505352457754006
60803000,-16.0,-6.4753661733204755,9.429633826679524
60905000,-16.0,-6.552205279460248,9.352794720539752
61005000,-16.0,-6.631138441708671,9.273861558291328
61108000,-16.0,-6.755382589138828,9.14961741086117
61209000,-16.0,-6.870746904977021,9.034253095022978
61309000,-16.0,-6.931525229917393,8.973474770082605
61411000,-16.0,-6.993267214625314,8.911732785374685
61511000,-16.0,-7.05518281720978,8.84981718279022
61613000,-16.0,-7.130178297434059,8.77482170256594
61714000,-16.0,-7.2018738569596366,8.703126143040363
61814000,-16.0,-7.253174278255615,8.651825721744386
61916000,-16.0,-7.3026914313789835,8.602308568621016
62016000,-16.0,-7.322409564392601,8.582590435607399
62118000,-16.0,-7.3424522450531065,8.562547754946893
62218000,-16.0,-7.3598990973816445,8.545100902618355
62318000,-16.0,-7.350436002872617,8.554563997127383
62420000,-16.02,-7.3407011413090135,8.584298858690985
62521000,-16.05,-7.329776053978808,8.625223946021192
62623000,-16.08,-7.318673514692594,8.666326485307403
62723000,-16.1,-7.304957682085488,8.700042317914514
62823000,-16.12,-7.258364049309928,8.766635950690072
62925000,-16.15,-7.211043596607905,8.843956403392093
63026000,-16.17,-7.164433104235819,8.910566895764182
63128000,-16.2,-7.11718109481789,8.987818905182108
63228000,-16.23,-7.068512852711175,9.066487147288825
63328000,-16.25,-6.9959174073039305,9.159082592696068
63431000,-16.27,-6.924036751226765,9.250963248773234
63531000,-16.3,-6.877343169013755,9.327656830986244
63633000,-16.33,-6.829927739062199,9.405072260937798
63733000,-16.35,-6.780016206631236,9.474983793368764
63834000,-16.38,-6.695477977876574,9.589522022123424
63937000,-16.4,-6.610763255315013,9.694236744684984
64037000,-16.42,-6.550847176251775,9.774152823748226
64139000,-16.45,-6.490081389162349,9.86491861083765
64240000,-16.48,-6.429579504180459,9.95542049581954
64340000,-16.5,-6.362672607142493,10.042327392857507
64442000,-16.52,-6.299436422602991,10.125563577397008
64542000,-16.55,-6.28294148492881,10.17205851507119
64644000,-16.58,-6.266182480851357,10.218817519148642
64744000,-16.6,-6.249517086886193,10.255482913113807
64845000,-16.62,-6.230951564839353,10.294048435160647
64947000,-16.65,-6.2130251173192255,10.341974882680772
65047000,-16.67,-6.2061481112782815,10.36885188872172
65149000,-16.7,-6.199171393738231,10.405828606261768
65249000,-16.73,-6.1917653030966235,10.443234696903376
65349000,-16.75,-6.178011591375687,10.476988408624313
65451000,-16.77,-6.166102267788172,10.508897732211826
65552000,-16.8,-6.178504368742765,10.526495631257236
65655000,-16.83,-6.1913058965141445,10.543694103485853
65756000,-16.85,-6.204406986839397,10.550593013160602
65856000,-16.88,-6.2240847835326765,10.560915216467322
65959000,-16.9,-6.245241279189655,10.559758720810342
66060000,-16.92,-6.273014368044025,10.551985631955976
66163000,-16.95,-6.30159848082977,10.553401519170228
66264000,-16.98,-6.333908882942985,10.551091117057014
66367000,-17.0,-6.3997516516388115,10.505248348361187
66468000,-17.03,-6.4610255870058,10.4739744129942
66568000,-17.05,-6.50484161974026,10.45015838025974
66671000,-17.08,-6.550019931327239,10.43498006867276
66772000,-17.1,-6.598979224429609,10.406020775570392
66874000,-17.12,-6.683447881723306,10.341552118276693
66974000,-17.15,-6.769789567838938,10.28521043216106
67074000,-17.17,-6.880863259404629,10.194136740595372
67176000,-17.2,-6.989071941087042,10.115928058912957
67277000,-17.23,-7.054805865798659,10.08019413420134
67379000,-17.25,-7.1221836270278684,10.03281637297213
67480000,-17.28,-7.190891865550231,9.99410813444977
67580000,-17.3,-7.288849731113312,9.916150268886687
67682000,-17.33,-7.384126280680397,9.8508737193196
67782000,-17.35,-7.433859322748502,9.821140677251499
67884000,-17.38,-7.48438037442424,9.800619625575758
67984000,-17.4,-7.536474089154957,9.76852591084504
68085000,-17.42,-7.614945515150118,9.710054484849882
68188000,-17.45,-7.693470719621203,9.661529280378796
68289000,-17.48,-7.748027631995597,9.636972368004402
68391000,-17.5,-7.803467591079,9.601532408920999
68491000,-17.53,-7.8578703799876,9.577129620012402
68591000,-17.55,-7.910925576791375,9.544074423208626
68693000,-17.58,-7.963164149497651,9.521835850502347
68793000,-17.6,-7.999370343321349,9.505629656678652
68895000,-17.62,-8.036145312271481,9.48885468772852
68996000,-17.65,-8.073715038117601,9.481284961882396
69096000,-17.67,-8.126442585960742,9.448557414039259
69198000,-17.7,-8.177878488425108,9.42712151157489
69298000,-17.73,-8.204678167232107,9.430321832767893
69400000,-17.75,-8.231905457099266,9.423094542900733
69500000,-17.78,-8.259556233380607,9.425443766619393
69601000,-17.8,-8.29737375276998,9.40762624723002
69703000,-17.83,-8.335673724813391,9.399326275186606
69803000,-17.85,-8.372126925583093,9.382873074416908
69905000,-17.88,-8.409150561567857,9.375849438432141
70005000,-17.9,-8.443441378057026,9.361558621942972
70106000,-17.92,-8.451804484429791,9.37319551557021
70207000,-17.95,-8.458961627506998,9.396038372493
70308000,-17.98,-8.450463867168104,9.434536132831896
70410000,-18.0,-8.441841509079383,9.463158490920616
70510000,-18.02,-8.434339204583335,9.490660795416664
70612000,-18.05,-8.43848959665813,9.51651040334187
70712000,-18.08,-8.441609059868387,9.54339094013161
70813000,-18.1,-8.433418502041228,9.571581497958773
70915000,-18.12,-8.425092485242974,9.599907514757026
71015000,-18.15,-8.416159403760878,9.63884059623912
71117000,-18.18,-8.398214749368178,9.686785250631821
71217000,-18.2,-8.380289638819075,9.724710361180923
71318000,-18.23,-8.359244577916748,9.775755422083252
71420000,-18.25,-8.340374337462631,9.814625662537368
71520000,-18.27,-8.350381881741008,9.824618118258991
71622000,-18.3,-8.360547875631626,9.844452124368374
71722000,-18.33,-8.370003036564222,9.864996963435775
71823000,-18.35,-8.373084214717405,9.881915785282596
71924000,-18.38,-8.37531358160532,9.909686418394678
72025000,-18.4,-8.36728484381926,9.937715156180738
72127000,-18.43,-8.35912019198627,9.97587980801373
72227000,-18.45,-8.35272041994033,10.00227958005967
72327000,-18.48,-8.364620645924095,10.020379354075905
72430000,-18.5,-8.376503708010294,10.028496291989706
72530000,-18.53,-8.385262816459859,10.049737183540142
72632000,-18.55,-8.394159391584807,10.060840608415193
72733000,-18.58,-8.404858458078298,10.0801415419217
72833000,-18.6,-8.43673930475463,10.068260695245371
72935000,-18.62,-8.467874173392282,10.057125826607718
73035000,-18.65,-8.484796476253539,10.070203523746459
73137000,-18.68,-8.501963111421597,10.083036888578402
73238000,-18.7,-8.518799801208086,10.086200198791913
73338000,-18.73,-8.534855141134623,10.100144858865377
73440000,-18.75,-8.55227231727967,10.10272768272033
73540000,-18.78,-8.582155468335433,10.102844531664568
73643000,-18.8,-8.612698027008324,10.092301972991676
73743000,-18.83,-8.644756291269452,10.090243708730545
73844000,-18.85,-8.700134366423725,10.054865633576275
73951000,-18.88,-8.754627864173504,10.030372135826495
74052000,-18.9,-8.775789141681269,10.029210858318729
74164000,-18.93,-8.799191556322896,10.035808443677103
74264000,-18.95,-8.829831607002644,10.025168392997355
74380000,-18.98,-8.898041839887053,9.986958160112946
74480000,-19.0,-8.952325547192878,9.952674452807122
74581000,-19.03,-8.997645528921947,9.937354471078054
74688000,-19.05,-9.045780028048872,9.909219971951128
74789000,-19.08,-9.092786021851268,9.89221397814873
74896000,-19.1,-9.14564534839174,9.85935465160826
74996000,-19.12,-9.19403476543114,9.830965234568861
75097000,-19.15,-9.240294416814802,9.814705583185196
75200000,-19.18,-9.284065348492959,9.80093465150704
75301000,-19.2,-9.31558287179288,9.789417128207118
75403000,-19.23,-9.347734053291985,9.787265946708015
75504000,-19.25,-9.38337963920477,9.771620360795229
75604000,-19.28,-9.438143919011583,9.746856080988417
75706000,-19.3,-9.491150502283856,9.713849497716144
75806000,-19.33,-9.523469575182359,9.711530424817639
75908000,-19.35,-9.556283223886357,9.698716776113644
76008000,-19.38,-9.589742926789166,9.695257073210833
76109000,-19.4,-9.635472570543334,9.669527429456664
76211000,-19.43,-9.680063562796793,9.654936437203206
76311000,-19.45,-9.709446458420285,9.645553541579714
76413000,-19.48,-9.739328961695994,9.645671038304005
76513000,-19.5,-9.769739874076215,9.635260125923784
76616000,-19.53,-9.813090626782168,9.621909373217832
76716000,-19.55,-9.853298979022341,9.601701020977659
76816000,-19.58,-9.869475444316397,9.615524555683601
76918000,-19.6,-9.885916210466531,9.61908378953347
77019000,-19.62,-9.90258737211926,9.62241262788074
77121000,-19.65,-9.924810477773976,9.630189522226022
77221000,-19.68,-9.945174021857111,9.639825978142888
77321000,-19.7,-9.949766460844867,9.655233539155132
77423000,-19.73,-9.95496369196435,9.68003630803565
77524000,-19.75,-9.965960255311678,9.689039744688321
77626000,-19.78,-9.977129453227686,9.707870546772314
77726000,-19.8,-9.989653481464662,9.715346518535338
77826000,-19.83,-10.020114408985576,9.714885591014422
77928000,-19.85,-10.049156605973366,9.705843394026635
78029000,-19.88,-10.056081259956237,9.728918740043762
78131000,-19.9,-10.063104719394795,9.741895280605203
78231000,-19.93,-10.070133536638654,9.764866463361345
78331000,-19.95,-10.078517671680718,9.77648232831928
78433000,-19.98,-10.088271499559253,9.796728500440747
78534000,-20.0,-10.111930515710537,9.793069484289463
78636000,-20.0,-10.13600214337707,9.76899785662293
78736000,-20.0,-10.161222872954045,9.743777127045954
78836000,-20.0,-10.203704535957293,9.701295464042706
78938000,-20.0,-10.243964996120106,9.661035003879894
79039000,-20.0,-10.250428922376415,9.654571077623585
79140000,-20.0,-10.256989352402636,9.648010647597363
79241000,-20.0,-10.263184326237921,9.641815673762078
79341000,-20.0,-10.266359893241308,9.638640106758691
79444000,-20.0,-10.269708673690475,9.635291326309524
79544000,-20.0,-10.27414653275194,9.630853467248059
79646000,-20.0,-10.278648748346425,9.626351251653574
79746000,-20.0,-10.284092788060768,9.620907211939231
79846000,-20.0,-10.300773935853396,9.604226064146603
79948000,-20.0,-10.316709997565898,9.588290002434102
80049000,-20.0,-10.321065633730438,9.583934366269562
80150000,-20.0,-10.32548470500373,9.57951529499627
80251000,-20.0,-10.33106110426828,9.57393889573172
80351000,-20.0,-10.3513978714786,9.5536021285214
80454000,-20.0,-10.373041850927867,9.531958149072132
80554000,-20.0,-10.403765883610427,9.501234116389572
80656000,-20.0,-10.434947869600755,9.470052130399244
80756000,-20.0,-10.465139744171115,9.439860255828885
80859000,-20.0,-10.49027283681733,9.41472716318267
80960000,-20.0,-10.513560920617616,9.391439079382383
81061000,-20.0,-10.522154536036378,9.382845463963621
81162000,-20.0,-10.530870503738,9.374129496261999
81263000,-20.0,-10.538462327317598,9.366537672682401
81365000,-20.0,-10.536951646249543,9.368048353750456
81465000,-20.0,-10.536731708432074,9.368268291567926
81565000,-20.0,-10.54869111365398,9.356308886346019
81667000,-20.0,-10.560843504650979,9.34415649534902
81768000,-20.0,-10.5719315500528,9.333068449947199
81869000,-20.0,-10.573101969976342,9.331898030023657
81970000,-20.0,-10.5735761491637,9.3314238508363
82070000,-20.0,-10.565904682481131,9.339095317518868
82172000,-20.0,-10.557662815864933,9.347337184135066
82272000,-20.0,-10.544244600071938,9.360755399928061
82374000,-20.0,-10.530622378202677,9.374377621797322
82475000,-20.0,-10.516075461149821,9.388924538850178
82575000,-20.0,-10.488187230978886,9.416812769021114
82677000,-20.0,-10.461656266789113,9.443343733210886
82777000,-20.0,-10.456709867001374,9.448290132998626
82881000,-20.0,-10.451592263545159,9.45340773645484
82981000,-20.0,-10.446966321363645,9.458033678636355
83082000,-20.0,-10.445452837034436,9.459547162965563
83185000,-20.0,-10.442744441902244,9.462255558097755
83285000,-20.0,-10.430964455811692,9.474035544188308
83389000,-20.0,-10.418816510422703,9.486183489577297
83489000,-20.0,-10.40787003480294,9.49712996519706
83590000,-20.0,-10.402492247192466,9.502507752807533
83693000,-20.0,-10.398091450907904,9.506908549092095
83794000,-20.0,-10.401309031132582,9.503690968867417
83896000,-20.0,-10.404589070906008,9.500410929093992
83996000,-20.0,-10.406038642949758,9.498961357050241
84097000,-20.0,-10.394571482339009,9.51042851766099
84198000,-20.0,-10.381941167572833,9.523058832427166
84299000,-20.0,-10.36070329476667,9.544296705233329
84400000,-20.0,-10.33915189250037,9.56584810749963
84501000,-20.0,-10.319103835683064,9.585896164316935
84601000,-20.0,-10.311863935735564,9.593136064264435
84703000,-20.0,-10.305002052655176,9.599997947344823
84803000,-20.0,-10.304214880651958,9.600785119348041
84905000,-20.0,-10.303414933035777,9.601585066964223
85005000,-20.0,-10.301662485826355,9.603337514173644
85106000,-20.0,-10.287906629189763,9.617093370810236
85208000,-20.0,-10.273878278144418,9.631121721855582
85308000,-20.0,-10.257838078920283,9.647161921079716
85410000,-20.0,-10.241557419298857,9.663442580701142
85510000,-20.0,-10.226610382414044,9.678389617585955
85612000,-20.0,-10.224927281844817,9.680072718155182
85712000,-20.0,-10.224685509883255,9.680314490116745
85813000,-20.0,-10.241413470092871,9.663586529907128
85915000,-20.0,-10.258408867786244,9.646591132213755
86015000,-20.0,-10.276494052993707,9.628505947006293
86117000,-20.0,-10.311605848100713,9.593394151899286
86217000,-20.0,-10.344370949322162,9.560629050677838
86318000,-20.0,-10.356567689718098,9.548432310281902
86420000,-20.0,-10.368216555377863,9.536783444622136
86520000,-20.0,-10.371150072717112,9.533849927282887
86622000,-20.0,-10.374131459914546,9.530868540085454
86722000,-20.0,-10.377993639786016,9.527006360213983
86823000,-20.0,-10.392416082661452,9.512583917338548
86925000,-20.0,-10.405909657523594,9.499090342476405
87026000,-20.0,-10.405800190914944,9.499199809085056
87128000,-20.0,-10.405688851569337,9.499311148430662
87228000,-20.0,-10.40553811333132,9.49946188666868
87328000,-20.0,-10.404965609116783,9.500034390883217
87430000,-20.0,-10.403904889169597,9.501095110830402
87531000,-20.0,-10.398015500909722,9.506984499090278
87633000,-20.0,-10.392036577510892,9.512963422489108
87733000,-20.0,-10.387091415779782,9.517908584220217
87833000,-20.0,-10.39265556615417,9.51234443384583
87935000,-20.0,-10.39845700634362,9.50654299365638
88035000,-20.0,-10.405972971621505,9.499027028378494
88137000,-20.0,-10.413596696192764,9.491403303807235
88238000,-20.0,-10.420935702234509,9.48406429776549
88338000,-20.0,-10.426180876953664,9.478819123046335
88440000,-20.0,-10.431754208662662,9.473245791337337
88540000,-20.0,-10.440283242208732,9.464716757791267
88642000,-16.0,-10.448951408660463,5.456048591339537
88742000,-16.0,-10.457290731494433,5.447709268505567
88843000,-16.0,-10.463439899524884,5.441560100475116
88945000,-16.0,-10.46853300304274,5.43646699695726
89045000,-16.0,-10.459738555303598,5.445261444696402
89147000,-16.0,-10.450809564852873,5.454190435147127
89247000,-16.0,-10.44129702597674,5.463702974023261
89347000,-16.0,-10.423194248039858,5.481805751960143
89449000,-16.0,-10.405454775671638,5.4995452243283625
89550000,-16.0,-10.395722617271048,5.5092773827289525
89652000,-16.0,-10.385829709527863,5.519170290472137
89752000,-16.0,-10.373273276919143,5.531726723080857
89852000,-16.0,-10.32736517612738,5.5776348238726206
89954000,-16.0,-10.279108812328486,5.625891187671514
90054000,-16.0,-10.211722463891999,5.693277536108002
90156000,-16.0,-10.143387153976347,5.761612846023653
90257000,-16.0,-10.070033371363719,5.834966628636281
90357000,-16.0,-9.924528808562366,5.980471191437634
90459000,-16.0,-9.780101638030303,6.124898361969698
90559000,-16.0,-9.67799678797545,6.22700321202455
90661000,-16.0,-9.574340634207234,6.330659365792767
90761000,-16.0,-9.467590233783426,6.437409766216574
90863000,-16.0,-9.301418447194388,6.603581552805612
90963000,-16.0,-9.14252205792177,6.76247794207823
91064000,-16.0,-9.042144503961197,6.8628554960388035
91166000,-16.0,-8.940408709096047,6.964591290903953
91266000,-16.0,-8.836615657384352,7.068384342615649
91369000,-16.0,-8.684317518400952,7.220682481599048
91470000,-16.0,-8.535549408028071,7.369450591971929
91570000,-16.0,-8.37662097778236,7.528379022217639
91674000,-16.0,-8.218685163625475,7.6863148363745255
91774000,-16.0,-8.113699106143605,7.791300893856396
91877000,-16.0,-8.005726209280423,7.899273790719577
91978000,-16.0,-7.894054741356939,8.01094525864306
92078000,-16.0,-7.7353375758138725,8.169662424186127
92180000,-16.0,-7.580134476130113,8.324865523869887
92280000,-16.0,-7.471968966403318,8.433031033596682
92382000,-16.0,-7.362172031278695,8.542827968721303
92482000,-16.0,-7.249798145651727,8.655201854348272
92582000,-16.0,-7.097131899391778,8.807868100608221
92684000,-16.0,-6.945653591079133,8.959346408920867
92785000,-16.0,-6.837448376387251,9.067551623612749
92886000,-16.0,-6.727525055042321,9.177474944957678
92987000,-16.0,-6.615469614629459,9.28953038537054
93087000,-16.0,-6.455574799952362,9.449425200047637
93189000,-16.0,-6.298083896308132,9.606916103691868
93289000,-16.0,-6.199689506279622,9.705310493720377
93391000,-16.0,-6.099819942898369,9.80518005710163
93491000,-16.0,-5.998758234508486,9.906241765491513
93592000,-16.0,-5.864692630604185,10.040307369395814
93693000,-16.0,-5.731717299887637,10.173282700112361
93794000,-16.0,-5.639083573478485,10.265916426521514
93896000,-16.0,-5.545001034538677,10.359998965461322
93996000,-16.0,-5.448433376758747,10.456566623241253
94096000,-16.0,-5.302624253591653,10.602375746408347
94198000,-16.0,-5.158012106100215,10.746987893899783
94299000,-16.0,-5.054108901146649,10.850891098853351
94400000,-16.0,-4.948619120005668,10.956380879994331
94501000,-16.0,-4.842238019260513,11.062761980739486
94601000,-16.0,-4.705594867115489,11.19940513288451
94703000,-16.0,-4.574181294356733,11.330818705643265
94803000,-16.0,-4.5329091661431695,11.372090833856829
94905000,-16.0,-4.490958926768437,11.414041073231562
95005000,-16.0,-4.454913330440567,11.450086669559433
95106000,-16.0,-4.4835245664783,11.4214754335217
95208000,-16.0,-4.51389696212189,11.391103037878109
95308000,-16.0,-4.560410364798043,11.344589635201956
95410000,-16.0,-4.607682395968987,11.297317604031013
95510000,-16.0,-4.657036683691937,11.247963316308063
95613000,-16.0,-4.742544995906571,11.16245500409343
95714000,-16.0,-4.824860341664753,11.080139658335247
95814000,-16.0,-4.897363658017877,11.007636341982122
95916000,-16.0,-4.971103914824304,10.933896085175695
96016000,-16.0,-5.047488793544001,10.857511206455998
96118000,-16.0,-5.16491936201329,10.74008063798671
96219000,-16.0,-5.283078723587732,10.621921276412268
96319000,-16.0,-5.4266600242611664,10.478339975738832
96421000,-16.0,-5.567841830841748,10.337158169158252
96521000,-16.0,-5.655396264874613,10.249603735125385
96623000,-16.0,-5.744491098405926,10.160508901594072
96723000,-16.0,-5.834245752709163,10.070754247290838
96824000,-16.0,-5.949896209310237,9.955103790689762
96925000,-16.0,-6.0648173132668575,9.840182686733142
97026000,-16.0,-6.149089216034257,9.755910783965742
97128000,-16.0,-6.234685651664071,9.670314348335928
97228000,-16.0,-6.321416722854523,9.583583277145477
97328000,-16.0,-6.438271962171206,9.466728037828792
97431000,-16.0,-6.552913758255587,9.352086241744411
97531000,-16.0,-6.616282988203706,9.288717011796292
97633000,-16.0,-6.68064776713078,9.22435223286922
97733000,-16.0,-6.746276372574805,9.158723627425195
97833000,-16.0,-6.837892008490501,9.067107991509499
97935000,-16.0,-6.927928583444933,8.977071416555066
98036000,-16.0,-6.981636489400621,8.923363510599378
98138000,-16.0,-7.036136202291565,8.868863797708434
98238000,-16.0,-7.089462253931104,8.815537746068896
98338000,-16.0,-7.138690408223448,8.766309591776551
98442000,-16.0,-7.18594818954427,8.71905181045573
98542000,-16.0,-7.197404859453138,8.707595140546863
98645000,-16.0,-7.20921331923854,8.69578668076146
98746000,-16.0,-7.221287183973486,8.683712816026514
98846000,-16.02,-7.238400679730491,8.686599320269508
98950000,-16.05,-7.254360277320302,8.700639722679698
99050000,-16.08,-7.258206348328027,8.72679365167197
99154000,-16.1,-7.262171040418199,8.742828959581802
99254000,-16.12,-7.263980890955681,8.76101910904432
99355000,-16.15,-7.252762321274754,8.802237678725243
99457000,-16.17,-7.238855842512707,8.836144157487295
99558000,-16.2,-7.20799023029926,8.89700976970074
99659000,-16.23,-7.176664070800379,8.958335929199622
99760000,-16.25,-7.141935055469795,9.013064944530205
99861000,-16.27,-7.074390649322774,9.100609350677225
99962000,-16.3,-7.009070739450685,9.195929260549315
100062000,-16.33,-6.962785828775501,9.272214171224496
100164000,-16.35,-6.915854195113097,9.339145804886904
100265000,-16.38,-6.867968551841071,9.417031448158928
100367000,-16.4,-6.799367211993473,9.505632788006524
100467000,-16.42,-6.7343907583392655,9.590609241660735
100567000,-16.45,-6.6968878941969265,9.658112105803072
100669000,-16.48,-6.658817482623347,9.726182517376653
100770000,-16.5,-6.61848871991505,9.78651128008495
100872000,-16.52,-6.544451002166871,9.88054899783313
100972000,-16.55,-6.472367251402585,9.982632748597416
101072000,-16.58,-6.407770873567939,10.077229126432059
101174000,-16.6,-6.344892801827878,10.160107198172122
101274000,-16.62,-6.312785544667607,10.212214455332393
101377000,-16.65,-6.280097029519734,10.274902970480264
101477000,-16.67,-6.248978552290176,10.326021447709826
101577000,-16.7,-6.228925774810986,10.376074225189013
101679000,-16.73,-6.2097710902448044,10.425228909755196
101780000,-16.75,-6.204782980638258,10.450217019361741
101882000,-16.77,-6.199707695004481,10.475292304995518
101982000,-16.8,-6.196141374970903,10.508858625029097
102082000,-16.83,-6.208385609034895,10.526614390965102
102184000,-16.85,-6.22092844557533,10.53407155442467
102285000,-16.88,-6.234841747766257,10.550158252233741
102386000,-16.9,-6.248977179972791,10.556022820027207
102487000,-16.92,-6.26481976495351,10.560180235046492
102587000,-16.95,-6.302974965172638,10.552025034827361
102689000,-16.98,-6.341265928412794,10.543734071587206
102789000,-17.0,-6.373724867687406,10.531275132312594
102891000,-17.03,-6.4066969878080195,10.528303012191982
102991000,-17.05,-6.441913134929501,10.5130868650705
103092000,-17.08,-6.511120909843382,10.473879090156617
103194000,-17.1,-6.580877564386412,10.424122435613588
103294000,-17.12,-6.644625510671777,10.380374489328224
103396000,-17.15,-6.709340870245533,10.345659129754464
103496000,-17.17,-6.775164110988911,10.29983588901109
103596000,-17.2,-6.866042898570797,10.238957101429202
103698000,-17.23,-6.9562233983396835,10.178776601660315
103799000,-17.25,-7.020051048951706,10.134948951048292
103900000,-17.28,-7.084839723660689,10.100160276339311
104001000,-17.3,-7.15121785527902,10.05378214472098
104101000,-17.33,-7.249296823047292,9.985703176952706
104203000,-17.35,-7.345300933118317,9.909699066881684
104303000,-17.38,-7.398823915210174,9.886176084789826
104405000,-17.4,-7.453188131454897,9.8518118685451
104506000,-17.42,-7.508347806746568,9.816652193253434
104606000,-17.45,-7.583657202398912,9.771342797601086
104708000,-17.48,-7.657830887649604,9.727169112350396
104808000,-17.5,-7.7109379355593,9.694062064440699
104910000,-17.53,-7.764877619804884,9.670122380195115
105011000,-17.55,-7.819291325900287,9.635708674099712
105113000,-17.58,-7.889514400341014,9.595485599658984
105213000,-17.6,-7.955983189583595,9.549016810416406
105313000,-17.62,-7.993502092966209,9.53149790703379
105415000,-17.65,-8.031633602981314,9.523366397018684
105516000,-17.67,-8.071843635715489,9.503156364284512
105618000,-17.7,-8.144517931600074,9.460482068399925
105718000,-17.73,-8.215374148704267,9.419625851295732
105818000,-17.75,-8.27883512298843,9.37616487701157
105920000,-17.78,-8.339759263194706,9.345240736805295
106021000,-17.8,-8.35915044073974,9.34584955926026
106123000,-17.83,-8.378881002494863,9.356118997505135
106223000,-17.85,-8.397396331071192,9.357603668928808
106323000,-17.88,-8.40578007054414,9.379219929455859
106425000,-17.9,-8.41354300233201,9.391456997667987
106526000,-17.92,-8.412568961274033,9.412431038725968
106628000,-17.95,-8.411578474621736,9.443421525378263
106728000,-17.98,-8.411487621565422,9.473512378434577
106829000,-18.0,-8.421200413495821,9.483799586504178
106930000,-18.02,-8.431144318829489,9.49385568117051
107031000,-18.05,-8.441995911862326,9.513004088137674
107133000,-18.08,-8.453007159521643,9.531992840478354
107233000,-18.1,-8.464174632998786,9.540825367001215
107333000,-18.12,-8.478966500978359,9.546033499021641
107435000,-18.15,-8.492820355396995,9.562179644603003
107536000,-18.18,-8.49299447175749,9.59200552824251
107638000,-18.2,-8.493171488415465,9.611828511584534
107738000,-18.23,-8.492743866787805,9.642256133212195
107838000,-18.25,-8.48531734179152,9.66968265820848
107940000,-18.27,-8.47823337336072,9.69676662663928
108041000,-18.3,-8.476585075103838,9.728414924896162
108142000,-18.33,-8.474912963389498,9.7600870366105
108243000,-18.35,-8.474222406616072,9.78077759338393
108343000,-18.38,-8.484755296551322,9.800244703448676
108445000,-18.4,-8.494084448647563,9.810915551352435
108545000,-18.43,-8.48742534314021,9.84757465685979
108647000,-18.45,-8.480654674681904,9.874345325318094
108748000,-18.48,-8.47330967377735,9.911690326222649
108848000,-18.5,-8.458120004948173,9.946879995051827
108950000,-18.53,-8.444309843343351,9.99069015665665
109050000,-18.55,-8.44925087650151,10.00574912349849
109152000,-18.58,-8.45426536884426,10.030734631155738
109253000,-18.6,-8.459850522467143,10.045149477532858
109353000,-18.62,-8.47270727931442,10.05229272068558
109455000,-18.65,-8.485454844290604,10.069545155709394
109556000,-18.68,-8.49432131270544,10.09067868729456
109657000,-18.7,-8.503324160455115,10.101675839544884
109758000,-18.73,-8.514043944492979,10.12095605550702
109858000,-18.75,-8.545775945560866,10.109224054439133
109960000,-18.78,-8.577345632046242,10.107654367953758
110060000,-18.8,-8.600611246815841,10.104388753184159
110162000,-18.83,-8.624249314246336,10.110750685753661
110263000,-18.85,-8.647498130871398,10.107501869128603
110365000,-18.88,-8.67091224211264,10.114087757887358
110465000,-18.9,-8.69489620638566,10.110103793614337
110565000,-18.93,-8.729993452096917,10.105006547903082
110667000,-18.95,-8.765625822037807,10.089374177962192
110768000,-18.98,-8.803548508743122,10.081451491256878
110869000,-19.0,-8.875069326562599,10.0299306734374
110970000,-19.03,-8.943927958554426,9.991072041445575
111070000,-19.05,-8.994733013255932,9.960266986744069
111172000,-19.08,-9.044908148355116,9.940091851644882
111272000,-19.1,-9.078261932477645,9.926738067522356
111374000,-19.12,-9.11212526154023,9.91287473845977
111474000,-19.15,-9.147433677018526,9.907566322981472
111575000,-19.18,-9.20606735634083,9.87893264365917
111677000,-19.2,-9.263658451951612,9.841341548048387
111777000,-19.23,-9.296880008371158,9.838119991628842
111880000,-19.25,-9.330903065011059,9.82409693498894
111980000,-19.28,-9.364867233459933,9.820132766540068
112080000,-19.3,-9.406979313911089,9.798020686088911
112182000,-19.33,-9.448491361702624,9.786508638297374
112283000,-19.35,-9.47619665904181,9.778803340958191
112385000,-19.38,-9.50434795160957,9.780652048390428
112485000,-19.4,-9.53428167910159,9.770718320898409
112585000,-19.43,-9.587678121385272,9.747321878614727
112687000,-19.45,-9.640251343738402,9.714748656261596
112787000,-19.48,-9.673636587203937,9.711363412796063
112889000,-19.5,-9.707560632594749,9.69743936740525
112990000,-19.53,-9.741524698798868,9.693475301201133
113090000,-19.55,-9.782400928070716,9.672599071929284
113192000,-19.58,-9.821667158028927,9.663332841971071
113292000,-19.6,-9.833943644033619,9.671056355966382
113394000,-19.62,-9.846413081103815,9.678586918896185
113494000,-19.65,-9.86107963992839,9.693920360071608
113595000,-19.68,-9.904774433962812,9.680225566037187
113696000,-19.7,-9.948241788506897,9.656758211493102
113797000,-19.73,-9.980217871549392,9.654782128450607
113899000,-19.75,-10.01269050264115,9.64230949735885
113999000,-19.78,-10.043475505587951,9.64152449441205
114099000,-19.8,-10.05955697295775,9.64544302704225
114201000,-19.83,-10.075950474599129,9.659049525400869
114302000,-19.85,-10.093323825543148,9.661676174456852
114404000,-19.88,-10.110990905959252,9.674009094040747
114504000,-19.9,-10.127821564035177,9.677178435964821
114604000,-19.93,-10.138334669764843,9.696665330235156
114706000,-19.95,-10.14816895609929,9.706831043900708
114806000,-19.98,-10.148113661718366,9.736886338281634
114908000,-20.0,-10.148057496031885,9.756942503968114
115009000,-20.0,-10.15013839642128,9.75486160357872
115109000,-20.0,-10.177935742078745,9.727064257921255
115211000,-20.0,-10.206228365941687,9.698771634058312
115311000,-20.0,-10.235305899311061,9.669694100688938
115413000,-20.0,-10.26488218660347,9.640117813396529
115514000,-20.0,-10.294181550008135,9.610818449991864
115616000,-20.0,-10.326640039473821,9.578359960526178
115716000,-20.0,-10.356471234379198,9.548528765620802
115816000,-20.0,-10.362939182034637,9.542060817965362
115918000,-20.0,-10.369503052349526,9.535496947650474
116018000,-20.0,-10.37524687083342,9.52975312916658
116120000,-20.0,-10.372694396217698,9.532305603782302
116221000,-20.0,-10.37126748480484,9.53373251519516
116321000,-20.0,-10.382428081360544,9.522571918639455
116423000,-20.0,-10.393755860673428,9.511244139326571
116523000,-20.0,-10.404646368566189,9.50035363143381
116625000,-20.0,-10.415712205396368,9.489287794603632
116726000,-20.0,-10.427786694295529,9.47721330570447
116826000,-20.0,-10.453505957981434,9.451494042018565
116928000,-20.0,-10.478075253782803,9.426924746217196
117028000,-20.0,-10.485082021551278,9.419917978448721
117130000,-20.0,-10.492185109997694,9.412814890002306
117231000,-20.0,-10.497230740310524,9.407769259689475
117331000,-20.0,-10.479064105196738,9.425935894803262
117433000,-20.0,-10.461837767783729,9.44316223221627
117533000,-20.0,-10.45887246638705,9.44612753361295
117635000,-20.0,-10.45586107375622,9.44913892624378
117735000,-20.0,-10.454920836068894,9.450079163931106
117836000,-20.0,-10.478173223761804,9.426826776238196
117937000,-20.0,-10.500351390460622,9.404648609539377
118038000,-20.0,-10.505370839841724,9.399629160158275
118140000,-20.0,-10.510464248914335,9.394535751085664
118240000,-20.0,-10.51451567641349,9.39048432358651
118340000,-20.0,-10.506874689823814,9.398125310176185
118442000,-20.0,-10.499109793398665,9.405890206601335
118542000,-20.0,-10.491351953408458,9.413648046591542
118644000,-20.0,-10.483470547915722,9.421529452084277
118745000,-20.0,-10.47580426787536,9.42919573212464
118845000,-20.0,-10.469329748238737,9.435670251761263
118947000,-20.0,-10.462715861179074,9.442284138820925
119047000,-20.0,-10.455787609904226,9.449212390095774
119149000,-20.0,-10.448761860597623,9.456238139402377
119249000,-20.0,-10.441234872351387,9.463765127648612
119350000,-20.0,-10.426351115513022,9.478648884486978
119452000,-20.0,-10.411779165838352,9.493220834161647
119552000,-20.0,-10.404064010439138,9.500935989560862
119654000,-20.0,-10.396232719897043,9.508767280102957
119754000,-20.0,-10.387810277440076,9.517189722559923
119854000,-20.0,-10.37086163890602,9.53413836109398
119956000,-20.0,-10.354678444115645,9.550321555884354
120057000,-20.0,-10.351299707580175,9.553700292419824
120159000,-20.0,-10.347873438242445,9.557126561757554
120259000,-20.0,-10.345917022813948,9.559082977186051
120361000,-20.0,-10.361078259093425,9.543921740906574
120461000,-20.0,-10.3749908070036,9.530009192996399
120561000,-20.0,-10.376255961581638,9.528744038418361
120663000,-20.0,-10.37754025755605,9.52745974244395
120764000,-20.0,-10.378112937462337,9.526887062537662
120865000,-20.0,-10.370271004595944,9.534728995404055
120966000,-20.0,-10.361412371628552,9.543587628371448
121066000,-20.0,-10.338933365594151,9.566066634405848
121168000,-20.0,-10.316951686459744,9.588048313540256
121268000,-20.0,-10.30484650830122,9.60015349169878
121370000,-20.0,-10.292523406827828,9.612476593172172
121471000,-20.0,-10.280822842448185,9.624177157551815
121571000,-20.0,-10.274092313279567,9.630907686720432
121673000,-20.0,-10.269242180721823,9.635757819278176
121773000,-20.0,-10.28805131042159,9.61694868957841
121875000,-20.0,-10.307201420553533,9.597798579446467
121976000,-20.0,-10.325820378895422,9.579179621104577
122076000,-20.0,-10.342331961990755,9.562668038009244
122178000,-20.0,-10.357339660514466,9.547660339485533
122278000,-20.0,-10.352245649152767,9.552754350847232
122380000,-20.0,-10.347067890166034,9.557932109833965
122480000,-20.0,-10.341770613776243,9.563229386223757
122581000,-20.0,-10.334108335390617,9.570891664609382
122682000,-20.0,-10.326828181167688,9.578171818832312
122783000,-20.0,-10.325726655499299,9.5792733445007
122885000,-20.0,-10.324608430565293,9.580391569434706
122985000,-20.0,-10.32520017249136,9.579799827508639
123085000,-20.0,-10.346645446088651,9.558354553911348
123187000,-20.0,-10.367239820444292,9.537760179555708
123287000,-20.0,-10.373440602084735,9.531559397915265
123389000,-20.0,-10.379737379588935,9.525262620411064
123490000,-20.0,-10.384991451444515,9.520008548555484
123590000,-20.0,-10.378706122289215,9.526293877710785
123692000,-20.0,-10.37274051576444,9.53225948423556
123792000,-20.0,-10.37191894019404,9.533081059805959
123894000,-20.0,-10.371085138674658,9.533914861325341
123994000,-20.0,-10.370674946536983,9.534325053463016
124095000,-20.0,-10.375265548976932,9.529734451023067
124197000,-20.0,-10.379130258763745,9.525869741236255
124297000,-20.0,-10.373423738105584,9.531576261894415
124399000,-20.0,-10.367631423764351,9.537368576235648
124499000,-20.0,-10.362729901659568,9.542270098340431
124599000,-20.0,-10.36757788510341,9.53742211489659
124701000,-20.0,-10.372577811375743,9.532422188624256
124802000,-20.0,-10.378450669983296,9.526549330016703
124903000,-20.0,-10.384416004000233,9.520583995999766
125004000,-16.0,-10.391424166525738,5.513575833474262
125104000,-16.0,-10.412150162658627,5.492849837341374
125206000,-16.0,-10.43260183906275,5.47239816093725
125306000,-16.0,-10.446216863110783,5.458783136889218
125408000,-16.0,-10.460035040447465,5.444964959552535
125508000,-16.0,-10.47248313553716,5.43251686446284
125610000,-16.0,-10.47066222254884,5.43433777745116
125711000,-16.0,-10.469160391606582,5.435839608393418
125811000,-16.0,-10.471255107909057,5.433744892090943
125913000,-16.0,-10.473380251503734,5.431619748496266
126013000,-16.0,-10.474274119857087,5.430725880142913
126115000,-16.0,-10.460089105380423,5.444910894619578
126215000,-16.0,-10.439725516253933,5.465274483746067
126316000,-16.0,-10.342660208128496,5.562339791871504
126418000,-16.0,-10.244630267031573,5.6603697329684275
126518000,-16.0,-10.154650553711324,5.750349446288676
126620000,-16.0,-10.063197610400898,5.841802389599102
126720000,-16.0,-9.96826973543997,5.936730264560031
126821000,-16.0,-9.816774733331245,6.088225266668755
126923000,-16.0,-9.667068694373325,6.237931305626675
127023000,-16.0,-9.564706043302369,6.340293956697631
127125000,-16.0,-9.46059171317849,6.444408286821511
127226000,-16.0,-9.353375900182396,6.551624099817604
127326000,-16.0,-9.189976984170139,6.715023015829861
127428000,-16.0,-9.02727414802934,6.87772585197066
127528000,-16.0,-8.905056718526954,6.999943281473047
127630000,-16.0,-8.780878319088142,7.124121680911858
127731000,-16.0,-8.655680958583256,7.2493190414167445
127831000,-16.0,-8.497489053001717,7.407510946998284
127933000,-16.0,-8.341222413604198,7.563777586395802
128033000,-16.0,-8.234751941314661,7.670248058685339
128135000,-16.0,-8.12646440020642,7.778535599793581
128236000,-16.0,-8.014882077171018,7.890117922828982
128336000,-16.0,-7.845486381696917,8.059513618303082
128438000,-16.0,-7.679121036244262,8.225878963755738
128538000,-16.0,-7.576098858596776,8.328901141403223
128640000,-16.0,-7.47150024675562,8.433499753244378
128740000,-16.0,-7.364020651527569,8.540979348472431
128841000,-16.0,-7.2054574076263895,8.699542592373609
128943000,-16.0,-7.049219500195669,8.85578049980433
129043000,-16.0,-6.951745855581811,8.953254144418189
129146000,-16.0,-6.852290900043622,9.052709099956378
129246000,-16.0,-6.750771351040439,9.154228648959561
129346000,-16.0,-6.6057584164833525,9.299241583516647
129449000,-16.0,-6.462398234120307,9.442601765879692
129549000,-16.0,-6.369121884387272,9.535878115612727
129651000,-16.0,-6.274421304108678,9.630578695891321
129751000,-16.0,-6.176290234325322,9.728709765674678
129852000,-16.0,-6.028729136861934,9.876270863138066
129954000,-16.0,-5.882522963336012,10.022477036663988
130054000,-16.0,-5.776334014522955,10.128665985477044
130156000,-16.0,-5.668703657462009,10.23629634253799
130257000,-16.0,-5.558012115483637,10.346987884516363
130357000,-16.0,-5.396274917066019,10.50872508293398
130459000,-16.0,-5.236771081719627,10.668228918280372
130559000,-16.0,-5.1313632819707395,10.77363671802926
130661000,-16.0,-5.02441381229174,10.880586187708259
130761000,-16.0,-4.915781919692622,10.989218080307378
130862000,-16.0,-4.766660481285557,11.138339518714442
130963000,-16.0,-4.624600576544781,11.280399423455219
131064000,-16.0,-4.565415595172987,11.339584404827013
131166000,-16.0,-4.505342545399769,11.39965745460023
131266000,-16.0,-4.4514211222262565,11.453578877773742
131368000,-16.0,-4.458519536213967,11.446480463786033
131469000,-16.0,-4.468172940757416,11.436827059242583
131569000,-16.0,-4.508156215773182,11.396843784226817
131671000,-16.0,-4.548900496080376,11.356099503919625
131772000,-16.0,-4.592884997526781,11.312115002473218
131874000,-16.0,-4.682320184228272,11.222679815771729
131975000,-16.0,-4.771305693810718,11.133694306189282
132075000,-16.0,-4.87623230027432,11.028767699725678
132177000,-16.0,-4.979554058090063,10.925445941909937
132277000,-16.0,-5.050304491600966,10.854695508399034
132379000,-16.0,-5.122186824440264,10.782813175559737
132480000,-16.0,-5.196644669666194,10.708355330333806
132580000,-16.0,-5.308013322051836,10.596986677948165
132682000,-16.0,-5.418452280259511,10.486547719740487
132782000,-16.0,-5.498057298305773,10.406942701694225
132884000,-16.0,-5.578975536619231,10.326024463380769
132985000,-16.0,-5.664214689678898,10.240785310321101
133085000,-16.0,-5.812798858256228,10.092201141743772
133187000,-16.0,-5.958868305380151,9.946131694619849
133287000,-16.0,-6.049487936155757,9.855512063844243
133389000,-16.0,-6.141512248636026,9.763487751363973
133490000,-16.0,-6.23358122722881,9.671418772771188
133590000,-16.0,-6.342251948907144,9.562748051092855
133692000,-16.0,-6.44982441210744,9.45517558789256
133792000,-16.0,-6.523684017129469,9.38131598287053
133894000,-16.0,-6.598650307928133,9.306349692071867
133994000,-16.0,-6.675801442961398,9.229198557038602
134095000,-16.0,-6.7932318535983,9.1117681464017
134197000,-16.0,-6.907785823615003,8.997214176384995
134297000,-16.0,-6.966758050322854,8.938241949677145
134399000,-16.0,-7.0266995052913455,8.878300494708654
134499000,-16.0,-7.086007858993822,8.818992141006177
134599000,-16.0,-7.149432470597382,8.755567529402617
134701000,-16.0,-7.211583890749292,8.693416109250707
134802000,-16.0,-7.246314938295856,8.658685061704142
134904000,-16.0,-7.28161134159605,8.623388658403949
135004000,-16.0,-7.314443975324189,8.590556024675811
135104000,-16.0,-7.324827357994516,8.580172642005484
135206000,-16.02,-7.3337977797691565,8.591202220230842
135307000,-16.05,-7.324189469156838,8.630810530843162
135408000,-16.08,-7.314436619285281,8.670563380714716
135509000,-16.1,-7.302855375297665,8.702144624702337
135612000,-16.12,-7.267055618707437,8.757944381292562
135712000,-16.15,-7.233233544397109,8.821766455602889
135813000,-16.17,-7.210540764653124,8.864459235346876
135915000,-16.2,-7.1874670077713265,8.917532992228672
136015000,-16.23,-7.16085056853477,8.97414943146523
136117000,-16.25,-7.095462997942545,9.059537002057455
136218000,-16.27,-7.031736682557899,9.1432633174421
136318000,-16.3,-6.973158728039794,9.231841271960205
136420000,-16.33,-6.91507743682693,9.319922563173067
136520000,-16.35,-6.874367462219464,9.380632537780537
136622000,-16.38,-6.832990734348683,9.452009265651315
136723000,-16.4,-6.78887025460543,9.516129745394567
136823000,-16.42,-6.707795063992745,9.617204936007257
136925000,-16.45,-6.627762192074641,9.727237807925357
137025000,-16.48,-6.5743382227962766,9.810661777203723
137127000,-16.5,-6.520010519908625,9.884989480091376
137228000,-16.52,-6.466066916297049,9.95893308370295
137328000,-16.55,-6.406491197847362,10.048508802152638
137430000,-16.58,-6.348636778749246,10.136363221250752
137531000,-16.6,-6.322218348977992,10.18278165102201
137632000,-16.62,-6.295405947884804,10.229594052115196
137733000,-16.65,-6.268722795343683,10.286277204656315
137833000,-16.67,-6.239036246348193,10.335963753651809
137935000,-16.7,-6.210789816524526,10.394210183475472
138035000,-16.73,-6.204946409404518,10.430053590595483
138137000,-16.75,-6.1990169518925935,10.455983048107406
138238000,-16.77,-6.193901052300524,10.481098947699474
138338000,-16.8,-6.197304780066554,10.507695219933446
138440000,-16.83,-6.201524436057846,10.533475563942153
138540000,-16.85,-6.214481090113887,10.540518909886114
138643000,-16.88,-6.227785693278154,10.557214306721844
138744000,-16.9,-6.243769390455328,10.56123060954467
138844000,-16.92,-6.2893909064574025,10.535609093542599
138946000,-16.95,-6.33572233705539,10.519277662944608
139046000,-16.98,-6.381554205815817,10.503445794184183
139148000,-17.0,-6.428046182874151,10.476953817125848
139248000,-17.03,-6.476424038489344,10.458575961510656
139349000,-17.05,-6.551310016283127,10.403689983716873
139451000,-17.08,-6.625367191932773,10.359632808067225
139551000,-17.1,-6.674733619662863,10.330266380337138
139653000,-17.12,-6.724861317173546,10.300138682826455
139753000,-17.15,-6.776967652121442,10.278032347878556
139854000,-17.17,-6.861057808384625,10.213942191615375
139956000,-17.2,-6.94418507694988,10.160814923050118
140056000,-17.23,-6.998043235097139,10.13695676490286
140158000,-17.25,-7.052719558185246,10.102280441814754
140259000,-17.28,-7.107652081472847,10.077347918527154
140359000,-17.3,-7.175155368952411,10.02984463104759
140461000,-17.33,-7.242587029872714,9.992412970127283
140561000,-17.35,-7.297071287015681,9.95792871298432
140663000,-17.38,-7.352383332026181,9.932616667973816
140763000,-17.4,-7.408694523611122,9.896305476388877
140865000,-17.42,-7.487377691833828,9.837622308166173
140966000,-17.45,-7.562227363998673,9.792772636001326
141066000,-17.48,-7.60604689770705,9.77895310229295
141168000,-17.5,-7.650498950330298,9.7545010496697
141268000,-17.53,-7.697497707155772,9.737502292844228
141370000,-17.55,-7.783711735646453,9.671288264353548
141471000,-17.58,-7.8686799780919925,9.616320021908004
141571000,-17.6,-7.954103625273456,9.550896374726545
141673000,-17.62,-8.037622372376596,9.487377627623404
141773000,-17.65,-8.083503217941137,9.47149678205886
141875000,-17.67,-8.130128958170877,9.444871041829124
141975000,-17.7,-8.175761599247544,9.429238400752455
142076000,-17.73,-8.21854132034305,9.41645867965695
142178000,-17.75,-8.260640483200898,9.394359516799101
142278000,-17.78,-8.287474655131165,9.397525344868836
142380000,-17.8,-8.314741874866348,9.390258125133652
142480000,-17.83,-8.342818115379147,9.39218188462085
142581000,-17.85,-8.385195666010288,9.369804333989713
142682000,-17.88,-8.426596597867343,9.358403402132655
142783000,-17.9,-8.448489357724442,9.356510642275556
142885000,-17.92,-8.470753108971353,9.354246891028648
142985000,-17.95,-8.492799319927114,9.362200680072885
143086000,-17.98,-8.51656969353335,9.36843030646665
143187000,-18.0,-8.539147147570182,9.365852852429818
143288000,-18.02,-8.543264816406982,9.381735183593017
143390000,-18.05,-8.547454964798519,9.407545035201482
143490000,-18.08,-8.551047032538548,9.43395296746145
143591000,-18.1,-8.548633547720284,9.456366452279717
143692000,-18.12,-8.54487424040647,9.48012575959353
143793000,-18.15,-8.526042655679726,9.528957344320272
143895000,-18.18,-8.506889069807245,9.578110930192754
143995000,-18.2,-8.486419401312428,9.61858059868757
144096000,-18.23,-8.447028626360664,9.687971373639336
144197000,-18.25,-8.409511171405848,9.745488828594151
144298000,-18.27,-8.400045547753274,9.774954452246725
144400000,-18.3,-8.39042648453759,9.81457351546241
144500000,-18.33,-8.38157424454401,9.853425755455987
144600000,-18.35,-8.379796501099687,9.875203498900314
144702000,-18.38,-8.37934431130472,9.905655688695278
144802000,-18.4,-8.394763177653369,9.91023682234663
144904000,-18.43,-8.410420985097856,9.924579014902143
145005000,-18.45,-8.425720809984123,9.929279190015876
145105000,-18.48,-8.439583032468617,9.945416967531383
145207000,-18.5,-8.45228963042776,9.95271036957224
145307000,-18.53,-8.448546606339129,9.986453393660872
145410000,-18.55,-8.444703784881007,10.010296215118993
145511000,-18.58,-8.439151004272382,10.045848995727615
145611000,-18.6,-8.414956166646801,10.0900438333532
145713000,-18.62,-8.393034130836934,10.131965869163066
145813000,-18.65,-8.398129033277806,10.156870966722192
145915000,-18.68,-8.403309424964956,10.181690575035043
146015000,-18.7,-8.410667091977375,10.194332908022623
146119000,-18.73,-8.441531490958097,10.193468509041903
146219000,-18.75,-8.47185359720723,10.183146402792769
146319000,-18.78,-8.504667139297904,10.180332860702096
146421000,-18.8,-8.538029638845293,10.166970361154707
146522000,-18.83,-8.571049108959272,10.163950891040725
146624000,-18.85,-8.606783483557628,10.148216516442373
146724000,-18.88,-8.642797832585556,10.142202167414442
146824000,-18.9,-8.686900200868283,10.118099799131715
146928000,-18.93,-8.73252338185674,10.102476618143259
147028000,-18.95,-8.778632697384007,10.076367302615992
147131000,-18.98,-8.826031397731702,10.058968602268298
147232000,-19.0,-8.873883592854192,10.031116407145808
147332000,-19.03,-8.936542753006607,9.998457246993393
147434000,-19.05,-8.99721709681835,9.95778290318165
147535000,-19.08,-9.033147644314019,9.951852355685979
147636000,-19.1,-9.069661130883945,9.935338869116055
147737000,-19.12,-9.1055750407467,9.9194249592533
147837000,-19.15,-9.141396334444401,9.913603665555597
147939000,-19.18,-9.178090575388044,9.906909424611955
148040000,-19.2,-9.217547149135532,9.887452850864467
148141000,-19.23,-9.257573387792133,9.877426612207866
148242000,-19.25,-9.298961109586982,9.856038890413018
148342000,-19.28,-9.363293715834713,9.821706284165288
148444000,-19.3,-9.426657300425537,9.778342699574463
148544000,-19.33,-9.46587062191992,9.769129378080077
148646000,-19.35,-9.505680736346697,9.749319263653303
148747000,-19.38,-9.546574811983156,9.738425188016842
148847000,-19.4,-9.606821668279302,9.698178331720696
148949000,-19.43,-9.666405535048012,9.668594464951987
149049000,-19.45,-9.706216697260672,9.648783302739327
149151000,-19.48,-9.746642964557712,9.638357035442288
149252000,-19.5,-9.786755798409255,9.618244201590745
149352000,-19.53,-9.83105319929786,9.60394680070214
149454000,-19.55,-9.874092733244606,9.580907266755395
149554000,-19.58,-9.89281058783722,9.592189412162778
149656000,-19.6,-9.911823578910916,9.593176421089085
149757000,-19.62,-9.931041716221808,9.593958283778193
149857000,-19.65,-9.955852397370121,9.599147602629877
149959000,-19.68,-9.980941484864427,9.604058515135572
150059000,-19.7,-10.00431356093857,9.600686439061429
150161000,-19.73,-10.028023655913316,9.606976344086684
150262000,-19.75,-10.052040918485721,9.602959081514278
150364000,-19.78,-10.084109212619358,9.600890787380642
150464000,-19.8,-10.114053255761695,9.590946744238305
150564000,-19.83,-10.126060955027357,9.60893904497264
150666000,-19.85,-10.138249632015453,9.616750367984547
150766000,-19.88,-10.15052303367361,9.634476966326389
150868000,-19.9,-10.16608257989397,9.638917420106027
150969000,-19.93,-10.180199333089103,9.654800666910896
151069000,-19.95,-10.180232004185518,9.67476799581448
151171000,-19.98,-10.18041044155704,9.70458955844296
151271000,-20.0,-10.182279395152474,9.722720604847526
151374000,-20.0,-10.184181318087424,9.720818681912576
151474000,-20.0,-10.18691827017888,9.718081729821119
151574000,-20.0,-10.199365334276242,9.705634665723757
151676000,-20.0,-10.211423858996309,9.69357614100369
151777000,-20.0,-10.2169515780326,9.6880484219674
151879000,-20.0,-10.222580210720832,9.682419789279168
151979000,-20.0,-10.228655581992097,9.676344418007902
152079000,-20.0,-10.24072704312064,9.66427295687936
152181000,-20.0,-10.252393432436158,9.652606567563842
152281000,-20.0,-10.257136594036174,9.647863405963825
152383000,-20.0,-10.261958041145066,9.643041958854933
152484000,-20.0,-10.267647314874408,9.637352685125592
152584000,-20.0,-10.284259107916009,9.62074089208399
152686000,-20.0,-10.301192256211326,9.603807743788673
152787000,-20.0,-10.318770029131311,9.586229970868688
152888000,-20.0,-10.336632972067878,9.568367027932121
152989000,-20.0,-10.355100863473218,9.549899136526781
153089000,-20.0,-10.383699281641938,9.521300718358061
153191000,-20.0,-10.412260075463188,9.492739924536812
153292000,-20.0,-10.435144936992439,9.46985506300756
153393000,-20.0,-10.458390594663417,9.446609405336583
153494000,-20.0,-10.480989606638333,9.424010393361666
153594000,-20.0,-10.500397634994417,9.404602365005582
153696000,-20.0,-10.51866732870741,9.386332671292589
153796000,-20.0,-10.520489656249012,9.384510343750987
153898000,-20.0,-10.522341162441084,9.382658837558916
153999000,-20.0,-10.524058044614046,9.380941955385953
